id,name,type,typecode,address,lng,lat,tel,rating,cost,group,pname,cityname,adname
B0J19L582P,上海哈尔滨食品厂(汇金百货店),购物服务;专卖店;专营店|餐饮服务;糕饼店;糕饼店|购物服务;超级市场;超市|公司企业;公司;公司,061200|050800|060400|170200,天钥桥路40-90号汇联商厦,121.440042,31.195493,15800583674,4.2,[],社交餐饮|购物菜场,上海市,上海市,徐汇区
B0FFIED63E,淮海南丰荟,购物服务;商场;购物中心,060101,淮海中路188号(大世界地铁站3号口步行380米),121.476830,31.224628,,4.4,[],购物菜场,上海市,上海市,黄浦区
B0FFGM2TAK,豫园百货天裕楼,购物服务;商场;购物中心|风景名胜;风景名胜;风景名胜,060101|110200,方浜中路249号,121.491268,31.225715,,4.3,[],购物菜场|风景名胜,上海市,上海市,黄浦区
B0FFF4ACHZ,88铜仁路(上海X88店),购物服务;商场;购物中心,060101,铜仁路88号(静安寺地铁站8号口步行300米),121.451367,31.223377,,4.4,[],购物菜场,上海市,上海市,静安区
B00156LVIV,汇京国际广场,购物服务;商场;普通商场,060102,虹桥路777号(虹桥路地铁站4号口步行190米),121.423612,31.195962,021-52801880;021-64878601;13482824576,4.6,[],购物菜场,上海市,上海市,徐汇区
B00156O89O,福缘湾·九华商业广场,购物服务;商场;购物中心|购物服务;商场;普通商场,060101|060102,淞虹路938号福缘湾,121.364957,31.204095,021-52178800,4.4,[],购物菜场,上海市,上海市,长宁区
B0FFF661BT,风度国际生活广场,购物服务;商场;普通商场,060102,虹桥镇虹泉路1101弄3号,121.373088,31.169045,,4.3,[],购物菜场,上海市,上海市,闵行区
B00155KVYR,118广场(金沙江路店),购物服务;商场;普通商场,060102,金沙江路1685号,121.377695,31.231457,021-52985508,4.6,[],购物菜场,上海市,上海市,普陀区
B00156R5U6,衡辰商业广场,购物服务;商场;普通商场,060102,天山路346号(威宁路地铁站出入口旁),121.387263,31.215200,021-52665752,4.2,[],购物菜场,上海市,上海市,长宁区
B0LRA71BI0,上海龙华会C1,购物服务;商场;购物中心,060101,龙华路2778号(龙华地铁站出入口旁),121.452611,31.172442,,4.1,[],购物菜场,上海市,上海市,徐汇区
B0LRA714L6,上海龙华会T1,购物服务;商场;购物中心,060101,龙华路2778号(龙华地铁站出入口旁),121.453267,31.174889,,4.2,[],购物菜场,上海市,上海市,徐汇区
B0LRA70YD7,上海龙华会C3,购物服务;商场;购物中心,060101,龙华路2778号(龙华地铁站5号口旁),121.453696,31.173103,,4.1,[],购物菜场,上海市,上海市,徐汇区
B0LRA714L7,上海龙华会C2,购物服务;商场;购物中心,060101,龙华路2778号(龙华地铁站出入口旁),121.453115,31.173142,,3.9,[],购物菜场,上海市,上海市,徐汇区
B0LRA70YD5,上海龙华会T3,购物服务;商场;购物中心,060101,龙华路2778号上海龙华会(龙华地铁站5号口步行80米),121.453991,31.173908,,4.0,[],购物菜场,上海市,上海市,徐汇区
B0LRA70YD4,上海龙华会T2,购物服务;商场;购物中心,060101,龙华路2778号(龙华地铁站5号口步行80米),121.453536,31.174069,,4.2,[],购物菜场,上海市,上海市,徐汇区
B0I155TYLU,IM Shanghai长宁国际T7栋,购物服务;商场;商场,060100,IM Shanghai长宁国际北区,121.422375,31.198675,,4.2,[],购物菜场,上海市,上海市,长宁区
B00156F2ET,鑫茂商厦,购物服务;商场;普通商场,060102,定西路1313号(中山公园地铁站8号口步行260米),121.421852,31.216757,,4.2,[],购物菜场,上海市,上海市,长宁区
B0LRA714L8,上海龙华会C5,购物服务;商场;购物中心,060101,龙华路2778号上海龙华会(龙华地铁站出入口步行160米),121.452999,31.171995,,3.9,[],购物菜场,上海市,上海市,徐汇区
B0LRA70YD6,上海龙华会T4,购物服务;商场;购物中心,060101,龙华路2778号上海龙华会(龙华地铁站出入口步行110米),121.454198,31.174465,,3.9,[],购物菜场,上海市,上海市,徐汇区
B0FFLF7V3Y,上海七宝宝龙城东区,购物服务;商场;普通商场|商务住宅;住宅区;住宅小区,060102|120302,漕宝路3299弄15号,121.356285,31.158483,,4.3,[],购物菜场,上海市,上海市,闵行区
B0FFJVAHPZ,上海INSHOP聚集地(静安嘉里中心南区商场店),购物服务;商场;商场,060100,常德路1号(静安寺地铁站8号口步行90米),121.448914,31.222507,,3.7,[],购物菜场,上海市,上海市,静安区
B0FFG95L4Z,家宁生活广场,购物服务;商场;普通商场,060102,大木桥路428号联友商务中心,121.462078,31.196395,,4.1,[],购物菜场,上海市,上海市,徐汇区
B0FFGDGYYJ,金汇广场,购物服务;商场;普通商场,060102,金汇路,121.372727,31.182636,,4.3,[],购物菜场,上海市,上海市,闵行区
B00155MS14,森宏购物广场,购物服务;商场;购物中心,060101,长清路1200弄(灵岩南路地铁站3号口步行370米),121.490166,31.149981,021-60871179,4.6,[],购物菜场,上海市,上海市,浦东新区
B00155KSIC,万都商城,购物服务;商场;购物中心,060101,兴义路8号万都商城2层,121.405280,31.204781,021-52080018,4.3,[],购物菜场,上海市,上海市,长宁区
B0FFHPR51B,阿拉城,购物服务;商场;商场,060100,先锋街66号(龙柏新村地铁站3号口步行330米),121.373745,31.177126,021-33883918;021-64658088,4.6,[],购物菜场,上海市,上海市,闵行区
B00156F486,近铁城市广场,购物服务;商场;购物中心,060101,长征镇真北路818号(真北路地铁站3号口步行100米),121.381700,31.232492,021-62861199,4.7,[],购物菜场,上海市,上海市,普陀区
B00154DTEG,美罗城,购物服务;商场;购物中心,060101,肇嘉浜路1111号,121.439649,31.192944,021-64268888,4.8,[],购物菜场,上海市,上海市,徐汇区
B0FFH112V5,鑫意生活广场,购物服务;商场;普通商场,060102,新会路与陕西北路交叉口西南100米,121.442521,31.241315,13918298256;18616852888,4.1,[],购物菜场,上海市,上海市,普陀区
B0FFHR3FMH,星宝购物中心,购物服务;商场;购物中心|购物服务;商场;普通商场|购物服务;超级市场;超市,060101|060102|060400,古美路街道漕宝路1574号(近虹莘路),121.378441,31.156828,021-33583600,4.5,[],购物菜场,上海市,上海市,闵行区
B0LRA71BHZ,上海龙华会T5,购物服务;商场;购物中心,060101,龙华路2778号上海龙华会(龙华地铁站出入口旁),121.453950,31.174876,,3.8,[],购物菜场,上海市,上海市,徐汇区
B0LKXCNYMX,仙乐斯广场,购物服务;商场;普通商场,060102,南京西路388号,121.468959,31.231425,021-63181388;021-63592699;021-63751188,4.1,[],购物菜场,上海市,上海市,黄浦区
B0JDTA0P49,晶耀前滩西区,购物服务;商场;商场,060100,耀体路308号晶耀前滩Crystal Plaza,121.476007,31.152199,,4.2,[],购物菜场,上海市,上海市,浦东新区
B0IU15WJRE,万辉国际广场5号楼,购物服务;商场;普通商场,060102,虹梅南路与罗锦路交叉口南80米,121.422491,31.124573,18728739888,3.8,[],购物菜场,上海市,上海市,闵行区
B0I155TYLT,IM Shanghai长宁国际T6栋,购物服务;商场;商场,060100,IM Shanghai长宁国际南区,121.421777,31.198857,,4.2,[],购物菜场,上海市,上海市,长宁区
B0FFK6UNXQ,万辉国际广场1号楼,购物服务;商场;普通商场,060102,虹梅南路863号万辉国际广场,121.422599,31.124322,021-64023998,3.8,[],购物菜场,上海市,上海市,闵行区
B0FFHXO68Z,东阔生活广场B幢,购物服务;商场;普通商场,060102,华泾镇华发路230号,121.450531,31.127261,,4.2,[],购物菜场,上海市,上海市,徐汇区
B0FFGTJUNV,虹霞商城,购物服务;商场;普通商场,060102,吴中路与万源路交叉口西南80米,121.385083,31.176195,,4.1,[],购物菜场,上海市,上海市,闵行区
B0FFFS2D3A,锦麟天地,购物服务;商场;普通商场,060102,兴业路156弄1号,121.474087,31.219783,021-23061888,4.3,[],购物菜场,上海市,上海市,黄浦区
B0015458AD,上海旅游品商厦,购物服务;商场;普通商场,060102,南京东路558号(近浙江中路),121.479644,31.235956,,4.2,[],购物菜场,上海市,上海市,黄浦区
B0FFI9ZX8O,南洋1931,购物服务;商场;商场,060100,裕德路165号商场悦宝园旁边HAPE TY中岛小铺,121.433542,31.185925,021-64393333,4.6,[],购物菜场,上海市,上海市,徐汇区
B0FFHR3DEP,晶耀前滩Crystal Plaza,购物服务;商场;普通商场,060102,耀体路308号(东方体育中心地铁站4号口步行140米),121.476969,31.152508,021-58882777;021-61931037,4.8,[],购物菜场,上海市,上海市,浦东新区
B00150AE6A,新虹桥商厦,购物服务;商场;普通商场|购物服务;商场;购物中心,060102|060101,仙霞路158号,121.402604,31.205788,,4.5,[],购物菜场,上海市,上海市,长宁区
B0LUVUE4BL,1559华迈生活广场,购物服务;商场;普通商场,060102,漕宝路与莲花路交叉口西180米,121.392725,31.160325,,4.3,[],购物菜场,上海市,上海市,闵行区
B0JD27NMZ1,香港广场购物中心南区,购物服务;商场;购物中心|购物服务;商场;普通商场,060101|060102,淮海中路283号香港广场购物中心,121.475193,31.222809,021-63840717,4.0,[],购物菜场,上海市,上海市,黄浦区
B0G0C4QCXP,天安·莘福里,购物服务;商场;普通商场,060102,天豪路15-163号,121.374776,31.161803,,4.2,[],购物菜场,上海市,上海市,闵行区
B0FFMB680Y,嘉宏商业广场,购物服务;商场;商场,060100,合川路3125号,121.380549,31.179999,,4.0,[],购物菜场,上海市,上海市,闵行区
B0FFM0WBUS,晶耀前滩南区,购物服务;商场;商场,060100,耀体路308号晶耀前滩Crystal Plaza,121.477428,31.151894,,4.3,[],购物菜场,上海市,上海市,浦东新区
B0FFKF29VF,加华广场,购物服务;商场;普通商场,060102,虹桥路808号融景·解园A8栋,121.424082,31.194569,,4.3,[],购物菜场,上海市,上海市,徐汇区
B0LKUCYEZB,FFC滨江悦里,购物服务;商场;商场,060100,瑞宁路2号,121.468738,31.192881,,4.0,[],购物菜场,上海市,上海市,徐汇区
B0L37MLVB7,上海青春时代广场,购物服务;商场;购物中心,060101,金汇路459号,121.375004,31.177060,15601980010,4.0,[],购物菜场,上海市,上海市,闵行区
B0L0N5SBMG,沪佳广场,购物服务;商场;普通商场,060102,长寿路400号(长寿路地铁站2号口步行90米),121.438105,31.241166,,4.0,[],购物菜场,上海市,上海市,普陀区
B0KDDZBSZF,Night Park,体育休闲服务;娱乐场所;酒吧|购物服务;商场;商场,080304|060100,淮海中路98号NightPark(龙门路正门),121.479052,31.225635,15021264545,4.1,[],购物菜场,上海市,上海市,黄浦区
B0KAFZHX3M,TRI PLACE三角地,购物服务;商场;普通商场,060102,新华路365弄6号楼101-102室,121.424857,31.202203,13621936368,3.8,[],购物菜场,上海市,上海市,长宁区
B0HBT75MB4,Zefyr Art(上海尚嘉中心店),购物服务;商场;免税品店,060103,仙霞路99号尚嘉中心L2层L224,121.407422,31.205854,13810765291,3.0,[],购物菜场,上海市,上海市,长宁区
B0HB3H8M6Y,虹桥南丰城-北区商场(虹桥南丰城店),购物服务;商场;普通商场,060102,遵义路100号虹桥南丰城北区L1层,121.407699,31.208286,,4.1,[],购物菜场,上海市,上海市,长宁区
B0FFK3NITJ,森宏广场,购物服务;商场;普通商场,060102,杨南路与长清路交叉口西180米,121.491215,31.149409,,4.0,[],购物菜场,上海市,上海市,浦东新区
B0FFHWN41Y,浦商百货东区,购物服务;商场;普通商场,060102,昌里路321-337号(长清路地铁站7号口步行300米),121.491716,31.173945,,3.8,[],购物菜场,上海市,上海市,浦东新区
B0FFG7KRLT,湖滨道购物中心,购物服务;商场;购物中心,060101,湖滨路150号企业天地5号楼,121.478971,31.220984,13386195772,4.6,[],购物菜场,上海市,上海市,黄浦区
B00156ZP87,正大乐城,购物服务;商场;普通商场,060102,中山南二路699号,121.458140,31.186395,021-61956888;021-61956890,4.6,[],购物菜场,上海市,上海市,徐汇区
B00156NWMY,ARK新华宁,购物服务;商场;购物中心,060101,宣化路300号华宁国际广场,121.422512,31.217490,021-61677298,4.4,[],购物菜场,上海市,上海市,长宁区
B00155MVT0,古美生活购物广场,购物服务;商场;购物中心,060101,龙茗路1300弄,121.385680,31.143339,021-54166733,4.4,[],购物菜场,上海市,上海市,闵行区
B00155LYN1,我格广场,购物服务;商场;普通商场,060102,武宁路101号,121.423064,31.237856,021-52358899,4.7,[],购物菜场,上海市,上海市,普陀区
B00155I9QT,腾飞广场,购物服务;商场;普通商场,060102,天钥桥路333号(上海体育场地铁站3号口步行370米),121.442432,31.187895,,4.3,[],购物菜场,上海市,上海市,徐汇区
B00155GSJ3,俪人街商场,购物服务;商场;普通商场,060102,水城路488号(近茅台路),121.391342,31.209633,021-51524617,4.3,[],购物菜场,上海市,上海市,长宁区
B001550RQU,虹桥南丰城,购物服务;商场;购物中心|购物服务;商场;普通商场|生活服务;物流速递;物流速递,060101|060102|070500,遵义路100号,121.407792,31.207262,021-62113288;021-62371118;021-62372222,4.8,[],购物菜场,上海市,上海市,长宁区
B0FFFLFXMC,万源城·乐斯生活会馆,购物服务;商场;普通商场,060102,万源路916号,121.394380,31.148690,,4.4,[],购物菜场,上海市,上海市,闵行区
B0LRA714L9,上海龙华会C6,购物服务;商场;购物中心,060101,龙华路2778号上海龙华会(龙华地铁站2号口旁),121.451932,31.172347,,3.6,[],购物菜场,上海市,上海市,徐汇区
B0L3TZ7HWR,全棉时代(钦州北路店),购物服务;商场;商场,060100,桂箐路与贺阀路交叉口东北120米,121.405730,31.177707,,3.6,[],购物菜场,上海市,上海市,徐汇区
B0JR9RKQQI,(德施曼智能锁)中山公园龙之梦专卖店,购物服务;商场;普通商场|购物服务;商场;购物中心,060102|060101,中山公园龙之梦4楼红中厅,121.378076,31.107773,13501791043;15000066717,3.6,[],购物菜场,上海市,上海市,闵行区
B0HKOUJ6ED,东苑丽宝广场58号4号楼中国福利彩票,购物服务;商场;普通商场,060102,莘庄镇莘松路58号东苑丽宝广场4号楼1层中国福利彩票,121.376740,31.109191,,3.9,[],购物菜场,上海市,上海市,闵行区
B0IRL1OOE1,新业太古汇(静安嘉里中心店),购物服务;商场;普通商场,060102,石门一路288号(静安寺地铁站6号口步行140米),121.449330,31.223327,,4.3,[],购物菜场,上海市,上海市,静安区
B0FFG0MLGS,PLAYNE新邻,购物服务;商场;商场,060100,陆家浜路1100号(陆家浜路地铁站6号口步行60米),121.487040,31.211519,021-31159030,4.6,[],购物菜场,上海市,上海市,黄浦区
B0FFF49X49,东阔生活广场,购物服务;商场;购物中心,060101,华泾镇华发路262号,121.450127,31.127249,021-54733288,4.4,[],购物菜场,上海市,上海市,徐汇区
B001573D2D,金沙·和美广场,购物服务;商场;购物中心,060101,金沙江路2239弄1号(祁连山南路与金沙江路交叉口西南角),121.366356,31.237243,021-61677173,4.6,[],购物菜场,上海市,上海市,普陀区
B00156O7KU,尚嘉中心,购物服务;商场;购物中心,060101,仙霞路99号,121.407137,31.205688,021-60290066,4.7,[],购物菜场,上海市,上海市,长宁区
B00156NWBJ,益丰·外滩源,购物服务;商场;普通商场,060102,北京东路99号(近圆明园路),121.488895,31.240436,021-63392228,4.6,[],购物菜场,上海市,上海市,黄浦区
B00156ECCB,百联徐汇商业广场,购物服务;商场;普通商场,060102,华山路1988号,121.436927,31.197251,021-54070000;021-54070760,4.6,[],购物菜场,上海市,上海市,徐汇区
B00156E4FG,舜元天地,购物服务;商场;购物中心,060101,江苏路458号(江苏路与宣化路交叉口西北角),121.430818,31.218407,021-32505999,4.4,[],购物菜场,上海市,上海市,长宁区
B00156D7QS,城隍庙第一购物中心(丽水路),购物服务;商场;购物中心,060101,丽水路88号,121.490174,31.228259,,4.4,[],购物菜场,上海市,上海市,黄浦区
B00155LZFI,818广场,购物服务;商场;购物中心,060101,南京西路818号,121.460915,31.231140,021-62176530,4.6,[],购物菜场,上海市,上海市,静安区
B001559HFM,福源商厦(城隍庙店),购物服务;综合市场;小商品市场|购物服务;商场;商场,060701|060100,福佑路338号(豫园地铁站3B口步行250米),121.489564,31.227368,13761485633,4.4,[],购物菜场,上海市,上海市,黄浦区
B0FFIXD8PV,万辉国际广场,购物服务;商场;普通商场,060102,虹梅南路863号,121.422408,31.124555,021-64023998,4.6,[],购物菜场,上海市,上海市,闵行区
B0FFI123GJ,保利时光里,购物服务;商场;购物中心,060101,瑞平路230号,121.455048,31.181645,021-64223700,4.7,[],购物菜场,上海市,上海市,徐汇区
B0FFG74NOC,缤琦广场,购物服务;商场;普通商场,060102,银亭路58-60、66号,121.375675,31.171455,,4.3,[],购物菜场,上海市,上海市,闵行区
B0FFG4EOBK,田尚坊,购物服务;商场;普通商场,060102,钦州北路226号,121.418901,31.180765,021-64826026,4.5,[],购物菜场,上海市,上海市,徐汇区
B0FFFZXZAY,半岛精品廊(上海圆明园路步行街店),购物服务;商场;普通商场,060102,中山东一路32号半岛酒店1层B1层,121.489084,31.241323,021-23272888,4.3,[],购物菜场,上海市,上海市,黄浦区
B0FFFSY4NF,新世界新丸中心 NEW ONE,购物服务;商场;购物中心,060101,南京东路228号3楼B区02(南京东路地铁站7号口旁),121.485527,31.238355,021-33307361,4.8,[],购物菜场,上海市,上海市,黄浦区
B001571EUI,新·淮海坊,购物服务;商场;普通商场,060102,凯旋路1580-1582号(虹桥路地铁站6号口旁),121.422257,31.196225,15221972623,4.3,[],购物菜场,上海市,上海市,长宁区
B00154DUHL,上海时装商店,购物服务;商场;商场,060100,广西北路390号(人民广场地铁站19号口步行360米),121.477537,31.235568,,4.5,[],购物菜场,上海市,上海市,黄浦区
B00151CC90,飞洲国际广场(零陵路),购物服务;商场;购物中心,060101,零陵路899号(上海体育馆地铁站1号口旁),121.437551,31.183243,021-51506432;021-51509656,4.6,[],购物菜场,上海市,上海市,徐汇区
B00156R2HA,U湾·生活中心,购物服务;商场;购物中心,060101,蒙自东路27号(马当路地铁站3号口步行300米),121.477841,31.207746,,4.1,[],购物菜场,上海市,上海市,黄浦区
B00156O5R5,汇暻生活广场,购物服务;商场;普通商场,060102,瞿溪路988号(鲁班路地铁站2号口步行140米),121.477850,31.198646,021-33318616,4.3,[],购物菜场,上海市,上海市,黄浦区
B0FFFOTUL2,海星商场(莘东路),购物服务;商场;普通商场,060102,莘东路100号,121.378699,31.106611,021-64880247,4.3,[],购物菜场,上海市,上海市,闵行区
B00156GMML,六月汇广场,购物服务;商场;普通商场,060102,水城南路55号(水城路地铁站2号口步行380米),121.392900,31.196564,021-62109811,4.3,[],购物菜场,上海市,上海市,长宁区
B0FFH10LCE,虹梅休闲广场,购物服务;商场;普通商场,060102,桂林路与田林路交叉口西南40米,121.417527,31.170208,,3.9,[],购物菜场,上海市,上海市,徐汇区
B0KR7SK892,宸嘉·嘉佰汇,购物服务;商场;普通商场,060102,中江路靠近同普路(大渡河路地铁站3号口步行430米),121.392141,31.228784,,4.2,[],购物菜场,上海市,上海市,普陀区
B0HUGAPWBU,CENTRAL PLAZA(中区广场店),购物服务;商场;普通商场,060102,黄陂北路与江阴路交叉口南80米,121.470674,31.229436,,3.8,[],购物菜场,上海市,上海市,黄浦区
B0G30BH5I8,不夜城广场,购物服务;商场;商场,060100,柳林路与淮海中路交叉口东南20米,121.479750,31.225236,,3.8,[],购物菜场,上海市,上海市,黄浦区
B0FFG0J8GY,TOKUI(古北国际花园店),购物服务;商场;商场,060100,玛瑙路古北国际花园,121.402653,31.195208,021-32095008,2.5,[],购物菜场,上海市,上海市,长宁区
B0LRAU0S81,绿地缤纷城(徐汇店),购物服务;商场;购物中心,060101,东安路562号,121.456921,31.183799,021-33639688,4.7,[],购物菜场,上海市,上海市,徐汇区
B0KD7HSTGI,徐汇万科广场,购物服务;商场;购物中心,060101,沪闵路9191号(上海南站地铁站8号口步行420米),121.431757,31.157874,021-52276878,4.8,[],购物菜场,上海市,上海市,徐汇区
B0K1GHYDK9,虹潮荟·荣(Gate M西岸梦中心),购物服务;商场;普通商场,060102,龙腾大道2266号Gate M西岸梦中心4号楼3F层304室305室,121.466294,31.161653,13122934309,4.4,259.00,购物菜场,上海市,上海市,徐汇区
B0JRXMTB8K,港汇恒隆广场北座,购物服务;商场;普通商场|购物服务;商场;购物中心,060102|060101,虹桥路一号,121.436572,31.195053,,4.6,[],购物菜场,上海市,上海市,徐汇区
B0JAL9GB9P,港汇恒隆广场南座,购物服务;商场;普通商场|购物服务;商场;购物中心,060102|060101,港汇恒隆广场,121.437590,31.194570,,4.5,[],购物菜场,上海市,上海市,徐汇区
B0J2A7453Z,百联南方购物中心2区(万源路店),购物服务;商场;普通商场,060102,友谊商城(百联南方购物中心店),121.399670,31.131057,,4.4,[],购物菜场,上海市,上海市,闵行区
B0IUO56CFN,上海龙华会,购物服务;商场;购物中心,060101,龙华路2778号(龙华地铁站5号口旁),121.453425,31.173657,021-33681616,4.7,[],购物菜场,上海市,上海市,徐汇区
B0IU150X2X,百联南方购物中心1区,购物服务;商场;购物中心,060101,沪闵路7388号百联南方购物中心,121.400344,31.131963,,4.3,[],购物菜场,上海市,上海市,闵行区
B0IRBDWIRI,上海苏河湾万象天地,购物服务;商场;购物中心,060101,福建北路100号万象天地西里LG2层国家地理展厅,121.478536,31.242508,021-66977100,4.8,[],购物菜场,上海市,上海市,静安区
B0HUBUGQC2,第一百货商业中心A馆,购物服务;商场;商场,060100,南京东路830号(人民广场地铁站19号口步行150米),121.474625,31.235032,18017183751,4.4,[],购物菜场,上海市,上海市,黄浦区
B0HG6PDC2R,绿地缤纷城东区(绿地中心2期店),购物服务;商场;购物中心|购物服务;商场;普通商场,060101|060102,东安路562号(龙华中路地铁站6号口步行80米),121.457741,31.183768,,4.4,[],购物菜场,上海市,上海市,徐汇区
B0HDHGBYBW,环贸iapm商场1期,购物服务;商场;商场,060100,淮海中路999号(陕西南路地铁站出入口旁),121.458493,31.215808,021-33266700,4.7,[],购物菜场,上海市,上海市,徐汇区
B0H6KUBJPN,One ITC,购物服务;商场;购物中心,060101,华山路1901号(近广元路),121.437968,31.197769,021-34012600,4.7,[],购物菜场,上海市,上海市,徐汇区
B0H3J754UU,新天地时尚,购物服务;商场;购物中心,060101,马当路245号,121.475249,31.218082,021-63112288,4.6,[],购物菜场,上海市,上海市,黄浦区
B0H1U10IGR,长宁Art Park大融城,购物服务;商场;商场,060100,淞虹路377号,121.359678,31.217422,021-60679105,4.7,[],购物菜场,上海市,上海市,长宁区
B0H0OSXDUD,Gate M西岸梦中心,购物服务;商场;购物中心,060101,龙腾大道2266号,121.465465,31.161190,021-60196688,4.9,[],购物菜场,上海市,上海市,徐汇区
B0G3VHE8BE,漕河泾印象城,购物服务;商场;购物中心,060101,漕宝路1011号(虹梅路地铁站1号口步行100米),121.399975,31.161958,021-54210000,4.8,[],购物菜场,上海市,上海市,徐汇区
B0G3SRWQQ3,第一百货商业中心B馆,购物服务;商场;普通商场,060102,六合路69号(人民广场地铁站19号口步行240米),121.474934,31.235544,,4.4,[],购物菜场,上海市,上海市,黄浦区
B0G26NKM7X,城开YOYO,购物服务;商场;普通商场,060102,徐家汇天钥桥路123号yoyo商场,121.442163,31.192478,021-64380318,4.5,[],购物菜场,上海市,上海市,徐汇区
B0FFM5I3PE,静安绿地柒彩里,购物服务;商场;普通商场,060102,万航渡路838号(万航渡路康定路口),121.429593,31.227840,,4.5,[],购物菜场,上海市,上海市,静安区
B0FFLHVECS,恒基·旭辉天地,购物服务;商场;购物中心,060101,马当路458弄1-36号(马当路地铁站5号口步行180米),121.474922,31.212152,021-63010086,4.7,[],购物菜场,上海市,上海市,黄浦区
B0FFL814VF,徐汇绿地缤纷城西区,购物服务;商场;购物中心|购物服务;商场;普通商场,060101|060102,东安路562号(龙华中路地铁站出入口步行110米),121.456403,31.183420,021-33639688,4.6,[],购物菜场,上海市,上海市,徐汇区
B0FFK6VAJ6,高岛屋百货-展厅(上海高岛屋百货店),购物服务;商场;免税品店,060103,虹桥路1438号上海高岛屋百货4F层,121.402863,31.197174,,4.6,[],购物菜场,上海市,上海市,长宁区
B0FFK4VJA3,莘庄维璟印象城,购物服务;商场;购物中心,060101,莘庄镇七莘路1507号(七莘路地铁站3号口步行150米),121.363789,31.130911,021-23505668,4.8,[],购物菜场,上海市,上海市,闵行区
B0FFK0XU84,上海新天地南北里,购物服务;商场;商场,060100,太仓路181弄2号(黄陂南路太仓路交叉口),121.474949,31.219917,,4.6,[],购物菜场,上海市,上海市,黄浦区
B0FFJYROZU,乐坊·虹井生活广场,购物服务;商场;购物中心,060101,虹井路288号(龙柏新村地铁站2号口步行50米),121.371417,31.176688,021-34322288;021-34322299,4.6,[],购物菜场,上海市,上海市,闵行区
B0FFJPZ20Y,LA BOUTIQUE de JR(静安嘉里中心店),购物服务;商场;免税品店,060103,南京西路1551号静安嘉里中心南区SB2-17&18,121.449139,31.223049,18202168274,4.2,51.00,购物菜场,上海市,上海市,静安区
B0FFJPF2KC,畹町坊,购物服务;商场;普通商场,060102,畹町路399号,121.399829,31.108267,021-34315790,4.4,[],购物菜场,上海市,上海市,闵行区
B0FFJDT9DX,汇金百货东区,购物服务;商场;购物中心|购物服务;专卖店;烟酒专卖店,060101|061210,肇嘉浜路1000号汇金百货5F层,121.440806,31.195352,,4.2,[],购物菜场,上海市,上海市,徐汇区
B0FFJA28LX,IM Shanghai长宁国际,商务住宅;楼宇;商住两用楼宇|购物服务;商场;普通商场,120203|060102,凯旋路1398号(虹桥路地铁站1号口步行200米),121.421507,31.199061,15000914929;18221922803,4.7,[],购物菜场|金融住宿政府|商务产业,上海市,上海市,长宁区
B0FFJ1CHYN,长宁来福士广场东区,购物服务;商场;购物中心,060101,长宁路1189号(中山公园地铁站3号口步行60米),121.414980,31.216203,,4.7,[],购物菜场,上海市,上海市,长宁区
B0FFIXRQLK,新天地湖滨购物中心,购物服务;商场;购物中心,060101,马当路与自忠路交叉口东南120米,121.475362,31.217486,,4.2,[],购物菜场,上海市,上海市,黄浦区
B0FFILEKEZ,上海长宁来福士广场-西区,购物服务;商场;购物中心,060101,长宁路1191号(中山公园地铁站3号口步行220米),121.413947,31.216970,021-80234098,4.6,[],购物菜场,上海市,上海市,长宁区
B0FFHTO0J6,第一百货c馆,购物服务;商场;普通商场,060102,六合路与宁波路交叉口东南80米,121.475285,31.235629,,4.7,[],购物菜场,上海市,上海市,黄浦区
B0FFHP72N4,上海静安大悦城南座,购物服务;商场;购物中心,060101,西藏北路166号(曲阜路地铁站出入口步行70米),121.472164,31.242964,,4.8,[],购物菜场,上海市,上海市,静安区
B0FFHOJHJS,百盛优客城市广场西楼,购物服务;商场;购物中心,060101,天山路789-889号(娄山关路地铁站4号口步行110米),121.402813,31.210813,,4.5,[],购物菜场,上海市,上海市,长宁区
B0FFHOJGZP,百盛优客城市广场东楼,购物服务;商场;购物中心,060101,天山路889号(娄山关路地铁站3号口旁),121.403541,31.209915,021-62235588,4.4,[],购物菜场,上海市,上海市,长宁区
B0FFHOJ7FO,日月光中心东区,购物服务;商场;购物中心,060101,徐家汇路618(打浦桥地铁站1号口步行110米),121.469538,31.207491,021-60752196,4.3,[],购物菜场,上海市,上海市,黄浦区
B0FFHIIGXG,宝龙城,购物服务;商场;普通商场|购物服务;商场;购物中心|商务住宅;商务住宅相关;商务住宅相关,060102|060101|120000,漕宝路3299弄15号,121.355056,31.158511,021-62207789;021-64302199,4.7,[],购物菜场|金融住宿政府|商务产业,上海市,上海市,闵行区
B0FFHHO52D,莘庄龙之梦购物广场,购物服务;商场;普通商场,060102,沪闵路6088号凯德闵行商业中心F1层,121.378240,31.107798,,4.7,[],购物菜场,上海市,上海市,闵行区
B0FFGWF0PQ,汇金奥特莱斯南商场,购物服务;商场;商场,060100,石龙路750-3号B1层(上海南站地铁站2号口步行50米),121.431181,31.151883,021-34769999,4.5,[],购物菜场,上海市,上海市,徐汇区
B0FFG8RSN1,世博源3区,购物服务;商场;购物中心|购物服务;商场;普通商场,060101|060102,世博大道1368号(中华艺术宫地铁站3号口步行130米),121.492613,31.183333,,4.6,[],购物菜场,上海市,上海市,浦东新区
B0FFG8F22Z,月星环球购物广场(上海月星环球港店),购物服务;商场;商场,060100,中山北路3300号上海月星环球港B1层,121.411664,31.231589,021-52686958,4.2,[],购物菜场,上海市,上海市,普陀区
B0FFFZBYN6,上海静安大悦城北座,购物服务;商场;购物中心,060101,西藏北路166号(曲阜路地铁站1号口步行260米),121.472061,31.244157,021-61076166,4.7,[],购物菜场,上海市,上海市,静安区
B0FFFZBN19,长宁来福士,购物服务;商场;购物中心,060101,长宁路1191号(中山公园地铁站3号口步行250米),121.414394,31.216358,021-62639875,4.9,[],购物菜场,上海市,上海市,长宁区
B0FFFYQI02,静安嘉里中心,购物服务;商场;购物中心,060101,南京西路1515号,121.449749,31.223558,021-60257511;021-62791515,4.9,[],购物菜场,上海市,上海市,静安区
B0FFFE52ZU,世博源4区,购物服务;商场;购物中心|购物服务;商场;普通商场,060101|060102,上南路168号世博源(耀华路地铁站4号口步行260米),121.493056,31.181267,,4.3,[],购物菜场,上海市,上海市,浦东新区
B0FFFE4QP1,世博源2区,购物服务;商场;购物中心,060101,上南路168号(中华艺术宫地铁站4号口步行160米),121.492147,31.185685,,4.4,[],购物菜场,上海市,上海市,浦东新区
B0FFFE4PIW,世博源5区,购物服务;商场;购物中心,060101,上南路168号世博源(耀华路地铁站出入口步行150米),121.493440,31.179494,,4.4,[],购物菜场,上海市,上海市,浦东新区
B0FFFA6WPS,芮欧百货,购物服务;商场;购物中心,060101,南京西路1601号(静安寺地铁站4号口旁),121.447479,31.223318,021-22309788;021-22309888,4.7,[],购物菜场,上海市,上海市,静安区
B0FFF6OUKL,百盛优客城市广场,购物服务;商场;购物中心,060101,天山路789号,121.403336,31.210490,021-62295010;021-62298001,4.7,[],购物菜场,上海市,上海市,长宁区
B0FFF65YS3,外滩中央商场,购物服务;商场;普通商场,060102,南京东路123号(南京东路地铁站7号口步行350米),121.487173,31.237999,021-63309323,4.5,[],购物菜场,上海市,上海市,黄浦区
B0FFF3A4ZF,徐汇TPY太平洋中心,购物服务;商场;商场,060100,肇嘉浜路1117号,121.439167,31.193012,,4.6,[],购物菜场,上海市,上海市,徐汇区
B001572HSQ,东苑丽宝广场,购物服务;商场;普通商场,060102,莘松路58号(近七莘路),121.377240,31.109331,021-64127700,4.6,[],购物菜场,上海市,上海市,闵行区
B00156O55W,徐汇日月光中心,购物服务;商场;商场,060100,田林街道漕宝路33号,121.432587,31.169004,021-33561393,4.7,[],购物菜场,上海市,上海市,徐汇区
B00156NWFP,世博源1区,购物服务;商场;购物中心,060101,世博大道1368号世博源,121.491682,31.187432,,4.5,[],购物菜场,上海市,上海市,浦东新区
B00156NVSE,上海万象城购物中心,购物服务;商场;购物中心,060101,吴中路1599号(紫藤路地铁站1号口步行210米),121.367874,31.169472,,4.9,[],购物菜场,上海市,上海市,闵行区
B00156EX98,上海高岛屋百货,购物服务;商场;购物中心,060101,虹桥路1438号,121.403110,31.197338,021-22232683;021-22232688,4.7,[],购物菜场,上海市,上海市,长宁区
B00155QIPB,张园,购物服务;商场;商场,060100,茂名北路258号(南京西路地铁站13号口步行50米),121.460064,31.227971,021-52386088,4.8,[],购物菜场,上海市,上海市,静安区
B00155LZKB,豫园鄂尔多斯广场,购物服务;商场;普通商场,060102,福佑路333号(豫园地铁站1号口步行170米),121.489356,31.228253,18239458370,4.4,[],购物菜场,上海市,上海市,黄浦区
B00155HPFQ,新天地广场,购物服务;商场;普通商场,060102,淮海中路333号(一大会址·黄陂南路地铁站2号口步行70米),121.474123,31.222482,021-63330066,4.7,[],购物菜场,上海市,上海市,黄浦区
B001548591,第一百货商业中心,购物服务;商场;购物中心,060101,南京东路830号,121.474912,31.235540,021-63223344,4.7,[],购物菜场,上海市,上海市,黄浦区
B00152DFBD,上海世贸商城,购物服务;商场;普通商场,060102,延安西路2299号(红宝石路地铁站4号口步行310米),121.400919,31.201913,021-62366888,4.7,[],购物菜场,上海市,上海市,长宁区
B00155GE9S,九洲生活广场(泰豪大厦北),购物服务;商场;普通商场,060102,虹梅路3219-3223号,121.387500,31.187446,021-64968702;18616811838,4.3,[],购物菜场,上海市,上海市,闵行区
B0FFFCVR5Z,亚太广场,购物服务;商场;普通商场,060102,南京东路592-600号(南京东路地铁站4号口步行380米),121.479062,31.235943,,4.3,[],购物菜场,上海市,上海市,黄浦区
B00155QUPM,BINGO缤谷广场,购物服务;商场;普通商场,060102,天山路341号、345号,121.387797,31.214255,021-32585501,4.7,[],购物菜场,上海市,上海市,长宁区
B00155QTP5,上海友谊商店,购物服务;商场;购物中心,060101,长征镇真光路1219号,121.380595,31.243347,021-62525252,4.4,[],购物菜场,上海市,上海市,普陀区
B001513C35,上海世茂广场,购物服务;商场;购物中心,060101,南京东路街道南京东路789号上海康莱德酒店b3世茂工程部,121.475740,31.234330,021-53098050,4.7,[],购物菜场,上海市,上海市,黄浦区
B0L03REKZ6,ITC Dining,购物服务;商场;商场,060100,虹桥路183号徐家汇中心F5层,121.434975,31.193625,,4.1,[],购物菜场,上海市,上海市,徐汇区
B00155F1MH,古北之源万科广场,购物服务;商场;购物中心,060101,水城南路37号,121.393692,31.193944,021-62702466,4.3,[],购物菜场,上海市,上海市,长宁区
B0FFI6U118,未央生活广场,购物服务;商场;普通商场,060102,中江路889号(中江路与怒江北路交叉口西南角),121.391438,31.235645,021-52655538,4.2,[],购物菜场,上海市,上海市,普陀区
B0FFHVP02T,无限极荟购物中心,购物服务;商场;购物中心,060101,湖滨路168企业天地3号楼,121.477782,31.220642,021-63332210,4.6,[],购物菜场,上海市,上海市,黄浦区
B001571RQP,力宝广场,购物服务;商场;普通商场,060102,淮海中路222号,121.475689,31.224208,021-53823288,4.6,[],购物菜场,上海市,上海市,黄浦区
B00156YMHK,CP静安,购物服务;商场;购物中心,060101,愚园路40-2号附近(静安寺地铁站10号口步行280米),121.446407,31.225586,021-22263388,4.8,[],购物菜场,上海市,上海市,静安区
B00155IVUY,大上海时代广场,购物服务;商场;普通商场,060102,淮海中路99号(大世界地铁站3号口步行250米),121.478718,31.224526,021-31228766;021-31228767;17756681120,4.7,[],购物菜场,上海市,上海市,黄浦区
B00155IRGZ,锦江迪生商厦,购物服务;商场;普通商场,060102,长乐路400号(陕西南路地铁站3号口步行350米),121.459705,31.220894,021-64726888,4.2,[],购物菜场,上海市,上海市,黄浦区
B0LDG1DZBO,JiC静安国际中心西区,购物服务;商场;商场,060100,长安路与裕通路交叉口西80米,121.451999,31.243012,,4.0,[],购物菜场,上海市,上海市,静安区
B0FFHUARXH,XIANG YANG CENTER,购物服务;商场;普通商场,060102,襄阳北路与长乐路交叉口东南80米,121.455416,31.218728,,3.9,[],购物菜场,上海市,上海市,徐汇区
B0IR4527TN,日月光中心西区,购物服务;商场;购物中心|购物服务;体育用品店;体育用品店,060101|060900,徐家汇路618号日月光中心(打浦桥地铁站2号口旁),121.468208,31.206674,,4.1,[],购物菜场,上海市,上海市,黄浦区
B0FFMGIITC,RELX悦刻(上海田林沃尔玛店),购物服务;商场;免税品店,060103,桂林路402号沃尔玛一楼下行电梯旁,121.416967,31.171352,18626429982,4.1,[],购物菜场,上海市,上海市,徐汇区
B0LR15RLV9,永安百货(南京东路店),购物服务;商场;普通商场,060102,南京东路635号(人民广场地铁站14号口步行320米),121.478247,31.234902,021-63224466,4.6,[],购物菜场,上海市,上海市,黄浦区
B0LAYUYZMA,近铁城市广场南区,购物服务;商场;购物中心,060101,金沙江路1518号近铁城市广场(真北路地铁站2号口旁),121.381020,31.231870,,4.4,[],购物菜场,上海市,上海市,普陀区
B0LAYUW7H2,近铁城市广场北区,购物服务;商场;购物中心,060101,金沙江路1518号(真北路地铁站3号口旁),121.381907,31.232865,,4.5,[],购物菜场,上海市,上海市,普陀区
B0L2S17JIA,BREEZE,购物服务;商场;商场,060100,巨鹿路853号,121.449150,31.218652,,4.4,[],购物菜场,上海市,上海市,静安区
B0KGLAJT54,中海环宇荟,购物服务;商场;商场,060100,黄陂南路838弄,121.476853,31.211609,021-63331818,4.6,[],购物菜场,上海市,上海市,黄浦区
B0KB9C73UH,HAI550,购物服务;商场;商场,060100,淮海中路550号(淮海中路地铁站1号口步行390米),121.468308,31.221051,021-63188550,4.6,[],购物菜场,上海市,上海市,黄浦区
B0K6SZ4B8K,乐恒广场,购物服务;商场;普通商场,060102,吴中路588号,121.400660,31.183829,,4.3,[],购物菜场,上海市,上海市,闵行区
B0K675751O,凌云天地,购物服务;商场;商场,060100,凌云路街道老沪闵路809号,121.431325,31.136792,18321520062,4.6,[],购物菜场,上海市,上海市,徐汇区
B0K375RZ6Z,合川汇3098,购物服务;商场;商场|商务住宅;商务住宅相关;商务住宅相关,060100|120000,合川路3098号,121.380813,31.179296,17821309898,4.5,[],购物菜场,上海市,上海市,闵行区
B0K375JO8S,PAC购物中心,购物服务;商场;商场,060100,常德路688号(昌平路地铁站2号口步行410米),121.445472,31.231995,021-62886866,4.7,[],购物菜场,上海市,上海市,静安区
B0K2ARTC8D,丰盛商业中心,购物服务;商场;商场,060100,威海路500号(南京西路地铁站8号口步行130米),121.462001,31.227307,18721939655,4.4,[],购物菜场,上海市,上海市,静安区
B0JUJHSMUU,力波·九坊,购物服务;商场;购物中心,060101,上中西路155号,121.413332,31.133873,13482813148,4.7,[],购物菜场,上海市,上海市,闵行区
B0JK67U6RI,GATE M 西岸凤巢北区,购物服务;商场;普通商场,060102,云锦路683号(云锦路地铁站4号口步行130米),121.459888,31.164019,,4.4,[],购物菜场,上海市,上海市,徐汇区
B0JK676FZ1,GATE M 西岸凤巢南区,购物服务;商场;普通商场,060102,云锦路701号(云锦路地铁站4号口步行240米),121.460332,31.163129,,4.3,[],购物菜场,上海市,上海市,徐汇区
B0JDTA09M5,晶耀前滩东区,购物服务;商场;商场,060100,耀体路308号,121.477928,31.152667,,4.4,[],购物菜场,上海市,上海市,浦东新区
B0JDP5J158,梅陇秀品荟,购物服务;商场;商场,060100,罗秀路1825号,121.406833,31.126797,13816890955,4.4,[],购物菜场,上海市,上海市,闵行区
B0JB99WAO0,长宁区万宝国际广场,购物服务;商场;普通商场,060102,延安西路500号,121.436613,31.217731,,4.4,[],购物菜场,上海市,上海市,长宁区
B0JAKUONGR,鑫耀·光环Live,购物服务;商场;商场,060100,苍梧路6-12号,121.414655,31.167964,021-60299750;021-60938066,4.7,[],购物菜场,上海市,上海市,徐汇区
B0J3UA1IVU,CLMX(长宁来福士广场店),购物服务;服装鞋帽皮具店;品牌服装店|购物服务;商场;普通商场|商务住宅;住宅区;住宅区,061101|060102|120300,长宁路1189号长宁来福士东区4楼,121.414950,31.216082,13651844113,3.9,[],购物菜场,上海市,上海市,长宁区
B0J3S58LBL,世博天地,购物服务;商场;普通商场,060102,世博大道1467号(中华艺术宫地铁站3号口步行390米),121.489442,31.184951,021-39218156;021-50209688,4.9,[],购物菜场,上海市,上海市,浦东新区
B0J0Y7JX9Z,张园西区,购物服务;商场;商场,060100,茂名北路与威海路交叉口北140米,121.459929,31.227921,,4.2,[],购物菜场,上海市,上海市,静安区
B0FFJURK3P,豫园商城,购物服务;综合市场;综合市场|购物服务;超级市场;超市|购物服务;便民商店/便利店;便民商店/便利店,060700|060400|060200,方浜中路265号,121.491239,31.226425,15721585035,4.7,[],购物菜场,上海市,上海市,黄浦区
B00156D7O6,上海市第一食品商店,购物服务;专卖店;专营店|购物服务;便民商店/便利店;便民商店/便利店,061200|060200,南京东路720号(近贵州路),121.476689,31.235529,021-63222777,4.7,[],购物菜场,上海市,上海市,黄浦区
B00157H92B,法藤久光百货(久光百货店),购物服务;便民商店/便利店;便民商店/便利店,060200,南京西路1618号久光百货5楼,121.445966,31.224354,,4.4,[],购物菜场,上海市,上海市,静安区
B0L0ACD3KE,好饰家(徐汇店),购物服务;家居建材市场;家具城|购物服务;家居建材市场;灯具瓷器市场|购物服务;便民商店/便利店;便民商店/便利店,060602|060606|060200,漕溪路198号好饰家一号馆23,121.432566,31.173427,021-64693144,4.5,[],购物菜场,上海市,上海市,徐汇区
B0FFFWUGFK,SFC上影影城(世博店),体育休闲服务;影剧院;电影院|购物服务;便民商店/便利店;便民商店/便利店,080601|060200,世博大道1200号梅赛德斯奔驰文化中心6层,121.492480,31.188605,021-20251186,4.6,52.00,购物菜场|体育休闲,上海市,上海市,浦东新区
B0L1KZTJ0T,第一百货(南京东路店),购物服务;便民商店/便利店;便民商店/便利店,060200,南京东路558号阳光商厦F2层,121.479465,31.235795,021-53866061,4.5,[],购物菜场,上海市,上海市,黄浦区
B0G3A66G7J,乌中市集,购物服务;综合市场;蔬菜市场|购物服务;特殊买卖场所;特殊买卖场所|购物服务;便民商店/便利店;便民商店/便利店,060705|061300|060200,乌鲁木齐路318号(上海图书馆地铁站2号口步行430米),121.446425,31.211132,13788906676;19121497993,4.5,[],购物菜场,上海市,上海市,徐汇区
B0FFF01NE0,韩国街超市,购物服务;超级市场;超市|购物服务;便民商店/便利店;便民商店/便利店,060400|060200,虹泉路与虹莘路交叉口东南角,121.372461,31.168835,,4.6,[],购物菜场,上海市,上海市,闵行区
B0JD1U0IYV,七欣天(黄浦淮海中路店),购物服务;便民商店/便利店;便民商店/便利店,060200,淮海中路1号淮海1号项目3层301室3F-4-2,121.479433,31.225851,021-63507727,4.6,114.00,购物菜场,上海市,上海市,黄浦区
B0I01MTT6E,ALDI奥乐齐(井亭天地生活广场店),购物服务;超级市场;超市|购物服务;便民商店/便利店;便民商店/便利店,060400|060200,虹泉路1000号井亭天地,121.373075,31.169650,4008201973,4.6,[],购物菜场,上海市,上海市,闵行区
B00155EOL7,LAWSON罗森(太原路店),购物服务;便民商店/便利店;便民商店/便利店,060200,太原路76号,121.454641,31.207381,021-64370899;18918614090,4.2,[],购物菜场,上海市,上海市,徐汇区
B0IKPAUQX5,公路商店(长乐路店),购物服务;便民商店/便利店;便民商店/便利店,060200,长乐路421号,121.454552,31.218813,16621080425,4.6,[],购物菜场,上海市,上海市,徐汇区
B0I3M5MTGC,ALDI奥乐齐(闵行莲花店),购物服务;便民商店/便利店;便民商店/便利店,060200,沪闵路7399号莲花路站商场1楼(莲花路地铁站2号口旁),121.402507,31.131198,4008201973,4.6,38.00,购物菜场,上海市,上海市,闵行区
B0FFFF7M41,全家便利店(南京东路二店),购物服务;便民商店/便利店;便民商店/便利店,060200,南京东路324弄19边门(南京东路地铁站3号口步行90米),121.483554,31.237652,13365153148,4.4,[],购物菜场,上海市,上海市,黄浦区
B0KUG9VYXW,闲鱼循环商店(上海旗舰店),购物服务;便民商店/便利店;便民商店/便利店,060200,沪闵路9191号徐汇万科广场L1层,121.432369,31.157793,18930402430,4.2,[],购物菜场,上海市,上海市,徐汇区
B0G3LCIA1W,LAWSON罗森(宜山路总店),购物服务;便民商店/便利店;便民商店/便利店,060200,宜山路1618号27幢,121.391764,31.169198,021-80270663;4008206390,4.4,[],购物菜场,上海市,上海市,闵行区
B00156GN6N,LAWSON罗森(中福城店),购物服务;便民商店/便利店;便民商店/便利店,060200,云南中路248号(人民广场地铁站14号口步行120米),121.477137,31.233095,021-33762375,4.2,[],购物菜场,上海市,上海市,黄浦区
B0FFG0ZG77,全家便利店(淮海中路店),购物服务;便民商店/便利店;便民商店/便利店,060200,襄阳北路100号襄北大楼(陕西南路地铁站2号口旁),121.459373,31.217132,,4.3,[],购物菜场,上海市,上海市,黄浦区
B00155DAXR,全家便利店(福州路一店),购物服务;便民商店/便利店;便民商店/便利店,060200,福州路53号,121.489157,31.235295,021-63210554;15879278121,4.5,[],购物菜场,上海市,上海市,黄浦区
B00155HNI4,全家便利店(丽都店),购物服务;便民商店/便利店;便民商店/便利店,060200,静安区石门二路203号(山海关路石门二路),121.460629,31.233880,021-62714563;15316715251,4.3,[],购物菜场,上海市,上海市,静安区
B0FFHPNJVA,7-ELEVEn(汉口路店),购物服务;便民商店/便利店;7-ELEVEn便利店,060201,汉口路99号(南京东路地铁站2号口步行480米),121.487968,31.236389,021-63012917;15221663470,4.3,[],购物菜场,上海市,上海市,黄浦区
B0FFG1I4T4,全家便利店(人民路五店),购物服务;便民商店/便利店;便民商店/便利店,060200,人民路399号福都商厦F1层(豫园地铁站7号口步行150米),121.491788,31.229246,13601620332,4.3,[],购物菜场,上海市,上海市,黄浦区
B0FFKJAOI0,光明玖壹玖(西藏北路店),购物服务;便民商店/便利店;便民商店/便利店|体育休闲服务;体育休闲服务场所;体育休闲服务场所,060200|080000,西藏北路191号(曲阜路地铁站1号口步行80米),121.470948,31.243543,021-52956717,4.5,209.00,购物菜场,上海市,上海市,静安区
B0G0OATYQX,7-ELEVEn(恒基名人购物中心店),购物服务;便民商店/便利店;7-ELEVEn便利店,060201,南京东路300号恒基名人购物中心B1层B121-23,121.483995,31.237924,021-63330035;13671833819,4.4,[],购物菜场,上海市,上海市,黄浦区
B0FFF3DACP,全家便利店(淮海中路三店),购物服务;便民商店/便利店;便民商店/便利店,060200,淮海中路300号上海k11购物艺术中心L1层110,121.473676,31.223802,021-53861511;15161324742,4.3,[],购物菜场,上海市,上海市,黄浦区
B0015724UA,全家便利店(华盛大厦店),购物服务;便民商店/便利店;便民商店/便利店,060200,汉口路477-479号,121.481320,31.234532,15050709747;4001821508,4.3,[],购物菜场,上海市,上海市,黄浦区
B0K1GHTHL1,7-ELEVEn(Gate M西岸梦中心店),购物服务;便民商店/便利店;7-ELEVEn便利店,060201,龙腾大道2266号Gate M西岸梦中心1F层,121.465300,31.160835,13109587900,4.5,[],购物菜场,上海市,上海市,徐汇区
B0G35LXH4Q,LAWSON罗森(南京东路店),购物服务;便民商店/便利店;便民商店/便利店,060200,河南中路438号南京东路地铁站7号口B2层,121.484877,31.238215,13636436521;4008206390,4.4,[],购物菜场,上海市,上海市,黄浦区
B00155QGT1,全家便利店(金桥店),购物服务;便民商店/便利店;便民商店/便利店,060200,人民广场地铁站19号口步行440米,121.473213,31.237329,021-63591107;13816152186;4008200996,4.2,[],购物菜场,上海市,上海市,黄浦区
B0FFFA1IX8,全家便利店(愚园路七店),购物服务;便民商店/便利店;便民商店/便利店,060200,愚园路40号麦克公寓1层(静安寺地铁站10号口步行270米),121.446944,31.225175,021-52900602,4.4,[],购物菜场,上海市,上海市,静安区
B0FFM1KOS2,善淘BUY42(外滩街道慈善商店),购物服务;便民商店/便利店;便民商店/便利店,060200,福州路480号(南京东路地铁站4号口步行450米),121.481392,31.233677,021-52133533,4.4,[],购物菜场,上海市,上海市,黄浦区
B0LD7L1RAU,olé(上海虹桥南丰城店),购物服务;便民商店/便利店;便民商店/便利店|餐饮服务;餐饮相关场所;餐饮相关,060200|050000,遵义路100号南丰城a座b1,121.407728,31.207237,021-61767581,4.2,[],购物菜场,上海市,上海市,长宁区
B0FFIKFUIN,Kmart(井亭天地店),购物服务;超级市场;超市|购物服务;便民商店/便利店;便民商店/便利店,060400|060200,虹泉路1078号井亭天地生活广场东区L1层,121.374284,31.170134,021-58868282;021-58898282,4.3,[],购物菜场,上海市,上海市,闵行区
B0FFIGJBNA,LAWSON罗森(天津路店),购物服务;便民商店/便利店;便民商店/便利店,060200,天津路490-492号,121.475909,31.237360,021-53833621;4008206390,4.2,[],购物菜场,上海市,上海市,黄浦区
B0FFFRT6HW,华硕电脑数码配件(延安西路店),购物服务;便民商店/便利店;便民商店/便利店,060200,华山路228号华硕电脑售后维修,121.445512,31.220107,4001880736,4.3,[],购物菜场,上海市,上海市,静安区
B0FFFZRWO7,全家便利店(瑞金二路六店),购物服务;便民商店/便利店;便民商店/便利店,060200,瑞金二路31-33号(淮海中路地铁站1号口步行200米),121.464251,31.218124,021-63153051;15000032728;17621894392,4.3,[],购物菜场,上海市,上海市,黄浦区
B0FFHGNK8R,全家便利店(枫林路二店),购物服务;便民商店/便利店;便民商店/便利店,060200,枫林路181-2号附近,121.455098,31.196863,17621840823;18616367676,4.3,[],购物菜场,上海市,上海市,徐汇区
B00154DBJC,全家便利店(宁波路店),购物服务;便民商店/便利店;便民商店/便利店,060200,四川中路435号(南京东路地铁站7号口步行270米),121.485895,31.239448,021-53863791;4008200996,4.3,[],购物菜场,上海市,上海市,黄浦区
B0KRXSA2Q6,全家便利店(世博大道店),购物服务;便民商店/便利店;便民商店/便利店,060200,世博大道1200号梅赛德斯-奔驰文化中心,121.492205,31.189180,17351994941,4.3,[],购物菜场,上海市,上海市,浦东新区
B0FFM1SU2Z,LAWSON罗森(上海丽笙精选海仑宾馆店),购物服务;便民商店/便利店;便民商店/便利店,060200,石潭弄西南门东南110米(南京东路地铁站4号口步行180米),121.480811,31.235425,,4.4,[],购物菜场,上海市,上海市,黄浦区
B0FFFY1GUR,全家便利店(陕西南路店),购物服务;便民商店/便利店;便民商店/便利店,060200,陕西南路271弄1-137号永嘉51街坊小区,121.462003,31.207750,021-64663094,4.3,[],购物菜场,上海市,上海市,黄浦区
B0L15ZZKN1,全家便利店(浙江中路三店),购物服务;便民商店/便利店;便民商店/便利店,060200,浙江中路454号,121.477700,31.236316,021-53076391;021-53510083;15221176958,4.3,[],购物菜场,上海市,上海市,黄浦区
B00155QHKV,HP惠普客户服务中心(田林店),购物服务;专卖店;专营店|购物服务;便民商店/便利店;便民商店/便利店,061200|060200,上海城区宜山路700号86幢,121.422146,31.171186,4001883251,4.2,[],购物菜场,上海市,上海市,徐汇区
B0FFH34LO4,LAWSON罗森(解放大厦店),购物服务;便民商店/便利店;便民商店/便利店,060200,汉口路300号解放大厦F1层,121.484428,31.235985,021-63752698;18202138829;4008206390,4.3,[],购物菜场,上海市,上海市,黄浦区
B00156EPBZ,7-ELEVEn(人广店),购物服务;便民商店/便利店;7-ELEVEn便利店,060201,人民广场地铁1号线3号进出口右转约20米处于通道内(动线通往1.2.3号进出口),121.474309,31.232956,021-22056996;18521054243,4.2,[],购物菜场,上海市,上海市,黄浦区
B0FFI052DN,LAWSON罗森(香港广场购物中心北区店),购物服务;便民商店/便利店;便民商店/便利店,060200,淮海中路282号香港广场商场北座NBL-02B,121.474491,31.223712,021-63330252,4.2,[],购物菜场,上海市,上海市,黄浦区
B00155LZ64,全家便利店(长乐路店),购物服务;便民商店/便利店;便民商店/便利店,060200,长乐路504号(陕西南路地铁站2号口步行440米),121.457315,31.220182,4008200996,4.3,[],购物菜场,上海市,上海市,静安区
B0FFF5UEA6,ASUS华硕电脑售后中心数码配件(法华镇路店),购物服务;便民商店/便利店;便民商店/便利店,060200,红庄小区东北门旁,121.433894,31.202061,4001883607,4.3,[],购物菜场,上海市,上海市,长宁区
B0FFHCM6LT,LAWSON罗森(企业天地店),购物服务;便民商店/便利店;便民商店/便利店,060200,湖滨路222号企业天地2号楼1层,121.476625,31.221034,17721005287,4.3,[],购物菜场,上海市,上海市,黄浦区
B0FFF5VH3A,全家便利店(凤阳路店),购物服务;便民商店/便利店;便民商店/便利店,060200,人民广场地铁站9号口步行270米,121.469749,31.233739,021-63129557;15221176958,4.2,[],购物菜场,上海市,上海市,黄浦区
B0FFLEBSQE,全家便利店(西藏中路二店),购物服务;便民商店/便利店;便民商店/便利店,060200,西藏中路180号高盛商厦B1层,121.476836,31.231318,13524725761,4.2,[],购物菜场,上海市,上海市,黄浦区
B0FFI9H6X8,7-ELEVEn(外滩SOHO店),购物服务;便民商店/便利店;7-ELEVEn便利店,060201,新开河北路10号外滩SOHO D座内,121.493534,31.229746,021-63300136;15514983203,4.2,[],购物菜场,上海市,上海市,黄浦区
B0K32N22ZZ,魂商店,购物服务;便民商店/便利店;便民商店/便利店,060200,雅戈尔大厦(南京东路地铁站3号口步行90米),121.483562,31.237383,,4.4,[],购物菜场,上海市,上海市,黄浦区
B0JUVCFWW2,海角街市,购物服务;便民商店/便利店;便民商店/便利店,060200,永嘉路570号永嘉庭4号楼413号,121.451307,31.206177,18301770808,4.5,131.00,购物菜场,上海市,上海市,徐汇区
B0JD7AFV1D,LAWSON罗森(嘉里不夜城3号店),购物服务;便民商店/便利店;便民商店/便利店,060200,天目西路218号F2(汉中路地铁站1号口步行410米),121.456476,31.244884,021-55127551,4.3,[],购物菜场,上海市,上海市,静安区
B0GR7HI1UK,名创优品(我格广场店),购物服务;便民商店/便利店;便民商店/便利店|购物服务;专卖店;专营店,060200|061200,武宁路101号我格广场一楼125-126号铺,121.423136,31.237869,13581255490,4.2,[],购物菜场,上海市,上海市,普陀区
B0H1TZIJ44,7-ELEVEn(前滩中心店),购物服务;便民商店/便利店;7-ELEVEn便利店,060201,自由贸易试验区海阳西路551-555号东育路588地下一层04A-1单元,121.482889,31.151395,021-50320093,4.3,[],购物菜场,上海市,上海市,浦东新区
B0FFHG6VWH,LAWSON罗森(北京东路店),购物服务;便民商店/便利店;便民商店/便利店,060200,山西南路350号上海物资大厦F1层,121.481453,31.239718,021-53099511;4008206390,4.3,[],购物菜场,上海市,上海市,黄浦区
B0FFFHBUC0,全家便利店(吴江二店),购物服务;便民商店/便利店;便民商店/便利店,060200,吴江路269号湟普美食汇1层107单元,121.459553,31.229279,021-61482349;18221616398,4.3,[],购物菜场,上海市,上海市,静安区
B0FFK5E3W4,LAWSON罗森(惠达大厦店),购物服务;便民商店/便利店;便民商店/便利店,060200,西藏南路746号(老西门地铁站3号出口步行270米),121.484265,31.216009,021-53098197;4008206390,4.2,[],购物菜场,上海市,上海市,黄浦区
B00155LW5R,全家便利店(新乐路店),购物服务;便民商店/便利店;便民商店/便利店,060200,新乐路212号(常熟路地铁站3号口步行470米),121.452662,31.216971,021-54032760;13764485754,4.3,[],购物菜场,上海市,上海市,徐汇区
B0FFFBLQFR,全家便利店(淮海中路四店),购物服务;便民商店/便利店;便民商店/便利店,060200,淮海中路1号柳林大厦1层(大世界地铁站6号口步行220米),121.479828,31.225011,13651723663,4.3,[],购物菜场,上海市,上海市,黄浦区
B0IG2A4ZW7,7-ELEVEn(思源商厦店),购物服务;便民商店/便利店;7-ELEVEn便利店,060201,西藏中路500号-1B6,121.474509,31.236564,15968829523;18378249273,4.3,[],购物菜场,上海市,上海市,黄浦区
B0FFL3JNLF,ASUS华硕电脑(售后服务)数码配件(海阳西路店),购物服务;便民商店/便利店;便民商店/便利店,060200,海阳西路358弄1-19号前滩华唐名邸,121.477984,31.150176,4001682056,4.3,[],购物菜场,上海市,上海市,浦东新区
B00155IVT9,全家便利店(玉兰花苑店),购物服务;便民商店/便利店;便民商店/便利店,060200,蒲汇塘路52号,121.434807,31.186368,021-64398385;18321749558,4.3,[],购物菜场,上海市,上海市,徐汇区
B0FFF55836,全家便利店(企业广场店),购物服务;便民商店/便利店;便民商店/便利店,060200,梅园路228号(汉中路地铁站1号口步行160米),121.456925,31.243513,021-63801763;15721409732,4.3,[],购物菜场,上海市,上海市,静安区
B0HD3ANCL2,鸿展食品(兴霞小区店),购物服务;便民商店/便利店;便民商店/便利店,060200,仙霞路1345号,121.372485,31.208275,13020158044,4.3,[],购物菜场,上海市,上海市,长宁区
B0FFFEY1GU,义乌小商品商场(德州四村西区店),购物服务;便民商店/便利店;便民商店/便利店,060200,德州路371-2号,121.485579,31.167198,,4.0,[],购物菜场,上海市,上海市,浦东新区
B0FFHW5Q11,喜士多便利店(中福城店),购物服务;便民商店/便利店;便民商店/便利店,060200,广西北路九江路口处西南角,121.477283,31.234044,021-63503299;13761584773,4.3,[],购物菜场,上海市,上海市,黄浦区
B00151A4C9,第二食品商店(淮海中路990弄小区店),购物服务;便民商店/便利店;便民商店/便利店,060200,淮海中路918号徐汇区中心医院旁边,121.457985,31.216489,021-54038356,4.5,[],购物菜场,上海市,上海市,徐汇区
B0FFHK4ZZZ,联华超市(丁香店),购物服务;超级市场;超市|购物服务;便民商店/便利店;便民商店/便利店,060400|060200,华山路800弄6-30号华山800,121.439092,31.214341,021-52550105,4.3,[],购物菜场,上海市,上海市,长宁区
B00155LH2S,全家便利店(瑞金一路店),购物服务;便民商店/便利店;便民商店/便利店,060200,瑞金一路165号(一楼)淮海路和长乐路中间,121.463476,31.219934,021-54253017;18281849730,4.3,[],购物菜场,上海市,上海市,黄浦区
B0FFFPZ1YI,全家便利店(西藏南路六店),购物服务;便民商店/便利店;便民商店/便利店,060200,西藏南路1485号1层(西藏南路地铁站5号口步行190米),121.489003,31.203688,13361891160,4.2,[],购物菜场,上海市,上海市,黄浦区
B00156CT7P,全家便利店(东海广场店),购物服务;便民商店/便利店;便民商店/便利店,060200,南京西路1486号东海广场1号楼1层(愚园东路22号东海广场1号楼),121.448963,31.226092,18361621123,4.3,[],购物菜场,上海市,上海市,静安区
B0HBXCPX85,好特卖HotMaxx(日月光中心伯爵居店),购物服务;服装鞋帽皮具店;品牌服装店|购物服务;便民商店/便利店;便民商店/便利店,061101|060200,徐家汇路618号日月光中心徐家汇区B2层B2-XJH08、09,121.468336,31.205765,021-20569088,4.5,[],购物菜场,上海市,上海市,黄浦区
B0FFJD1AGZ,全家便利店(长宁来福士店),购物服务;便民商店/便利店;便民商店/便利店,060200,长宁路1189号长宁来福士广场东区L1层,121.414783,31.215625,18098696143,4.3,[],购物菜场,上海市,上海市,长宁区
B0FFLES0GM,LAWSON罗森(中福城店),购物服务;便民商店/便利店;便民商店/便利店,060200,福州路584号(人民广场地铁站15号口步行420米),121.479642,31.233032,021-63917180;4008206390,4.2,[],购物菜场,上海市,上海市,黄浦区
B0FFIPPS8D,LAWSON罗森(嘉善路店),购物服务;便民商店/便利店;便民商店/便利店,060200,嘉善路101-103号底层,121.459305,31.211165,4008206390,4.3,[],购物菜场,上海市,上海市,徐汇区
B0FFI7BC21,LAWSON罗森(北京西路),购物服务;便民商店/便利店;便民商店/便利店,060200,上海和睦家医院静安院区南门西南90米,121.449666,31.228195,021-62141163;13524416520,4.1,[],购物菜场,上海市,上海市,静安区
B0FFL0FMU7,全家便利店(全州路店),购物服务;便民商店/便利店;便民商店/便利店,060200,华悦家园北门旁,121.409128,31.166599,13641819180;18616395192,4.2,[],购物菜场,上海市,上海市,徐汇区
B0L2B5JPM7,全家便利店(悦荟广场店),购物服务;便民商店/便利店;便民商店/便利店,060200,南京东路353号悦荟广场F1层,121.483629,31.236400,13918140209,4.4,[],购物菜场,上海市,上海市,黄浦区
B0FFKXB5ER,LAWSON罗森(外滩soho店),购物服务;便民商店/便利店;便民商店/便利店,060200,外滩sohoC座地下一层(豫园地铁站7号口步行420米),121.494386,31.230007,4008206390,4.2,[],购物菜场,上海市,上海市,黄浦区
B0H0OKSP95,7-ELEVEn(无限极荟购物中心店),购物服务;便民商店/便利店;7-ELEVEn便利店,060201,湖滨路168号B1层,121.478140,31.220563,18616808096,4.3,[],购物菜场,上海市,上海市,黄浦区
B0G3O1CBXB,好特卖HotMaxx(SOHO复兴广场店),购物服务;便民商店/便利店;便民商店/便利店,060200,马当路388号SOHO复兴广场B2层,121.474540,31.215163,,4.4,[],购物菜场,上海市,上海市,黄浦区
B0LKS1K9GX,闻献DOCUMENTS(珑宫旗舰店),购物服务;便民商店/便利店;便民商店/便利店|体育休闲服务;娱乐场所;娱乐场所,060200|080300,龙腾大道2266号西岸梦中心1栋1楼102A,121.465419,31.162415,13616561588;18616864174,4.1,[],购物菜场,上海市,上海市,徐汇区
B0FFIQ5V0X,全家便利店(上海号文路店),购物服务;便民商店/便利店;便民商店/便利店,060200,漕宝路3299弄15号宝龙城L1层,121.355758,31.158907,15001701345,4.3,[],购物菜场,上海市,上海市,闵行区
B00155FT3Q,全家便利店(茅台店),购物服务;便民商店/便利店;便民商店/便利店,060200,茅台路340号,121.397075,31.209919,021-62342754;18201851539,4.3,[],购物菜场,上海市,上海市,长宁区
B0FFGKVVMJ,全家便利店(龙华一店),购物服务;便民商店/便利店;便民商店/便利店,060200,龙华路2584号(龙华地铁站3号口步行200米),121.453057,31.176804,021-60386311,4.2,[],购物菜场,上海市,上海市,徐汇区
B0JR3S8ZVG,7-ELEVEn(豫园店),购物服务;便民商店/便利店;7-ELEVEn便利店,060201,旧校场路129号991-1019号,121.491174,31.226258,,4.3,[],购物菜场,上海市,上海市,黄浦区
B0FFIULSZQ,全家便利店(企业天地店),购物服务;便民商店/便利店;便民商店/便利店,060200,湖滨路222号企业天地1号楼2层,121.475960,31.221248,021-22057809;021-53089757,4.3,[],购物菜场,上海市,上海市,黄浦区
B0FFLQEVBJ,7-ELEVEn(兴业太古汇店),购物服务;便民商店/便利店;7-ELEVEn便利店,060201,石门一路288号兴业太古汇LG2层,121.462108,31.229693,021-52807219,4.3,[],购物菜场,上海市,上海市,静安区
B0FFFS2OYO,LAWSON罗森(宝石园),购物服务;便民商店/便利店;便民商店/便利店,060200,田林路487号宝石园20号楼1层,121.393909,31.164805,021-33674176,4.2,[],购物菜场,上海市,上海市,徐汇区
B0FFLQ90PQ,全家便利店(柳州路二店),购物服务;便民商店/便利店;便民商店/便利店,060200,柳州路84-1号(上海南站地铁站8号口步行190米),121.428584,31.157618,021-34161725;021-60389624,4.2,[],购物菜场,上海市,上海市,徐汇区
B0J3VO69RW,公路商店(陕西南路店),购物服务;便民商店/便利店;便民商店/便利店,060200,陕西南路13号,121.456737,31.222053,18939880165,4.3,[],购物菜场,上海市,上海市,静安区
B0FFG69TJN,全家便利店(长峰店),购物服务;便民商店/便利店;便民商店/便利店,060200,延安西路1088号长峰中心1层,121.430800,31.211724,021-62107431;18817768207,4.3,[],购物菜场,上海市,上海市,长宁区
B0FFH2EIEY,全家便利店(雁荡路一店),购物服务;便民商店/便利店;便民商店/便利店,060200,雁荡路20号(一大会址·黄陂南路地铁站1号口步行370米),121.469865,31.220732,021-33150391;19901679616,4.2,[],购物菜场,上海市,上海市,黄浦区
B0FFG69VM6,LAWSON罗森(乌鲁木齐中路店),购物服务;便民商店/便利店;便民商店/便利店,060200,乌鲁木齐中路5号3幢北侧,121.444106,31.216563,021-62483705,4.2,[],购物菜场,上海市,上海市,静安区
B00156EIN9,全家便利店(镇宁路二店),购物服务;便民商店/便利店;便民商店/便利店,060200,镇宁路83号,121.438118,31.216150,021-52379775;18855460980,4.1,[],购物菜场,上海市,上海市,长宁区
B0FFGG4630,全家便利店(清峪路店),购物服务;便民商店/便利店;便民商店/便利店,060200,清峪路600号,121.366550,31.242276,021-33729613;18717818302,4.3,[],购物菜场,上海市,上海市,普陀区
B0FFI9QJYM,全家便利店(漕溪北路七店),购物服务;便民商店/便利店;便民商店/便利店,060200,漕溪北路739号1层C单元,121.437159,31.184740,13818839094,4.3,[],购物菜场,上海市,上海市,徐汇区
B0KARA8W5H,ASUS华硕电脑(售后服务)数码配件(延安西路),购物服务;便民商店/便利店;7-ELEVEn便利店,060201,延安西路221-2号221-3号,121.442099,31.219085,4001636196,4.2,[],购物菜场,上海市,上海市,静安区
B00155L9QT,全家便利店(建国中路店),购物服务;便民商店/便利店;便民商店/便利店,060200,建国中路10号8号楼8102-8103室,121.471612,31.210739,021-64226236;13391012191;18930696950,4.1,[],购物菜场,上海市,上海市,黄浦区
B0FFI79ZZU,全家便利店(柳州路店),购物服务;便民商店/便利店;便民商店/便利店,060200,柳州路549-1号,121.423000,31.173728,021-54565620;021-54566372,4.2,[],购物菜场,上海市,上海市,徐汇区
B0FFJRCWRC,全家便利店(西藏南路9店),购物服务;便民商店/便利店;便民商店/便利店,060200,西藏南路567号(老西门地铁站1号口旁),121.482993,31.219359,021-60386332,4.2,[],购物菜场,上海市,上海市,黄浦区
B0G3JH5XN9,LAWSON罗森(湖北路店),购物服务;便民商店/便利店;便民商店/便利店,060200,湖北路131号,121.481153,31.232602,15221872625,4.2,[],购物菜场,上海市,上海市,黄浦区
B0FFGFBHRN,LAWSON罗森(汇川路店),购物服务;便民商店/便利店;便民商店/便利店,060200,汇川路91-1号(中山公园地铁站10号口步行150米),121.417150,31.216665,021-52728977;15139103320;4008206390,4.2,[],购物菜场,上海市,上海市,长宁区
B0FFI1AWMS,全家便利店(绿地中心国际广场店),购物服务;便民商店/便利店;便民商店/便利店,060200,东安路562号绿地缤纷城东区1F层,121.458006,31.183525,,4.4,[],购物菜场,上海市,上海市,徐汇区
B0FFH3RTUS,全家便利店(斜土路六店),购物服务;便民商店/便利店;便民商店/便利店,060200,斜土路1404号(嘉善路地铁站4号口步行420米),121.461732,31.197851,17756350210,4.1,[],购物菜场,上海市,上海市,徐汇区
B0HDFZFN23,LAWSON罗森(曹杨路319店),购物服务;便民商店/便利店;便民商店/便利店,060200,曹杨路319(隆德路地铁站1号口步行390米),121.420942,31.234093,15937026710;4000001234,4.1,[],购物菜场,上海市,上海市,普陀区
B00156NSPN,全家便利店(人民路店),购物服务;便民商店/便利店;便民商店/便利店,060200,人民路885号淮海中华大厦1层,121.483597,31.225721,021-63149806,4.2,[],购物菜场,上海市,上海市,黄浦区
B0FFHYBJ82,全家便利店(古美西路二店),购物服务;便民商店/便利店;便民商店/便利店,060200,梅陇镇万源路440-442(复旦大学附属儿科医院对面),121.401325,31.135647,021-50879354,4.1,[],购物菜场,上海市,上海市,闵行区
B0GU5MUHNP,全家便利店(德州路店),购物服务;便民商店/便利店;便民商店/便利店,060200,德州路382弄1-6号德馨公寓,121.485554,31.166803,021-58303260;17320579253,4.2,[],购物菜场,上海市,上海市,浦东新区
B0FFFABV8B,全家便利店(龙华西路店),购物服务;便民商店/便利店;便民商店/便利店,060200,龙华西路1号上海民航职业技术学院里(上海民航职业技术学院操场左面),121.455234,31.171868,021-64220212,4.0,[],购物菜场,上海市,上海市,徐汇区
B0FFF5VP2L,全家便利店(威海店),购物服务;便民商店/便利店;便民商店/便利店,060200,威海路656号(南京西路地铁站12号口步行80米),121.458981,31.226583,021-62174044;021-63803627;15000626248,4.2,[],购物菜场,上海市,上海市,静安区
B00155MOXL,全家便利店(小木桥路二店),购物服务;便民商店/便利店;便民商店/便利店,060200,,121.458624,31.196496,021-54565383,4.2,[],购物菜场,上海市,上海市,徐汇区
B0IALSSXJL,LAWSON罗森(十方大厦名都商务楼店),购物服务;便民商店/便利店;便民商店/便利店,060200,金陵中路165号,121.478223,31.223153,021-52393721;021-53027961,4.2,[],购物菜场,上海市,上海市,黄浦区
B00155IHMU,戴尔电脑数码配件(北京西路店),购物服务;便民商店/便利店;便民商店/便利店,060200,北京西路1648号(戴尔电脑售后维修),121.444610,31.226231,4001821508,4.2,[],购物菜场,上海市,上海市,静安区
B00155QDWE,7-ELEVEn(延新店),购物服务;便民商店/便利店;7-ELEVEn便利店,060201,延平路98号2-17,121.441868,31.228095,021-32500169;19916714702,4.2,[],购物菜场,上海市,上海市,静安区
B0K3YS9IH8,善淘慈善商店(上海荟聚店),购物服务;便民商店/便利店;便民商店/便利店,060200,金钟路788号上海荟聚B2层,121.355848,31.221294,,4.1,[],购物菜场,上海市,上海市,长宁区
B0FFF5U50K,全家便利店(陆家浜路店),购物服务;便民商店/便利店;便民商店/便利店,060200,陆家浜路1055号(陆家浜路地铁站6号口步行320米),121.488514,31.212330,021-53863673;13167166959,4.2,[],购物菜场,上海市,上海市,黄浦区
B0FFF54HUN,全家便利店(森本大楼店),购物服务;便民商店/便利店;便民商店/便利店,060200,天钥桥路567号(上海体育场地铁站3号口步行170米),121.442966,31.186026,021-22057686;15800699416,4.2,[],购物菜场,上海市,上海市,徐汇区
B0JBAMAMFS,全家便利店(阡集·莘社区店),购物服务;便民商店/便利店;便民商店/便利店,060200,秀涟路555弄城开莘社区1幢1楼,121.358812,31.128336,18616895902,4.4,[],购物菜场,上海市,上海市,闵行区
B0FFGF3AZ9,LAWSON罗森(湖南店),购物服务;便民商店/便利店;便民商店/便利店,060200,淮海中路1640号(上海图书馆地铁站3号口步行90米),121.443111,31.207406,021-64372698;4008206390,4.2,[],购物菜场,上海市,上海市,徐汇区
B0FFIJKOXY,LAWSON罗森(东方商厦店),购物服务;便民商店/便利店;便民商店/便利店,060200,衡山路徐家汇1-1002号G座(徐家汇地铁站11号口旁),121.438311,31.193276,021-22057699,4.1,[],购物菜场,上海市,上海市,徐汇区
B0GK0NAI9S,全家便利店(云锦路二店),购物服务;便民商店/便利店;便民商店/便利店,060200,云锦路701号GATE M 西岸凤巢南区1F层,121.460310,31.162967,4008200996,4.2,[],购物菜场,上海市,上海市,徐汇区
B0FFIVBPVA,LAWSON罗森(华山路店),购物服务;便民商店/便利店;便民商店/便利店,060200,华山路1619号(交通大学地铁站6号口步行100米),121.434639,31.203483,021-62317652;4008206390,4.2,[],购物菜场,上海市,上海市,长宁区
B00155KJ46,LAWSON罗森(长宁支路店),购物服务;便民商店/便利店;便民商店/便利店,060200,长宁支路333号,121.422725,31.223254,17621354802;4008206390,4.2,[],购物菜场,上海市,上海市,长宁区
B00156EFDH,全家便利店(方斜路店),购物服务;便民商店/便利店;便民商店/便利店,060200,方斜路18号(复兴东路口)(老西门地铁站6号口步行110米),121.483988,31.220236,021-33301656;021-50877057,4.1,[],购物菜场,上海市,上海市,黄浦区
B0FFFCQRGB,惠普数码配件(静安寺地铁站2号店),购物服务;便民商店/便利店;便民商店/便利店,060200,南京西路街道1728号百乐门大都会,121.444693,31.222761,4001867170,4.2,[],购物菜场,上海市,上海市,静安区
B0FFHRD31Q,全家便利店(漕宝路七店),购物服务;便民商店/便利店;便民商店/便利店,060200,漕宝路77弄1-47号华尔兹花园,121.427860,31.168304,4008200996,4.1,[],购物菜场,上海市,上海市,徐汇区
B00154DDHS,LAWSON罗森(达安花园店),购物服务;便民商店/便利店;便民商店/便利店,060200,余姚路812号(武宁路地铁站5A口步行170米),121.431484,31.230740,021-52797785;4008206390,4.3,[],购物菜场,上海市,上海市,静安区
B0FFKSISN8,LAWSON罗森(新闸路店),购物服务;便民商店/便利店;便民商店/便利店,060200,新昌路488号1层(新闸路地铁站1号口步行90米),121.466844,31.239150,13501889757;4008206390,4.1,[],购物菜场,上海市,上海市,黄浦区
B00156O237,一都赞台湾食品超市(长宁路店),购物服务;便民商店/便利店;便民商店/便利店,060200,长宁路1598号,121.407479,31.217380,021-62099776;18116231598,4.3,[],购物菜场,上海市,上海市,长宁区
B0FFFUYVQ7,全家便利店(奉贤路店),购物服务;便民商店/便利店;便民商店/便利店,060200,西康路260号(南京西路地铁站1号口步行480米),121.455387,31.229037,021-62120319;021-62120359;13817401663,4.1,[],购物菜场,上海市,上海市,静安区
B0LGPBHSWP,上海第二食品商店,购物服务;便民商店/便利店;便民商店/便利店|购物服务;专卖店;专营店|餐饮服务;糕饼店;糕饼店,060200|061200|050800,梅陇路255号华轻梅陇购物中心F1层,121.422090,31.139317,021-31067210,4.1,[],购物菜场,上海市,上海市,徐汇区
B0JRRANYHN,全家便利店(前滩雍萃47店),购物服务;便民商店/便利店;便民商店/便利店,060200,前滩雍萃47东门旁,121.468519,31.148331,13311867767;15572786717,4.2,[],购物菜场,上海市,上海市,浦东新区
B0FFIUHTPI,全家便利店(瑞金店),购物服务;便民商店/便利店;便民商店/便利店,060200,瑞金二路130号,121.465813,31.211189,021-64713202,4.3,[],购物菜场,上海市,上海市,黄浦区
B00155IVWL,LAWSON罗森(思南路店),购物服务;便民商店/便利店;便民商店/便利店,060200,思南路101-1号(打浦桥地铁站1号口步行460米),121.470278,31.209908,021-64733276,4.2,[],购物菜场,上海市,上海市,黄浦区
B0LUXUNB03,椰耶商店,购物服务;便民商店/便利店;便民商店/便利店,060200,江苏路街道江苏路96号1011、208室,121.429127,31.222653,16643529617,4.2,[],购物菜场,上海市,上海市,长宁区
B0FFL3JR6D,LAWSON罗森(恒丰299号店),购物服务;便民商店/便利店;便民商店/便利店,060200,恒丰路299号太阳CITY F1层,121.456838,31.242979,4008206390,4.0,[],购物菜场,上海市,上海市,静安区
B00156DHDF,7-ELEVEn(永业公寓店),购物服务;便民商店/便利店;7-ELEVEn便利店,060201,蒙自路45-47号(马当路地铁站3号口步行90米),121.477032,31.208118,021-63053951;18721705274,4.1,[],购物菜场,上海市,上海市,黄浦区
B0FFF5VDJ7,全家便利店(宁海东路店),购物服务;便民商店/便利店;便民商店/便利店,060200,宁海东路232号近广西南路(大世界地铁站5号口步行190米),121.480975,31.228584,021-53027155;021-53027156;13761513768,4.3,[],购物菜场,上海市,上海市,黄浦区
B0FFF58JA0,全家便利店(海防二店),购物服务;便民商店/便利店;便民商店/便利店,060200,海防路559号(昌平路地铁站5号口步行460米),121.442558,31.236705,021-62764603;15800985251,4.1,[],购物菜场,上海市,上海市,静安区
B0K1GHQP72,公路商店(西岸梦中心店),购物服务;便民商店/便利店;便民商店/便利店,060200,龙腾大道2266号Gate M西岸梦中心1F层,121.466049,31.159164,13061699600,4.4,[],购物菜场,上海市,上海市,徐汇区
B0FFFWQF49,全家便利店(福州路二店),购物服务;便民商店/便利店;便民商店/便利店,060200,福州路318号浦汇大厦1层102E室-A,121.484307,31.234561,021-63201992,4.3,[],购物菜场,上海市,上海市,黄浦区
B00154DT5I,玲珑超市(上浦路店),购物服务;便民商店/便利店;便民商店/便利店,060200,上浦路166弄之1-5号,121.491580,31.145100,021-50844561,4.3,[],购物菜场,上海市,上海市,浦东新区
B0FFK67JR3,LAWSON罗森(河南南路541号店),购物服务;便民商店/便利店;便民商店/便利店,060200,河南南路541号,121.490510,31.221033,021-53862789,4.1,[],购物菜场,上海市,上海市,黄浦区
B0FFKWB4CK,LAWSON罗森(威海路店),购物服务;便民商店/便利店;便民商店/便利店,060200,威海路165号,121.468002,31.227525,4008206390,4.2,[],购物菜场,上海市,上海市,黄浦区
B0FFGTJ99Y,全家便利店(宜山路店),购物服务;便民商店/便利店;便民商店/便利店,060200,田林十四村19号,121.423435,31.177058,021-80270634;18368189475,4.1,[],购物菜场,上海市,上海市,徐汇区
B0015723P5,全家便利店(长寿路十店),购物服务;便民商店/便利店;便民商店/便利店,060200,长寿路1118号星方汇L1层,121.427410,31.230579,15821477075,4.1,[],购物菜场,上海市,上海市,普陀区
B0FFG69P53,LAWSON罗森(娄山关路440弄店),购物服务;便民商店/便利店;便民商店/便利店,060200,仙霞路161号,121.403476,31.206092,021-62283738;021-63800976;4008206390,4.1,[],购物菜场,上海市,上海市,长宁区
B0I1TCA9Z1,LAWSON罗森(703号店),购物服务;便民商店/便利店;便民商店/便利店,060200,衡山路286号(衡山路地铁站1号口步行130米),121.445338,31.203279,021-64045279,4.1,[],购物菜场,上海市,上海市,徐汇区
B0FFF64ULU,全家便利店(中山南一路二店),购物服务;便民商店/便利店;便民商店/便利店,060200,中山南一路302号(近制造局路),121.485858,31.199944,021-53210219;15821147332,4.2,[],购物菜场,上海市,上海市,黄浦区
B0J6GNEO7V,LAWSON罗森(沪闵路店),购物服务;便民商店/便利店;便民商店/便利店,060200,麦当劳旁边在三号口下一楼(莲花路地铁站3号口步行90米),121.402059,31.130808,13585774527;15026857067,4.2,[],购物菜场,上海市,上海市,闵行区
B0FFIGTXU1,全家便利店(定西路五店),购物服务;便民商店/便利店;便民商店/便利店,060200,定西路790号,121.423897,31.208925,021-61270657;021-61458625;15721036710,4.1,[],购物菜场,上海市,上海市,长宁区
B00155IWDK,全家便利店(大沽店),购物服务;便民商店/便利店;便民商店/便利店,060200,石门一路60号(南京西路地铁站8号口步行290米),121.463478,31.225331,021-63273120;17601259480;17635732812,4.2,[],购物菜场,上海市,上海市,静安区
B00155KN5K,全家便利店(武定店),购物服务;便民商店/便利店;便民商店/便利店,060200,武定路409-411号1层(江宁路口),121.452293,31.234321,15721409732,4.1,[],购物菜场,上海市,上海市,静安区
B00156EIH2,全家便利店(莱茵·虹桥中心店),购物服务;便民商店/便利店;便民商店/便利店,060200,合川路3051号莱茵虹桥中心21幢楼1层109单元,121.379654,31.180585,021-54151925;16621540529,4.1,[],购物菜场,上海市,上海市,闵行区
B0FFF61DE1,全家便利店(虹桥路二店),购物服务;便民商店/便利店;便民商店/便利店,060200,虹桥路998号(虹桥路地铁站6号口步行280米),121.420398,31.195474,021-62146271,4.1,[],购物菜场,上海市,上海市,长宁区
B0FFG69PCO,全家便利店(仙霞二店),购物服务;便民商店/便利店;便民商店/便利店,060200,仙霞路80号(娄山关路仙霞路),121.406340,31.204911,13795290751,4.2,[],购物菜场,上海市,上海市,长宁区
B00156YMEQ,全家便利店(乐山路三店),购物服务;便民商店/便利店;便民商店/便利店,060200,乐山路33-1,121.432460,31.196259,17521679408,4.2,[],购物菜场,上海市,上海市,徐汇区
B0FFKQWLRT,7-ELEVEn(晶耀商务广场1座店),购物服务;便民商店/便利店;7-ELEVEn便利店,060201,耀体路212号晶耀商务广场一层L114a单元,121.475955,31.152742,021-50719779;18355425368,4.3,[],购物菜场,上海市,上海市,浦东新区
B0J1Z5N6W0,全家便利店(制造局路三店),购物服务;便民商店/便利店;便民商店/便利店,060200,制造局路584号1幢102室,121.484769,31.203053,15902143926,4.2,[],购物菜场,上海市,上海市,黄浦区
B0FFKU604K,LAWSON罗森(前滩企业天地店),购物服务;便民商店/便利店;便民商店/便利店,060200,济阳路158号前滩企业天地F1层,121.482440,31.158962,021-80270663;4008206390,4.2,[],购物菜场,上海市,上海市,浦东新区
B0FFI28KQ0,7-ELEVEn(新闸店),购物服务;便民商店/便利店;7-ELEVEn便利店,060201,新闸路213号(新闸路地铁站5号口旁),121.468695,31.238573,021-53863205,4.1,[],购物菜场,上海市,上海市,黄浦区
B0I1PNGMMJ,全家便利店(1788广场店),购物服务;便民商店/便利店;便民商店/便利店|购物服务;超级市场;超市,060200|060400,南京西路1818号1788广场LG1层,121.443646,31.222355,021-31763733;021-54032760,4.2,[],购物菜场,上海市,上海市,静安区
B00155QDZF,7-ELEVEn(西华酒店店),购物服务;便民商店/便利店;7-ELEVEn便利店,060201,淮海西路1号上海西华酒店1层103室,121.434941,31.201815,021-62805471;021-64825471;19921517597,4.2,[],购物菜场,上海市,上海市,徐汇区
B00155QGSN,全家便利店(尚文路店),购物服务;便民商店/便利店;便民商店/便利店,060200,尚文路191号(近学前街),121.490074,31.215294,021-33764136,4.1,[],购物菜场,上海市,上海市,黄浦区
B0FFFYTY9I,全家便利店(江苏路店),购物服务;便民商店/便利店;便民商店/便利店,060200,江苏路458号舜元·弘基天地1层107-1,121.430925,31.218292,021-52955812,4.2,[],购物菜场,上海市,上海市,长宁区
B0FFGZWZGT,乐驿商场,购物服务;便民商店/便利店;便民商店/便利店|购物服务;超级市场;超市,060200|060400,宜山路600号(市六医院急诊底楼),121.423189,31.178508,,3.9,[],购物菜场,上海市,上海市,徐汇区
B0FFH5GHIK,全家便利店(云南南路二店),购物服务;便民商店/便利店;便民商店/便利店,060200,云南南路192号1层(大世界地铁站5号口步行260米),121.482179,31.225166,021-53520319;021-63232816,4.2,[],购物菜场,上海市,上海市,黄浦区
B00155ILQP,好德便利(乌鲁木齐中路店),购物服务;便民商店/便利店;便民商店/便利店,060200,安福路143号,121.445167,31.214211,021-54042130,4.2,[],购物菜场,上海市,上海市,徐汇区
B0FFHPUHCF,LAWSON罗森(百联徐汇商业广场店),购物服务;便民商店/便利店;便民商店/便利店,060200,华山路2088号汇银广场南楼,121.437300,31.196665,,4.2,[],购物菜场,上海市,上海市,徐汇区
B0FFK82GP3,全家便利店(春申路店),购物服务;便民商店/便利店;便民商店/便利店,060200,春申路1742号,121.424882,31.112951,021-54155032;16621001691,4.1,[],购物菜场,上海市,上海市,闵行区
B0FFHMTZ9W,全家便利店(天钥桥路五店),购物服务;便民商店/便利店;便民商店/便利店,060200,天钥桥路890-3号(上海游泳馆地铁站2号口步行430米),121.444702,31.179875,021-54670209;15868535228,4.1,[],购物菜场,上海市,上海市,徐汇区
B0FFH3FX8K,全家便利店(上海区域店),购物服务;便民商店/便利店;便民商店/便利店,060200,吴中路1686号(龙柏新村地铁站3号口步行320米),121.369875,31.173325,13063398766,4.2,[],购物菜场,上海市,上海市,闵行区
B00155QTCH,全家便利店(虹泉店),购物服务;便民商店/便利店;便民商店/便利店,060200,虹泉路1101弄3号,121.372648,31.169044,021-34096871,4.1,[],购物菜场,上海市,上海市,闵行区
B0FFK0CN69,LAWSON罗森(江苏路店),购物服务;便民商店/便利店;便民商店/便利店,060200,江苏路535号(江苏路地铁站4号口步行450米),121.432626,31.215843,15026574264,4.1,[],购物菜场,上海市,上海市,长宁区
B00156O5Z5,全家便利店(斜徐路店),购物服务;便民商店/便利店;便民商店/便利店,060200,斜徐路579号(打浦桥地铁站2号口步行430米),121.472528,31.206845,021-33040727;13916598312,4.2,[],购物菜场,上海市,上海市,黄浦区
B0FFJCGZYE,中石化加油站便利店(漕宝路店),购物服务;便民商店/便利店;便民商店/便利店,060200,七宝漕宝路1790号(星中路地铁站2号口旁),121.369314,31.157824,021-64596732,4.2,[],购物菜场,上海市,上海市,闵行区
B0HKYUY6DY,宜林市集,购物服务;便民商店/便利店;便民商店/便利店,060200,田林十三村2号,121.423770,31.174062,021-64339195,4.1,[],购物菜场,上海市,上海市,徐汇区
B00155LAYN,全家便利店(富贵东道店),购物服务;便民商店/便利店;便民商店/便利店,060200,富贵东道308号,121.406251,31.195108,18217742612,4.2,[],购物菜场,上海市,上海市,长宁区
B0FFKG3IL7,全家便利店(水城南路五店),购物服务;便民商店/便利店;便民商店/便利店,060200,延安西路2633号美丽华商务中心F1层,121.392758,31.197652,17392108090;4008200996,4.1,[],购物菜场,上海市,上海市,长宁区
B00155LVID,全家便利店(金沙江路四店),购物服务;便民商店/便利店;便民商店/便利店,060200,金沙江路1628弄7号1层108-109室,121.380245,31.234065,021-32513342;17770913150,4.1,[],购物菜场,上海市,上海市,普陀区
B0J35HUD9F,全家便利店(天钥桥三店),购物服务;便民商店/便利店;便民商店/便利店,060200,天钥桥路386号1层02室1座(慈云街天钥桥路),121.441823,31.188059,021-54247823;13916747718,4.2,[],购物菜场,上海市,上海市,徐汇区
B0FFF5ALEO,全家便利店(虹井路二店),购物服务;便民商店/便利店;便民商店/便利店,060200,地铁10号线龙柏新村地铁站,121.370394,31.175950,13818361258,4.1,[],购物菜场,上海市,上海市,闵行区
B00155HONV,全家便利店(兵工大厦店),购物服务;便民商店/便利店;便民商店/便利店,060200,肇嘉浜路268号(嘉善路地铁站5号口旁),121.459833,31.202180,021-60382313;021-64165640,4.1,[],购物菜场,上海市,上海市,徐汇区
B0FFINMWQI,全家便利店(国货路店),购物服务;便民商店/便利店;便民商店/便利店,060200,国货路333弄1-12号海洲国际华园,121.493628,31.209310,021-33045788,4.1,[],购物菜场,上海市,上海市,黄浦区
B0FFF90K88,全家便利店(漕东支路店),购物服务;便民商店/便利店;便民商店/便利店,060200,漕东支路106号,121.437573,31.171500,021-54960027;18221563536,4.1,[],购物菜场,上海市,上海市,徐汇区
B0FFGOOC2E,全家便利店(百色路店),购物服务;便民商店/便利店;便民商店/便利店,060200,百色路1129-1131号,121.434877,31.142890,021-54153017,4.1,[],购物菜场,上海市,上海市,徐汇区
B0J6COO1W5,7-ELEVEn(中海国际中心店),购物服务;便民商店/便利店;7-ELEVEn便利店,060201,黄陂南路与永年路交叉口西100米中海环宇荟B1层B127,121.476499,31.211323,13685546080;4008205711,4.2,[],购物菜场,上海市,上海市,黄浦区
B0L31CW5VZ,全家便利店(浙江中路三店),购物服务;便民商店/便利店;便民商店/便利店,060200,宁波路587弄2-7号爱民弄,121.476760,31.236078,021-53076391;15221176958,4.3,[],购物菜场,上海市,上海市,黄浦区
B0FFF5VSI2,全家便利店(梅川路五店),购物服务;便民商店/便利店;便民商店/便利店,060200,梅川路890号,121.389715,31.240448,021-62371633,4.2,[],购物菜场,上海市,上海市,普陀区
B0FFH7CV36,全家便利店(长安路二店),购物服务;便民商店/便利店;便民商店/便利店,060200,恒丰路318弄1-10号苏河融景,121.455027,31.241642,,4.2,[],购物菜场,上海市,上海市,静安区
B00155MV8B,7-ELEVEn(永新坊店),购物服务;便民商店/便利店;7-ELEVEn便利店,060201,辛耕路121号(天钥桥路辛耕路交叉口),121.442964,31.192508,021-33686350;13957855685,4.2,[],购物菜场,上海市,上海市,徐汇区
B00154DNXX,LAWSON罗森(瑞金大厦店),购物服务;便民商店/便利店;便民商店/便利店,060200,茂名南路205-2号(陕西南路地铁站6号口步行460米),121.462639,31.213911,4008206390,4.1,[],购物菜场,上海市,上海市,黄浦区
B0FFF5SO2A,全家便利店(华山路店),购物服务;便民商店/便利店;便民商店/便利店,060200,华山路620-2奥力孚利华大厦,121.440789,31.216900,13524865792;15821451405,4.2,[],购物菜场,上海市,上海市,静安区
B0FFFZBINC,全家便利店(常德路四店),购物服务;便民商店/便利店;便民商店/便利店,060200,常德路497号(昌平路地铁站2号口步行490米),121.446290,31.229603,021-52821635;16621571310,4.1,[],购物菜场,上海市,上海市,静安区
B0FFGMBPWX,全家便利店(丽园路店),购物服务;便民商店/便利店;便民商店/便利店,060200,丽园路867-2号(马当路地铁站3号口步行290米),121.476518,31.206815,021-63021620;17756350210,4.2,[],购物菜场,上海市,上海市,黄浦区
B00155FV1Q,LAWSON罗森(西康路店),购物服务;便民商店/便利店;便民商店/便利店,060200,西康路976-978-3(长寿路地铁站出入口步行400米),121.441983,31.240646,021-62664580;021-62669335,4.2,[],购物菜场,上海市,上海市,普陀区
B00156E5ZQ,Apple 南京东路,购物服务;家电电子卖场;数码电子,060306,南京东路300号,121.484103,31.237549,4006639988,4.7,[],购物菜场,上海市,上海市,黄浦区
B0KGYZEF36,Apple 静安,购物服务;家电电子卖场;数码电子,060306,,121.446093,31.222333,4000003235,4.7,[],购物菜场,上海市,上海市,静安区
B0FFIBLQ8X,百脑汇(中金国际广场店),购物服务;家电电子卖场;数码电子,060306,漕溪北路339号(徐家汇地铁站4号口旁),121.438482,31.190636,021-31770606;021-61252232,4.6,[],购物菜场,上海市,上海市,徐汇区
B0FFJJFDNX,富士胶片影像空间X-SPACE,购物服务;专卖店;摄影器材店|购物服务;家电电子卖场;数码电子|生活服务;摄影冲印店;摄影冲印,061212|060306|071300,淮海中路398号(一大会址·黄陂南路地铁站1口旁),121.472126,31.222501,021-63730173,4.7,[],购物菜场,上海市,上海市,黄浦区
B00157BJ6H,Apple 上海环贸 iapm,购物服务;家电电子卖场;数码电子,060306,淮海中路999号环贸iapm商场L1层L1-107,121.457759,31.215838,4006171324,4.6,[],购物菜场,上海市,上海市,徐汇区
B00155QGJH,Apple 香港广场,购物服务;家电电子卖场;数码电子,060306,淮海中路282号香港广场北座L1-01/02/03&L2-03/04/02/05,121.474521,31.223396,4006171312,4.6,[],购物菜场,上海市,上海市,黄浦区
B0FFGY20EO,Apple 环球港,购物服务;家电电子卖场;数码电子,060306,中山北路3300号1层,121.411722,31.232108,4006171335,4.5,[],购物菜场,上海市,上海市,普陀区
B00155M06P,Sony Store 索尼(淮海中路店),购物服务;家电电子卖场;数码电子|购物服务;专卖店;专营店,060306|061200,淮海中路901号首层至三层,121.460298,31.217173,021-64721212,4.6,[],购物菜场,上海市,上海市,黄浦区
B0GU71NECK,华为旗舰店•上海南京东路,购物服务;家电电子卖场;手机销售,060305,南京东路233号1-3层(南京东路地铁站2号口步行90米),121.485096,31.237525,4006084456,4.7,[],购物菜场,上海市,上海市,黄浦区
B0FFLCV8CP,华为授权服务中心(徐汇漕溪北路),购物服务;家电电子卖场;手机销售|生活服务;维修站点;维修站点,060305|071200,漕溪北路575号(徐汇区区政府右侧斜对面),121.437232,31.188195,021-34771126,4.8,[],购物菜场|生活服务,上海市,上海市,徐汇区
B0H0X54EXR,尼康(上海直营店),购物服务;家电电子卖场;数码电子,060306,淮海中路372号(一大会址·黄陂南路地铁站1号口步行50米),121.472323,31.222507,021-53018808;4008201665,4.7,[],购物菜场,上海市,上海市,黄浦区
B00155BDWU,太平洋数码1期,购物服务;家电电子卖场;数码电子,060306,太平洋数码一期211-3自强科技有限公司,121.439370,31.192162,15618339131,4.4,[],购物菜场,上海市,上海市,徐汇区
B0FFHI1P9W,DJI大疆l哈苏(上海新天地旗舰店),购物服务;家电电子卖场;数码电子,060306,马当路119号1楼L103-104二楼L202-203,121.474333,31.220720,021-53882588,4.8,[],购物菜场,上海市,上海市,黄浦区
B0FFF2A4A3,星光摄影器材城C区,购物服务;家电电子卖场;数码电子|购物服务;专卖店;专营店,060306|061200,鲁班路300号,121.474419,31.203553,,4.6,[],购物菜场,上海市,上海市,黄浦区
B0I36L81UY,百脑汇huaw(汇嘉大厦店),购物服务;家电电子卖场;数码电子,060306,漕溪北路339号百脑汇一楼1A08(徐家汇地铁站4号口旁),121.438482,31.190636,021-61252232;17301836828,4.5,[],购物菜场,上海市,上海市,徐汇区
B0FFMBOYN3,华为授权体验店(晶耀前滩),购物服务;家电电子卖场;数码电子,060306,耀体路与平家桥路交叉处晶耀前滩L139号华为,121.478548,31.152572,021-50333318,4.7,[],购物菜场,上海市,上海市,浦东新区
B00156ENAG,苏宁易购(Suning Pro上海闵行吴中路店),购物服务;家电电子卖场;苏宁,060304,吴中路769号,121.394079,31.179957,15502195150;18616166022,4.7,[],购物菜场,上海市,上海市,闵行区
B0FFKGBWS2,三星旗舰体验店(外滩店),购物服务;家电电子卖场;手机销售|购物服务;家电电子卖场;数码电子,060305|060306,南京东路299号(南京东路地铁站出入口步行60米),121.484409,31.237286,021-61259250,4.7,[],购物菜场,上海市,上海市,黄浦区
B0FFH5O0JV,Suning Max苏宁易购(上海长宁中山公园店),购物服务;家电电子卖场;苏宁,060304,长宁路999号兆丰广场2-3层(中山公园地铁站9口旁),121.417845,31.217845,021-60592483,4.8,[],购物菜场,上海市,上海市,长宁区
B0JR5SWLYI,京东电器城市旗舰店(长宁龙之梦店),购物服务;家电电子卖场;家电电子卖场,060300,长宁路1018号龙之梦城市生活中心B1,121.416601,31.219058,021-62150369,4.6,[],购物菜场,上海市,上海市,长宁区
B0FFG69RWG,华为授权体验店(海仑宾馆),购物服务;家电电子卖场;手机销售,060305,南京东路步行街上海丽笙精选海仑宾馆首层,121.480839,31.235667,17721195887,4.7,[],购物菜场,上海市,上海市,黄浦区
B0FFKKA1KQ,华为授权服务中心(普陀金沙江路),购物服务;家电电子卖场;手机销售|生活服务;维修站点;维修站点,060305|071200,宁夏路679号(欧爱喜中心1楼全家超市隔壁),121.413519,31.230975,021-62180758,4.7,[],购物菜场|生活服务,上海市,上海市,普陀区
B0J2BALQNT,华为旗舰店•上海前滩太古里,购物服务;家电电子卖场;手机销售,060305,东育路500弄1-9号W-L1-05W-L2-04号商铺,121.481751,31.154427,4006605456,4.6,[],购物菜场,上海市,上海市,浦东新区
B0LAGDT1U5,华为智能生活馆•上海中环广场,购物服务;家电电子卖场;手机销售,060305,淮海中路381号中环广场一层L1-1室,121.472865,31.222130,18117218633,4.4,[],购物菜场,上海市,上海市,黄浦区
B0LULH81TF,vivo官方授权体验店(黄浦世茂广场店),购物服务;家电电子卖场;手机销售,060305,南京东路街道南京东路829号上海世茂广场西区3楼L304vivo体验店,121.475791,31.234503,17356278875,4.6,[],购物菜场,上海市,上海市,黄浦区
B0HBR63XW9,华为授权体验店(CP静安购物中心),购物服务;家电电子卖场;手机销售,060305,愚园路8号CP静安购物中心1层06号,121.446834,31.225697,18616533679,4.7,[],购物菜场,上海市,上海市,静安区
B0HK9SZJFV,Apple授权专营店(前滩太古里店),购物服务;家电电子卖场;手机销售,060305,前滩太古里3层,121.481934,31.153522,021-61097693,4.4,[],购物菜场,上海市,上海市,浦东新区
B00155QKMD,W99 PLAZA,购物服务;家电电子卖场;家电电子卖场,060300,西藏南路221号(近西藏南路),121.480983,31.225337,,4.1,[],购物菜场,上海市,上海市,黄浦区
B00155QBT6,ASUS华硕电脑(售后服务)数码配件(漕溪北路店),生活服务;电讯营业厅;中国电信营业厅|购物服务;家电电子卖场;手机销售|公司企业;公司;电信公司,070601|060305|170208,漕溪北路915号(上海体育馆地铁站1号口步行180米),121.437280,31.183824,4007802015,4.4,[],购物菜场,上海市,上海市,徐汇区
B0FFG0X1FX,赛格电子市场(上海科技京城店),购物服务;家电电子卖场;数码电子,060306,北京东路668号科技京城G座,121.477802,31.239042,13917723378,4.4,[],购物菜场,上海市,上海市,黄浦区
B00156EHFA,正和商厦,购物服务;家电电子卖场;数码电子,060306,鲁班路300号,121.474542,31.203184,021-53019521,4.0,[],购物菜场,上海市,上海市,黄浦区
B0G3LBDM3D,Apple授权专营店(世博源店),购物服务;家电电子卖场;手机销售,060305,上南路168号世博源B层331,121.492689,31.181901,021-50806735,4.3,[],购物菜场,上海市,上海市,浦东新区
B0JG7ZSM30,小米之家(徐汇区徐家汇百联商业广场汽车旗舰店),购物服务;家电电子卖场;手机销售,060305,天平路街道上海市徐汇区华山路2038号1层G49-1F-1-001室2层G49-2F-1-001室,121.437379,31.196797,021-54112859,4.5,[],购物菜场,上海市,上海市,徐汇区
B00156PN1H,Apple授权专营店(中山公园龙之梦店),购物服务;家电电子卖场;手机销售,060305,长宁路1018号龙之梦城市生活中心1075号,121.416990,31.218605,021-62256160,4.3,[],购物菜场,上海市,上海市,长宁区
B0LRBZLTZP,尼康超级典范店御成phot旗舰店,购物服务;家电电子卖场;数码电子,060306,瑞金南路169号,121.468459,31.201225,021-54250634;15021932241,4.7,[],购物菜场,上海市,上海市,黄浦区
B0FFKQNZ3N,Apple授权专营店(港汇恒隆广场店),购物服务;家电电子卖场;手机销售|购物服务;家电电子卖场;数码电子|生活服务;维修站点;维修站点,060305|060306|071200,虹桥路1号6楼608A(徐家汇地铁站出口步行80米),121.437189,31.194592,021-54561271,4.4,[],购物菜场|生活服务,上海市,上海市,徐汇区
B0IA3MP6DW,Apple授权专营店(漕河泾印象城店),购物服务;家电电子卖场;手机销售,060305,古美路1520号1楼18b(虹梅路地铁站1号口旁),121.399942,31.161882,021-33632208,4.3,[],购物菜场,上海市,上海市,徐汇区
B0G1691SJH,Apple授权专营店(美罗城店),购物服务;家电电子卖场;手机销售,060305,肇嘉浜路1111号一层1-4室(徐家汇地铁站出入口旁),121.439960,31.193199,021-54198973,4.3,[],购物菜场,上海市,上海市,徐汇区
B0FFK78AI5,三菱电机智能制造科创中心,公司企业;公司;机械电子|购物服务;家电电子卖场;家电电子卖场,170204|060300,伊犁南路566号(伊犁路地铁站1号口步行320米),121.406053,31.197198,021-23223030,4.5,[],购物菜场|科技体验,上海市,上海市,长宁区
B0HK5CKK0T,方太集团FotileStyle全屋定制,购物服务;家电电子卖场;数码电子|购物服务;家居建材市场;厨卫市场,060306|060604,肇嘉浜路658号(肇嘉浜路地铁站2号口步行110米),121.449794,31.199716,021-64735058,4.4,[],购物菜场,上海市,上海市,徐汇区
B0H2JUVIG4,OPPO官方授权体验店(黄浦世茂广场店),购物服务;家电电子卖场;手机销售,060305,南京东路街道南京东路829号世茂广场西区L3-303商铺,121.475175,31.234332,15255326055,4.4,[],购物菜场,上海市,上海市,黄浦区
B0FFHX5FPZ,小米之家(黄浦区永安百货专区店),购物服务;家电电子卖场;手机销售,060305,南京东路街道南京东路635号5F迪信通,121.478266,31.234820,18018581992,4.3,[],购物菜场,上海市,上海市,黄浦区
B0LG79490C,OPPO官方授权服务体验中心(上海浦东新区世博天地店),购物服务;家电电子卖场;手机销售,060305,世博大道1467号世博天地1楼L118号,121.490649,31.185195,021-60380154,4.5,[],购物菜场,上海市,上海市,浦东新区
B0FFI2DER2,华为智能生活馆·上海月星环球港,购物服务;家电电子卖场;数码电子,060306,中山北路3300号月星环球港一层L1039-L1043,121.413089,31.234778,021-62377130;13917765210,4.4,[],购物菜场,上海市,上海市,普陀区
B0J057YBBM,新白鹿(世博源店),餐饮服务;冷饮店;冷饮店|购物服务;家电电子卖场;家电电子卖场,050700|060300,世博大道1368号2区L2层2L202B室,121.492416,31.185626,021-58819558,4.6,69.00,购物菜场,上海市,上海市,浦东新区
B0JK4ZQB2S,华为智能生活馆•上海TPY中心,购物服务;家电电子卖场;手机销售,060305,肇嘉浜路1117号1层,121.439144,31.193200,021-34197898,4.7,[],购物菜场,上海市,上海市,徐汇区
B0HGB7QITD,DJI大疆随心飞淮海路授权专区,购物服务;家电电子卖场;数码电子,060306,淮海东路99号1楼A1室(大世界地铁站6号口步行140米),121.480946,31.225344,18701890457,4.6,[],购物菜场,上海市,上海市,黄浦区
B0FFFRHO7X,Apple授权专营店(正大乐城店),购物服务;家电电子卖场;手机销售,060305,中山南二路699号正大乐城1层7-109,121.458180,31.186387,021-60191685,4.6,[],购物菜场,上海市,上海市,徐汇区
B0FFI92JRC,上海技嘉AORUS百脑汇旗舰店,购物服务;家电电子卖场;数码电子,060306,漕溪北路339号(徐家汇地铁站4号口旁),121.438268,31.190488,13524894494,4.3,[],购物菜场,上海市,上海市,徐汇区
B0HBBZ0EAJ,小米之家(黄浦区世茂广场专卖店),购物服务;家电电子卖场;手机销售|购物服务;家电电子卖场;数码电子,060305|060306,南京东路街道上海市黄浦区南京东路829号上海世茂广场西区L3301号小米之家,121.475026,31.234310,18616552641,4.4,[],购物菜场,上海市,上海市,黄浦区
B0HBXCPX8D,华为授权体验店(日月光中心),购物服务;家电电子卖场;手机销售,060305,徐家汇路618号日月光中心一层(打浦桥地铁站4号口旁),121.467542,31.206554,021-54526491;18217748878,4.6,[],购物菜场,上海市,上海市,黄浦区
B0LRXL3AQB,Sisyphus·西西弗斯相机商店,购物服务;家电电子卖场;数码电子,060306,新乐路与陕西南路交叉口西140米,121.456852,31.218947,,4.4,[],购物菜场,上海市,上海市,徐汇区
B0HABNO7CL,Apple授权专营店(徐汇日月光店),购物服务;家电电子卖场;手机销售|购物服务;家电电子卖场;数码电子,060305|060306,漕宝路33号徐汇日月光中心L1层L1-31-1,121.432033,31.168739,19117327716,4.4,[],购物菜场,上海市,上海市,徐汇区
B0FFL5EAAF,上海海尔智家001体验中心,购物服务;家电电子卖场;家电电子卖场,060300,真北路1208号(近梅川路),121.386584,31.240682,13917345426;17853113267,4.3,[],购物菜场,上海市,上海市,普陀区
B0IG7NLZP8,华为智能生活馆•上海世博源,购物服务;家电电子卖场;手机销售,060305,世博大道1368号3区B层023,121.492891,31.182615,021-50375986,4.6,[],购物菜场,上海市,上海市,浦东新区
B0IR2M1SY5,Apple授权专营店(闵行万象城店),购物服务;家电电子卖场;手机销售,060305,吴中路1799号万象城2楼L229室,121.370893,31.170970,021-54160801,4.3,[],购物菜场,上海市,上海市,闵行区
B0KDC5PU5C,小米之家(徐汇区环贸iapm汽车体验店),购物服务;家电电子卖场;数码电子|汽车服务;汽车服务相关;汽车服务相关,060306|010000,湖南路街道上海上海市徐汇区淮海中路999号环贸iapm商场LG2层203-205室,121.458443,31.216201,021-64260900,4.3,[],购物菜场,上海市,上海市,徐汇区
B0FFKYYSUD,Apple授权专营店(长宁金虹桥商场店),购物服务;家电电子卖场;手机销售,060305,茅台路179号1楼L129室,121.402456,31.209341,021-52832083,4.3,[],购物菜场,上海市,上海市,长宁区
B0H2H7JZK2,DJI大疆(上海兴业太古汇授权体验店),购物服务;家电电子卖场;数码电子,060306,石门一路288号兴业太古汇3层L390,121.463774,31.227892,021-62229530,4.6,[],购物菜场,上海市,上海市,静安区
B0HAU7UA40,小米之家(静安区CP静安专卖店),购物服务;家电电子卖场;数码电子,060306,静安寺街道上海市静安区愚园路68号LG01层105小米之家静安晶品专卖店,121.446433,31.225651,13166258037,4.6,[],购物菜场,上海市,上海市,静安区
B00155IFAI,中国移动通信集团上海有限公司,公司企业;公司;电信公司|生活服务;电讯营业厅;中国移动营业厅|购物服务;家电电子卖场;手机销售,170208|070603|060305,长寿路200号(江宁路地铁站4号口步行220米),121.441343,31.243841,,4.0,[],购物菜场,上海市,上海市,普陀区
B0K0ZLP816,OPPO官方授权服务体验中心(上海长宁区龙之梦店),购物服务;家电电子卖场;手机销售,060305,长宁路1018号龙之梦城市生活中心1层1055室(东北门附近),121.417348,31.219625,021-60380109,4.8,[],购物菜场,上海市,上海市,长宁区
B0IGAHNR37,荣耀官方授权服务中心(闵行莲花国际店),购物服务;家电电子卖场;手机销售|生活服务;维修站点;维修站点,060305|071200,梅陇镇沪闵路7866号莲花国际广场1楼F119,121.402690,31.134086,021-34126261;021-60381566,4.7,[],购物菜场|生活服务,上海市,上海市,闵行区
B0KDFU7QAA,华为授权体验店(徐汇万科中心),购物服务;家电电子卖场;手机销售,060305,沪闵路9191号徐汇万科中心B2-29a,121.430736,31.155904,021-59788808,4.6,[],购物菜场,上海市,上海市,徐汇区
B0HBX7R3X4,华为授权体验店(静安大悦城),购物服务;家电电子卖场;数码电子,060306,西藏北路198号静安大悦城北区1层N123号华为授权体验店近3号门,121.472357,31.243920,021-61301687,4.6,[],购物菜场,上海市,上海市,静安区
B0KRXZ7I4A,DJI大疆哈苏(上海恒隆广场概念店),购物服务;家电电子卖场;数码电子,060306,南京西路1266号恒隆广场4楼403A,121.453012,31.227615,021-62227307;13166417812,4.7,[],购物菜场,上海市,上海市,静安区
B0FFJXOK74,华为智能生活馆•上海漫游城,购物服务;家电电子卖场;数码电子,060306,闵虹路8号中庚漫游城1层OUT/L142号,121.397582,31.132070,021-34976739,4.6,[],购物菜场,上海市,上海市,闵行区
B0JBFNZODD,联想官方直营店(仲盛店),购物服务;家电电子卖场;数码电子,060306,莘庄镇都市路5001号仲盛世界商城2楼204联想,121.387147,31.107468,021-34200618,4.5,[],购物菜场,上海市,上海市,闵行区
B0J37COXA5,联想专卖店(凯德晶萃广场),购物服务;家电电子卖场;数码电子,060306,徐家汇陆268号凯德广场5楼519,121.477015,31.210278,13918828003,4.5,[],购物菜场,上海市,上海市,黄浦区
B0FFJBBVSF,华为授权体验店(美罗城),购物服务;家电电子卖场;数码电子,060306,肇嘉浜路1111号美罗城1层近B区门口1/14号华为授权体验店,121.438944,31.192465,021-33685876,4.6,[],购物菜场,上海市,上海市,徐汇区
B0FFJ2TZVA,荣耀授权专卖店(黄浦区浙江中路店),购物服务;家电电子卖场;手机销售,060305,浙江中路156号(福州路罗森店旁边),121.479577,31.233050,021-63353312;15921598088,4.6,[],购物菜场|科技体验,上海市,上海市,黄浦区
B0KUMZ4BLW,网鱼电竞(闵行爱琴海购物中心店),购物服务;家电电子卖场;手机销售|体育休闲服务;娱乐场所;网吧,060305|080308,爱琴海购物中心虹井路120弄6号楼3层321室,121.372736,31.175393,18200327621,4.5,20.00,购物菜场|体育休闲,上海市,上海市,闵行区
B0K0B5L241,华为智能生活馆•上海万象城,购物服务;家电电子卖场;数码电子|购物服务;家电电子卖场;手机销售,060306|060305,吴中路1599号上海万象城L2层201,121.369732,31.170391,13061839353;13361902050,4.5,[],购物菜场,上海市,上海市,闵行区
B0K3UALRK1,Apple授权专营店(上海荟聚中心店),购物服务;家电电子卖场;手机销售,060305,金钟路788号上海荟聚中心1F-01D06,121.357571,31.221691,021-52555337,4.4,[],购物菜场,上海市,上海市,长宁区
B0HGMX134O,华为智能生活馆•上海中山公园龙之梦,购物服务;家电电子卖场;手机销售,060305,长宁路1018号龙之梦购物中心一楼华为智能生活馆1038号,121.416902,31.219307,021-62150061,4.7,[],购物菜场,上海市,上海市,长宁区
B0K1KRO86T,vivo官方授权体验店(浦东世博源店),购物服务;家电电子卖场;手机销售,060305,上钢新村街道浦东世博大道1368号世博源4区B117-18号vivo,121.492857,31.180869,18019330616,4.4,[],购物菜场,上海市,上海市,浦东新区
B0KUUDU9AK,佳能官方旗舰店,购物服务;家电电子卖场;数码电子,060306,漕溪北路41号太平洋数码一期一楼101室(临街店),121.438843,31.192121,021-54566528;18221756541,4.6,[],购物菜场,上海市,上海市,徐汇区
B0GKUXM1E8,DJI大疆(上海iapm环贸授权体验店),购物服务;家电电子卖场;数码电子,060306,淮海中路999号iapm环贸广场商场LG1层116铺位2,121.457512,31.215380,021-64158059;13122034265,4.6,[],购物菜场,上海市,上海市,徐汇区
B0FFJD1AGT,华为授权体验店(中山公园来福士),购物服务;家电电子卖场;手机销售,060305,长宁路1123号来福士广场01层03号华为授权体验店,121.415543,31.217073,021-61200300,4.3,[],购物菜场,上海市,上海市,长宁区
B0I6YDP6N6,上海知音堂,购物服务;家电电子卖场;数码电子,060306,肇嘉浜路1065号飞雕国际大厦1104室,121.441290,31.194396,021-54233879,4.3,[],购物菜场,上海市,上海市,徐汇区
B0HGFB3JZO,华为授权体验店(凯德晶萃广场),购物服务;家电电子卖场;手机销售,060305,徐家汇路268号凯德晶萃广场1层01室(西南门入口),121.477017,31.209954,021-63337010,4.6,[],购物菜场,上海市,上海市,黄浦区
B0FFI2MRK9,华为智能生活馆•上海维璟印象城,购物服务;家电电子卖场;手机销售,060305,七莘路1507号维璟广场1楼011-012号,121.363893,31.130057,021-64885661,4.6,[],购物菜场,上海市,上海市,闵行区
B0HBX7RAWY,小米之家(静安区大悦城汽车体验店),购物服务;家电电子卖场;手机销售,060305,北站街道静安区西藏北路166号大悦城南座一层S101-21S101-22商铺,121.471959,31.242870,021-33685788,4.3,[],购物菜场,上海市,上海市,静安区
B0LG17559D,vivo官方授权体验店(静安大悦城店),购物服务;家电电子卖场;家电电子卖场,060300,北站街道西藏北路198号静安大悦城北座N201-N218vivo,121.472129,31.244161,18056205377,4.5,[],购物菜场,上海市,上海市,静安区
B0FFF65X1X,Apple授权专营店(闵行龙之梦店),购物服务;家电电子卖场;手机销售|购物服务;家电电子卖场;数码电子,060305|060306,沪闵路6088号凯德龙之梦购物中心01层18/19,121.378562,31.107498,021-52760000;021-53821101,4.1,[],购物菜场,上海市,上海市,闵行区
B0FFI8YF6E,联想官方直营店(长宁来福士店),购物服务;家电电子卖场;数码电子,060306,长宁路1139号来福士广场东区5层37号,121.415260,31.216931,021-52990723,4.5,[],购物菜场,上海市,上海市,长宁区
B0HRTB4NFJ,三星授权体验店(美罗城店),购物服务;家电电子卖场;手机销售,060305,肇嘉浜路1111号(徐家汇地铁站出入口旁),121.439142,31.192568,15001755899;15821769108,4.5,[],购物菜场,上海市,上海市,徐汇区
B00155FVRO,中国电信(斜土路店),购物服务;家电电子卖场;手机销售|生活服务;电讯营业厅;中国电信营业厅,060305|070601,斜土路760号,121.471826,31.202001,,4.6,[],购物菜场,上海市,上海市,黄浦区
B0LAL1QKZF,任天堂Switch授权体验店(上海人广来福士店),购物服务;家电电子卖场;数码电子,060306,西藏中路268号上海来福士广场F6层,121.476688,31.232195,13003129727,4.2,[],购物菜场,上海市,上海市,黄浦区
B0I09AKU65,DJI大疆(上海世博源授权体验店),购物服务;家电电子卖场;数码电子,060306,世博大道1368号世博源3区B层36铺位,121.492521,31.182593,021-58200893;13061761301,4.6,[],购物菜场,上海市,上海市,浦东新区
B0FFKWXM9C,华为授权体验店(徐汇正大乐城),购物服务;家电电子卖场;手机销售,060305,船厂路36号正大乐城1层5-102号华为授权体验店,121.457830,31.186478,021-33560602,4.5,[],购物菜场,上海市,上海市,徐汇区
B0FFFA0IY7,联想客户服务中心(百应漕溪路店),购物服务;家电电子卖场;数码电子|生活服务;维修站点;维修站点,060306|071200,轨道交通3号线漕溪路站漕溪路CX139-1号,121.438198,31.174363,021-54257481;021-54257482,4.4,[],购物菜场|生活服务,上海市,上海市,徐汇区
B0K12OCXTI,小米之家(普陀区上海环球港汽车体验店),购物服务;家电电子卖场;手机销售|汽车销售;汽车销售;汽车销售,060305|020000,长风新村街道上海上海市普陀区中山北路3300号环球港地下一层B1201-1203号,121.411955,31.231890,18856697636,4.3,[],购物菜场,上海市,上海市,普陀区
B0LRG7T45K,联想专卖店(上海市龙华会店),购物服务;家电电子卖场;数码电子,060306,龙华路2778号上海龙华会T2B2层(龙华地铁站5号口旁),121.453426,31.173849,18768050718,4.5,[],购物菜场,上海市,上海市,徐汇区
B0KG5M5TVY,华为授权体验店(港汇恒隆广场),购物服务;家电电子卖场;手机销售,060305,虹桥路1号港汇恒隆广场6层608华为授权体验店,121.437232,31.194365,18670446723,4.6,[],购物菜场,上海市,上海市,徐汇区
B0LDPAO3JG,索尼PlayStation5PS5专卖店,购物服务;家电电子卖场;数码电子,060306,东安路562号B103(龙华中路地铁站出入口步行70米),121.456580,31.183562,13127933730,4.2,[],购物菜场,上海市,上海市,徐汇区
B0GKN9ALGI,华为授权体验店(189弄购物中心),购物服务;家电电子卖场;手机销售,060305,长寿路189号1幢1层L111号,121.440772,31.241846,021-60477617,4.5,[],购物菜场,上海市,上海市,普陀区
B00155L3OR,中国电信(上海古北路店),购物服务;家电电子卖场;手机销售|公司企业;公司;电信公司|生活服务;电讯营业厅;电讯营业厅,060305|170208|070600,古北路700号,121.399318,31.204214,021-62082051;021-62787315,4.5,[],购物菜场,上海市,上海市,长宁区
B0IGNSZ2EN,荣耀官方授权服务中心(徐汇漕溪北路店)(暂停营业),购物服务;家电电子卖场;手机销售,060305,漕溪北路551号一层(徐家汇地铁站2号口步行100米),121.437510,31.188521,021-60380195;021-64328772,4.6,[],购物菜场,上海市,上海市,徐汇区
B0FFM3727R,Apple授权专营店(闵行百联南方店),购物服务;家电电子卖场;数码电子|购物服务;家电电子卖场;手机销售,060306|060305,沪闵路7388号南方购物中心1楼019A室,121.400940,31.131999,19117305360,4.2,[],购物菜场,上海市,上海市,闵行区
B0KA3SJF8M,vivo官方授权体验店(凯德晶萃店),购物服务;家电电子卖场;手机销售,060305,五里桥街道黄浦区徐家汇路268号LuOne凯德晶萃广场B1-18vivo体验店,121.476782,31.210505,13585559739,4.0,[],购物菜场,上海市,上海市,黄浦区
B0I1J9G9O8,OPPO官方授权体验店(浦东世博源中心店),购物服务;家电电子卖场;手机销售,060305,上钢新村街道世博大道1368号世博源中心5B10,121.493551,31.179611,17602188090,4.4,[],购物菜场,上海市,上海市,浦东新区
B0L1DCU7AT,苏宁易购古北店,购物服务;家电电子卖场;苏宁,060304,水城南路268号二楼(水城路地铁站2号口步行380米),121.393437,31.196625,021-60592394,4.2,[],购物菜场,上海市,上海市,长宁区
B0FFIQYSVW,华为授权体验店(徐汇绿地缤纷城),购物服务;家电电子卖场;手机销售,060305,东安路562号徐汇绿地缤纷城1层WE107号华为授权体验店近地铁7号,121.457075,31.184014,021-54893299,4.4,[],购物菜场,上海市,上海市,徐汇区
B0FFI2BCWD,Apple授权专营店(维璟广场店),购物服务;家电电子卖场;手机销售,060305,七莘路1507号1层01-029铺位,121.363722,31.130798,021-64885395,4.2,[],购物菜场,上海市,上海市,闵行区
B0LUTK5SDC,华为授权体验店(鑫耀光环),购物服务;家电电子卖场;手机销售,060305,漕宝路211号鑫耀·光环Live一层L1-01/02号商铺,121.414865,31.165883,15921941336,4.4,[],购物菜场,上海市,上海市,徐汇区
B0FFLOKB7J,OPPO官方授权服务体验中心(上海闵行区凯德龙之梦店),购物服务;家电电子卖场;手机销售,060305,沪闵路6088号凯德龙之梦1层44号铺(莘庄公交站附近),121.378005,31.107939,021-60385771,4.5,[],购物菜场,上海市,上海市,闵行区
B0FFJBBVTL,小米之家(徐汇区美罗城店),购物服务;家电电子卖场;手机销售|购物服务;家电电子卖场;数码电子,060305|060306,天平路街道上海上海市徐汇区肇嘉浜路1111号,121.439664,31.193025,021-33682077,4.2,[],购物菜场,上海市,上海市,徐汇区
B0K35H244O,vivo官方授权体验店(徐汇日月光店),购物服务;家电电子卖场;手机销售,060305,漕河泾街道上海市徐汇区漕宝路33号徐汇日月光中心L1-42.43号,121.431958,31.168914,13323763168,4.1,[],购物菜场,上海市,上海市,徐汇区
B0J2HSXC2O,华为授权体验店(龙华会),购物服务;家电电子卖场;手机销售,060305,龙华路2618号龙华会B2层B2S23+B2S24,121.453618,31.173750,021-54963898,4.5,[],购物菜场,上海市,上海市,徐汇区
B0FFHDAH4S,OPPO官方授权体验店(上海徐汇区百脑汇店),购物服务;家电电子卖场;手机销售,060305,徐家汇街道漕溪北路339号L1A02(徐家汇地铁站4号口旁),121.438358,31.190787,13774311850,4.4,[],购物菜场,上海市,上海市,徐汇区
B00155LVVG,丽音音响广场,购物服务;家电电子卖场;家电电子卖场|体育休闲服务;体育休闲服务场所;体育休闲服务场所,060300|080000,中山南路1820号1-2层,121.490628,31.202522,13764889058,4.4,[],购物菜场,上海市,上海市,黄浦区
B0FFGAS3P2,联想客户服务中心(百应碧秀路店),购物服务;家电电子卖场;数码电子|生活服务;维修站点;维修站点,060306|071200,碧秀路106号(沿街商铺),121.384573,31.113257,13816268363,4.2,[],购物菜场|生活服务,上海市,上海市,闵行区
B00155FD78,中国移动(吴中路营业厅),生活服务;电讯营业厅;中国移动营业厅|购物服务;家电电子卖场;手机销售,070603|060305,吴中路1100-4号,121.386259,31.177271,13916810085,4.6,[],购物菜场,上海市,上海市,闵行区
B0KK2790WS,华为授权体验店(世博天地),购物服务;家电电子卖场;手机销售,060305,世博大道1515号世博天地1层,121.490957,31.185199,18260097963,4.6,[],购物菜场,上海市,上海市,浦东新区
B00156EPNQ,中国移动通信,购物服务;家电电子卖场;手机销售|生活服务;生活服务场所;生活服务场所,060305|070000,斜土路1457号,121.460359,31.197785,13916310087,4.3,[],购物菜场,上海市,上海市,徐汇区
B0FFKJBN2N,京东之家(上海普陀店),购物服务;家电电子卖场;家电电子卖场,060300,武宁路101号一层101室1F-123号,121.423206,31.237796,13472724164,4.4,[],购物菜场,上海市,上海市,普陀区
B0JDARCNB6,DJI大疆(上海环球港授权体验店),购物服务;家电电子卖场;数码电子|购物服务;专卖店;专营店,060306|061200,中山北路3300号B1185商铺,121.412575,31.232447,021-52919259;15618458560,4.6,[],购物菜场,上海市,上海市,普陀区
B0GK16TM1W,DJI大疆丨哈苏(上海港汇恒隆概念店),购物服务;家电电子卖场;数码电子,060306,虹桥路1号港汇恒隆广场1层171、172号铺,121.437189,31.194544,021-64260598;13166357915,4.6,[],购物菜场,上海市,上海市,徐汇区
B0JKJ5HY4N,ASUS华硕电脑智汇家(来福士广场店),购物服务;家电电子卖场;数码电子,060306,西藏中路268号上海来福士广场L6层L6-06,121.476616,31.232369,17696855467,4.6,[],购物菜场,上海市,上海市,黄浦区
B0FFJ7X0V9,vivo官方授权体验店(普陀月星环球港店),购物服务;家电电子卖场;手机销售,060305,长风新村街道中山北路3300号环球港B2层B2006-B2007vivo,121.411773,31.231638,17717559875,4.2,[],购物菜场,上海市,上海市,普陀区
B0L22ZZIA9,联想直营店(上海市徐汇日月光直营店),购物服务;家电电子卖场;数码电子,060306,漕宝路33号徐汇日月光B栋一层L1-31-2,121.432154,31.168780,13935940358,4.4,[],购物菜场,上海市,上海市,徐汇区
B0HUGZPWTV,三星授权体验店(月星环球港店),购物服务;家电电子卖场;手机销售|餐饮服务;甜品店;甜品店,060305|050900,中山北路3300号B11156,121.412998,31.233537,13636308656;16601911890,4.5,[],购物菜场,上海市,上海市,普陀区
B0K3YRDFWR,OPPO官方授权体验店(静安大悦城),购物服务;家电电子卖场;手机销售,060305,西藏北路168号上海静安大悦城北座2层N203,121.472031,31.243847,13671558830,4.4,[],购物菜场,上海市,上海市,静安区
B0FFKTPCVU,华为智能生活馆•上海仲盛世界商城,购物服务;家电电子卖场;手机销售,060305,莘庄都市路5001号仲盛世界商城1F华为智能生活馆,121.385661,31.106960,021-64020301,4.6,[],购物菜场,上海市,上海市,闵行区
B0JA96GR96,vivo手机专卖店(外滩店),购物服务;家电电子卖场;手机销售,060305,南京东路步行街299号宏伊国际广场商场5层电梯口,121.484365,31.236960,17317377771;18321333342,4.6,[],购物菜场,上海市,上海市,黄浦区
B0K2OU86U9,华为授权体验店(宜家荟聚),购物服务;家电电子卖场;手机销售,060305,金钟路788号01C04A华为,121.357152,31.222852,15221888246,4.5,[],购物菜场,上海市,上海市,长宁区
B0FFI929W1,荣耀授权体验店(百脑汇店),购物服务;家电电子卖场;手机销售,060305,漕溪北路339号百脑汇二楼2C05荣耀体验店,121.438475,31.190936,13341832431,4.5,[],购物菜场,上海市,上海市,徐汇区
B00155FD7T,中国移动(莘庄营业厅),生活服务;电讯营业厅;中国移动营业厅|购物服务;家电电子卖场;手机销售,070603|060305,莘凌路261号,121.369439,31.114712,13818710085,4.2,[],购物菜场,上海市,上海市,闵行区
B0J6S1FVH6,小米之家(长宁区中山公园龙之梦店),购物服务;家电电子卖场;手机销售,060305,华阳路街道长宁路1018号中山公园龙之梦一楼黄中庭,121.416310,31.219560,021-62118832,4.2,[],购物菜场,上海市,上海市,长宁区
B0G26DN5MX,新尚数码广场(淮海东路店),购物服务;家电电子卖场;数码电子,060306,淮海东路99号(大世界地铁站6号口步行130米),121.481285,31.225496,,4.4,[],购物菜场,上海市,上海市,黄浦区
B0LDXC5YJI,太平洋数码广场(汇嘉大厦店),购物服务;家电电子卖场;数码电子,060306,肇嘉浜路1117号(近漕溪北路),121.438888,31.192095,021-54905900;15316789190,4.0,[],购物菜场,上海市,上海市,徐汇区
B0FFJDWCZA,华硕电脑智汇家(上海静安大悦城店),购物服务;家电电子卖场;数码电子|生活服务;维修站点;维修站点,060306|071200,西藏北路166号大悦城北楼2层,121.472043,31.244077,13391313723,4.4,[],购物菜场|生活服务,上海市,上海市,静安区
B0K617LTJB,索尼相机专卖店(上海总店),购物服务;家电电子卖场;数码电子,060306,南京东路409号上海置地广场F9层(南京东路地铁站4号口旁),121.482148,31.236177,17811903308,4.3,[],购物菜场,上海市,上海市,黄浦区
B0JRKH4BX7,荣耀手机专卖店(宏伊国际广场店),购物服务;家电电子卖场;手机销售,060305,南京东路299号(南京东路地铁站3号口)宏伊国际广场F5层,121.484286,31.237037,17721190073,4.6,[],购物菜场,上海市,上海市,黄浦区
B0H3SUKZ3J,Apple授权专营店(长风大悦城店),购物服务;家电电子卖场;数码电子|购物服务;家电电子卖场;手机销售,060306|060305,大渡河路196号一层L1-29(长风公园地铁站出入口旁),121.395503,31.223135,021-61676030,4.3,[],购物菜场,上海市,上海市,普陀区
B0I1NG1VMY,OPPO官方授权体验店(黄浦LUONE凯德晶萃广场店),购物服务;家电电子卖场;手机销售,060305,徐家汇路268号LU·ONE凯德晶萃广场B1层B1-17,121.476804,31.210486,17601323659,4.3,[],购物菜场,上海市,上海市,黄浦区
B0FFF6XKMF,Apple授权经销商(迪信通上海永安百货店),购物服务;家电电子卖场;数码电子|购物服务;家电电子卖场;手机销售,060306|060305,南京东路635号(人民广场地铁站14号口步行330米),121.478038,31.235106,4008168653,4.3,[],购物菜场,上海市,上海市,黄浦区
B0FFM87QUN,华为授权体验店(金虹桥国际中心),购物服务;家电电子卖场;手机销售|购物服务;家电电子卖场;数码电子,060305|060306,茅台路179号金虹桥商场1楼GU对过,121.402232,31.209252,021-52560599,4.4,[],购物菜场,上海市,上海市,长宁区
B0LR9HPGXB,中国移动(钦州北路营业厅),购物服务;家电电子卖场;手机销售|生活服务;电讯营业厅;中国移动营业厅|购物服务;文化用品店;文化用品店,060305|070603|060800,钦州北路387号,121.419990,31.180255,13564710086,4.5,[],购物菜场,上海市,上海市,徐汇区
B0FFFQ7TZF,三星授权体验店(世博源店),购物服务;家电电子卖场;手机销售,060305,世博大道1368号世博源商场5区B层09,121.493536,31.179729,13621628968;18539971468,4.5,[],购物菜场,上海市,上海市,浦东新区
B0FFK4656L,华为授权体验店(889广场),购物服务;家电电子卖场;手机销售,060305,万航渡路889号悦达889广场1楼20A华为授权体验店,121.428994,31.228824,021-52728891,4.5,[],购物菜场,上海市,上海市,静安区
B0LRZ538EL,vivo官方授权体验店(长宁南丰城店),购物服务;家电电子卖场;家电电子卖场,060300,天山路街道遵义路100号南丰城1-LM05F商铺vivo体验店,121.407917,31.206945,13075599927,4.2,[],购物菜场,上海市,上海市,长宁区
B0JALS7V5A,ASUS华硕电脑数码配件(九江路售后店),购物服务;家电电子卖场;手机销售,060305,九江路288号宏伊国际广场5楼,121.484560,31.236716,4001883251,4.6,[],购物菜场,上海市,上海市,黄浦区
B0JKDZ1S21,OPPO官方授权服务体验中心(上海徐汇区上海电影广场店),购物服务;家电电子卖场;手机销售,060305,漕溪北路595号上海电影集团办公楼A座6楼6007室,121.438366,31.186586,021-60385792,4.4,[],购物菜场,上海市,上海市,徐汇区
B0J0CUCYN4,华为授权体验店(博荟广场),购物服务;家电电子卖场;手机销售,060305,中山南一路788号,121.480516,31.196698,17340503117,4.4,[],购物菜场,上海市,上海市,黄浦区
B0G1691KXV,Apple授权专营店(中庚漫游城店),购物服务;家电电子卖场;手机销售,060305,闽虹路166号一层In-L104,121.397393,31.131398,021-34505026,4.2,[],购物菜场,上海市,上海市,闵行区
B0I6YARILT,HASSELBLAD哈苏相机(上海新天地旗舰店),购物服务;家电电子卖场;数码电子,060306,马当路119号DJI大疆店二楼203-204,121.474343,31.220708,021-53882588,4.6,[],购物菜场,上海市,上海市,黄浦区
B0FFFGWQH5,中国电信(肇嘉浜路专营店),购物服务;家电电子卖场;手机销售|生活服务;电讯营业厅;中国电信营业厅,060305|070601,肇嘉浜路549号(平华大厦内),121.456519,31.201275,021-64180054,4.5,[],购物菜场,上海市,上海市,徐汇区
B0JKYUEX4M,小米之家(黄浦区来福士广场专卖店),购物服务;家电电子卖场;手机销售,060305,南京东路街道西藏中路268号5F06铺小米,121.476689,31.232283,15800929664,4.2,[],购物菜场,上海市,上海市,黄浦区
B0I1LYFZ0W,惠普官方体验店(上海万象城店),购物服务;家电电子卖场;数码电子,060306,吴中路1599号万象城五楼L524a惠普店,121.368835,31.170230,13341768173,4.5,[],购物菜场,上海市,上海市,闵行区
B0H0D4B04B,格力电器(虹艺吴中路店),购物服务;家电电子卖场;家电电子卖场|生活服务;维修站点;维修站点,060300|071200,吴中路1268号,121.378189,31.175868,17681398110,4.3,[],购物菜场|生活服务,上海市,上海市,闵行区
B0FFHI50F4,任天堂switch专卖店,购物服务;家电电子卖场;数码电子,060306,漕溪北路339号百脑汇3楼3B03D(徐家汇地铁站4号口旁),121.438097,31.190679,13564632322,4.1,[],购物菜场,上海市,上海市,徐汇区
B0FFJKIXY3,小米之家(黄浦区南京西路新世界专区店),购物服务;家电电子卖场;手机销售,060305,南京东路街道上海市黄浦区南京西路2-68号新世界城七楼小米,121.473753,31.235400,15235777587,4.4,[],购物菜场,上海市,上海市,黄浦区
B0HD35QM9B,华为授权体验店(漕河泾印象城),购物服务;家电电子卖场;手机销售,060305,古美路1520号18幢漕河泾印象城L1-16华为授权体验店,121.400564,31.161998,021-34160089,4.1,[],购物菜场,上海市,上海市,徐汇区
B0K02R5U35,荣耀授权体验店(CP静安店),购物服务;家电电子卖场;手机销售,060305,愚园路8号上海CP静安购物中心LG1-10&09A,121.446584,31.225630,13671855505,4.2,[],购物菜场,上海市,上海市,静安区
B0JK2LW9P5,DJI大疆(上海万象城授权体验店),购物服务;家电电子卖场;数码电子,060306,吴中路1599号上海万象城商场5层L520a铺位,121.368791,31.170105,021-54331657,4.6,[],购物菜场,上海市,上海市,闵行区
B0FFGFBC4I,绿地数码,购物服务;家电电子卖场;数码电子|生活服务;生活服务场所;生活服务场所,060306|070000,宁夏路235号1层(曹杨路近宁夏路),121.420181,31.234663,,4.1,[],购物菜场,上海市,上海市,普陀区
B0FFI8Z35Q,中国移动,生活服务;电讯营业厅;中国移动营业厅|购物服务;家电电子卖场;手机销售,070603|060305,康健路11号1室(漕宝路地铁站5号口步行330米),121.433052,31.165641,18321627223;18930768096,4.4,[],购物菜场,上海市,上海市,徐汇区
B0FFJN6GXR,ALIENWARE外星人(万象城总店),购物服务;家电电子卖场;数码电子,060306,吴中路1599号万象城商场5楼505,121.369506,31.170313,15214320769,4.6,[],购物菜场,上海市,上海市,闵行区
B0LD0SZCE1,小米之家(长宁区King88广场专卖店),购物服务;家电电子卖场;手机销售,060305,华阳路街道上海上海市长宁区长宁路88号一层L1-21室,121.427206,31.228696,15800686733,4.4,[],购物菜场,上海市,上海市,长宁区
B0FFH9SV8J,vivo官方授权体验店(徐汇田林街道店),购物服务;家电电子卖场;手机销售,060305,田林街道田林路103号,121.417191,31.170212,18001773021,4.0,[],购物菜场,上海市,上海市,徐汇区
B0LURA2V6V,荣耀授权体验店(鑫耀·光环Live店),购物服务;家电电子卖场;手机销售,060305,叠彩路198号负一楼S4-B1-07荣耀体验店,121.415690,31.167468,13052373037,4.4,[],购物菜场,上海市,上海市,徐汇区
B0FFI8XU99,OPPO官方授权体验店(闵行维璟印象城店),购物服务;家电电子卖场;手机销售,060305,七宝镇七莘路1507号莘庄维璟印象城L1-036,121.363924,31.130444,13796196105,4.0,[],购物菜场,上海市,上海市,闵行区
B0LRMDY0SE,华硕智汇家(上海月星环球港店),购物服务;家电电子卖场;数码电子,060306,中山北路3300号上海月星环球港B1层,121.412928,31.233975,021-60193586;13816881036,4.9,[],购物菜场,上海市,上海市,普陀区
B0FFG94WR0,中国移动(祁连山南路营业厅),购物服务;家电电子卖场;手机销售|生活服务;电讯营业厅;中国移动营业厅,060305|070603,金沙江路2308号(祁连山南路地铁站3号口步行150米),121.366790,31.238145,18217210086,4.4,[],购物菜场,上海市,上海市,普陀区
B0J3VH7L0O,vivo官方授权体验店(长宁西郊百联店),购物服务;家电电子卖场;手机销售,060305,仙霞新村街道长宁区仙霞西路88号西郊百联一楼vivo体验店,121.370929,31.208859,13453025603,4.4,[],购物菜场,上海市,上海市,长宁区
B0FFJOPO2U,华为授权体验店(莲花国际),购物服务;家电电子卖场;手机销售,060305,沪闵路7866弄3层F328商铺(莲花国际广场内),121.402422,31.134066,19370973187,4.4,[],购物菜场,上海市,上海市,闵行区
B0JUBH0XY5,vivo官方授权体验店(中庚漫游城店),购物服务;家电电子卖场;手机销售,060305,梅陇镇闵虹路8号中庚漫游城1楼L105号vivo体验店,121.397663,31.131373,13585696688,4.0,[],购物菜场,上海市,上海市,闵行区
B0K6LHJKJP,苏宁易购(莘庄仲盛店),购物服务;家电电子卖场;苏宁,060304,都市路5001号3楼54A(莘庄地铁站南1口步行260米),121.387535,31.107256,021-60592382,4.6,[],购物菜场,上海市,上海市,闵行区
B0FFGDQVNN,ALIENWARE外星人官方旗舰总店及售后维修站(上海人民广场来福士店),购物服务;家电电子卖场;数码电子,060306,西藏中路268号来福士广场5楼504室,121.476739,31.231945,021-63331983;15221493039,4.7,[],购物菜场,上海市,上海市,黄浦区
B0FFK9K1GS,小米之家(闵行区莲花国际广场专卖店),购物服务;家电电子卖场;手机销售|购物服务;家电电子卖场;数码电子,060305|060306,梅陇镇沪闵路7866号莲花国际广场F3-2,121.402595,31.134391,021-33282569,4.3,[],购物菜场,上海市,上海市,闵行区
B0FFJ1FG6P,小米之家(浦东新区世博源店),购物服务;家电电子卖场;手机销售,060305,上钢新村街道上海上海市浦东新区世博大道1368号世博源5区B层B01号,121.493315,31.180679,13764836603,4.1,[],购物菜场,上海市,上海市,浦东新区
B0J32LBIJN,DJI大疆(上海西郊百联授权体验店),购物服务;家电电子卖场;手机销售,060305,仙霞西路88号百联西郊购物中心1层G05-01F01-01-0037铺位,121.369846,31.208713,021-52555736,4.6,[],购物菜场,上海市,上海市,长宁区
B0LKBSSHXL,DJI大疆 | 哈苏(上海启诚),购物服务;家电电子卖场;家电电子卖场,060300,鲁班路300号星光摄影器材城A区2楼233号,121.474483,31.203279,021-63022733;13564545555;13718768637,4.1,[],购物菜场,上海市,上海市,黄浦区
B0FFK091RW,FUJIFILM富士相机专卖店,购物服务;家电电子卖场;数码电子|购物服务;专卖店;摄影器材店,060306|061212,肇嘉浜路1111号美罗城2F层(徐家汇地铁站出入口旁),121.439221,31.192685,15721574352,4.2,[],购物菜场,上海市,上海市,徐汇区
B0H3K5Y101,OPPO官方授权体验店(闵行吴中路爱琴海购物中心店),购物服务;家电电子卖场;手机销售,060305,",虹桥镇吴中路1588号爱琴海购物中心F103b",121.373679,31.175278,15921219804,4.1,[],购物菜场,上海市,上海市,闵行区
B0J1PL3YSG,华为授权体验店(我格广场),购物服务;家电电子卖场;数码电子|购物服务;家电电子卖场;手机销售,060306|060305,武宁路99号我格广场1F-108号,121.423191,31.238105,021-52905227,4.5,[],购物菜场,上海市,上海市,普陀区
B0FFLBJER7,中国移动(浙江中路店),购物服务;家电电子卖场;手机销售,060305,南京东路635号5层(人民广场地铁站19号口步行450米),121.478075,31.235288,18018581992,4.5,[],购物菜场,上海市,上海市,黄浦区
B0L6K1PYIG,DJI大疆(上海长宁来福士授权体验店),购物服务;家电电子卖场;数码电子,060306,长宁路1123号上海长宁来福士广场01层09/10号铺位,121.414980,31.216203,18069139929,4.6,[],购物菜场,上海市,上海市,长宁区
B0J6GZFZU4,华硕智汇家上海凯德晶萃店,购物服务;家电电子卖场;数码电子,060306,徐家汇路268号凯德晶萃广场5层05-07铺,121.476656,31.210174,13122993592,4.5,[],购物菜场,上海市,上海市,黄浦区
B0HK27XPON,荣耀授权体验店(打浦桥日月光中心店),购物服务;家电电子卖场;手机销售,060305,徐家汇路618号荣耀体验店,121.467801,31.206169,19121131318,4.3,[],购物菜场,上海市,上海市,黄浦区
B0FFFFF8YP,星光摄影器材城(正门),购物服务;家电电子卖场;数码电子,060306,星光摄影器材城,121.474634,31.203058,,4.4,[],购物菜场,上海市,上海市,黄浦区
B0KKLCBPLW,小米之家(浦东新区世博天地汽车体验店专卖店),购物服务;家电电子卖场;数码电子,060306,上钢新村街道上海上海市浦东新区世博大道1467号世博天地L114-L115,121.490885,31.185138,15800423120,4.3,[],购物菜场,上海市,上海市,浦东新区
B0L02HN4VK,DJI大疆授权体验专区(百脑汇店),购物服务;家电电子卖场;数码电子,060306,上海市徐汇区漕溪北路339号一楼1B04B,121.438482,31.190636,18616898910,4.3,[],购物菜场,上海市,上海市,徐汇区
B0KUF99O75,苏宁易购(徐汇万科广场店),购物服务;家电电子卖场;苏宁,060304,沪闵路9191号徐汇万科广场B1层-12,121.432442,31.157984,021-60592347,4.2,[],购物菜场,上海市,上海市,徐汇区
B0J2PS704L,OPPO官方授权体验店(徐汇区日月光中心店),购物服务;家电电子卖场;手机销售,060305,虹梅路街道漕宝路33号日月光中心B座L1-45-46,121.431900,31.168924,13621666091,4.3,[],购物菜场,上海市,上海市,徐汇区
B0KAGHZDC0,尼康官方典范店Nikon,购物服务;家电电子卖场;数码电子,060306,上海城区肇嘉浜路1111号B段2层2-13B单元,121.439649,31.192944,021-52271197;18221958205,4.5,[],购物菜场,上海市,上海市,徐汇区
B0I6YRVUDW,联想体验店(漕河泾印象城店),购物服务;家电电子卖场;数码电子,060306,古美路1520号18幢地下一层B1-39号联想体验店,121.399782,31.161899,15660023533,4.4,[],购物菜场,上海市,上海市,徐汇区
B0HKALQ6PE,Apple授权专营店(华泾龙湖店),购物服务;家电电子卖场;手机销售,060305,华泾路459号华泾龙湖天街1层03,121.455640,31.119423,19121183767,4.2,[],购物菜场,上海市,上海市,徐汇区
B0FFGY7KE9,戴尔微星微软授权服务中心(明申中心大厦店),购物服务;家电电子卖场;数码电子,060306,凯旋路3131号明申中心大厦28层2808,121.432656,31.181669,15821484924,4.4,[],购物菜场,上海市,上海市,徐汇区
B0LRPSQK42,vivo官方授权体验店(长宁来福士店),购物服务;家电电子卖场;手机销售,060305,周家桥街道长宁路1133号长宁来福士广场东区B1-13A,121.415201,31.215800,13564097182,4.2,[],购物菜场,上海市,上海市,长宁区
B0FFJBF39Q,华为授权体验店(百盛优客城市广场),购物服务;家电电子卖场;数码电子,060306,天山路789号百盛优客城市广场1楼华为,121.403148,31.210790,021-52653275,4.4,[],购物菜场,上海市,上海市,长宁区
B0KU7REL28,vivo官方授权体验店(爱琴海购物中心店),购物服务;家电电子卖场;手机销售,060305,虹桥镇吴中路1588号爱琴海购物中心室内1楼F133a号vivo体验店,121.373455,31.175033,13918441846,4.1,[],购物菜场,上海市,上海市,闵行区
B0LA6UCJ52,DJI大疆(上海荟聚授权体验店),购物服务;家电电子卖场;数码电子,060306,金钟路788号上海荟聚中心L1层01B02铺位,121.356695,31.221909,13072151276,4.5,[],购物菜场,上海市,上海市,长宁区
B0FFG3339P,爱琴海购物中心,购物服务;商场;普通商场|购物服务;超级市场;超市|生活服务;美容美发店;美容美发店,060102|060400|071100,吴中路1588号(龙柏新村地铁站3号口步行330米),121.373308,31.174863,021-60906008,4.7,[],购物菜场,上海市,上海市,闵行区
B0FFFRG7JJ,百盛(仲盛世界商城店),购物服务;商场;购物中心|购物服务;超级市场;超市,060101|060400,都市路5001号上海莘庄百盛(莘庄地铁站南1口步行420米),121.387075,31.107099,021-34633388,4.4,[],购物菜场,上海市,上海市,闵行区
B0FFIPZ46K,沃尔玛(上海田林店),购物服务;超级市场;沃尔玛|公司企业;公司;公司,060402|170200,桂林路402号(桂林公园地铁站6号口步行310米),121.417004,31.171048,021-64758148,4.6,[],购物菜场,上海市,上海市,徐汇区
B0015706MX,大润发(春申店),购物服务;超级市场;超市,060400,春申路2801号,121.408232,31.107819,021-54377588,4.7,[],购物菜场,上海市,上海市,闵行区
B00155MS15,大润发(三林店),购物服务;超级市场;超市,060400,长清路1200弄1号,121.490827,31.149910,021-20232666,4.7,[],购物菜场,上海市,上海市,浦东新区
B00150B11C,麦德龙(上海闵行商场),购物服务;超级市场;麦德龙,060406,顾戴路80号,121.407472,31.147765,021-64808888,4.5,[],购物菜场,上海市,上海市,闵行区
B00155AOGK,麦德龙(普陀店),购物服务;超级市场;麦德龙,060406,真北路1425号,121.385210,31.243047,021-62658888;13818339229;4001609001,4.6,[],购物菜场,上海市,上海市,普陀区
B0G0VXOXWX,KKV(上海静安大悦城主力店),购物服务;超级市场;超市,060400,西藏北路166号上海静安大悦城南座L2层S203,121.472462,31.243124,17317260220,4.5,[],购物菜场,上海市,上海市,静安区
B0K3XZ4PVD,APIO爱彼悠(金虹桥商业广场店),购物服务;超级市场;超市,060400,茅台路179号金光绿庭广LG2层(地铁2号线娄山关路站),121.401853,31.209392,021-62752405,4.7,[],购物菜场,上海市,上海市,长宁区
B0FFKR7CCN,ALDI奥乐齐(艺海大厦店),购物服务;超级市场;超市,060400,江宁路428号1楼,121.453124,31.235221,4008201973,4.6,[],购物菜场,上海市,上海市,静安区
B0G0DY5IUY,盒马鲜生(南六广场店),购物服务;超级市场;超市,060400,西藏南路686号南六广场B1层,121.483275,31.217125,9510217,4.5,[],购物菜场,上海市,上海市,黄浦区
B0L3ARVUJ3,ALDI奥乐齐超市(龙湖上海华泾天街店),购物服务;超级市场;超市,060400,龙吴路459号龙湖上海华泾天街B1层,121.455484,31.119189,,4.1,[],购物菜场,上海市,上海市,徐汇区
B0J25HSC0Z,大润发(大渡河店),购物服务;超级市场;超市,060400,梅岭北路1098弄1号地下二层LG227LG228LG230,121.396275,31.243825,021-61671738,4.4,[],购物菜场,上海市,上海市,普陀区
B0FFJ0DDIZ,盒马鲜生(南洋1931店),购物服务;超级市场;超市,060400,裕德路165号南洋1931B1层,121.433993,31.185640,9510217,4.6,[],购物菜场,上海市,上海市,徐汇区
B0FFHFPBGI,盒马鲜生(虹桥店),购物服务;综合市场;农副产品市场|购物服务;综合市场;水产海鲜市场|购物服务;超级市场;超市,060703|060706|060400,虹桥镇金汇路538号金汇四季广场B1层,121.373569,31.182026,021-61918778;4008288477,4.5,[],购物菜场,上海市,上海市,闵行区
B0FFLEEVDE,ALDI奥乐齐(徐汇沪港国际大厦店),购物服务;超级市场;超市,060400,斜土路2364号宛轻大厦一楼(沪港国际旁边),121.447940,31.191775,4008201973,4.6,[],购物菜场,上海市,上海市,徐汇区
B0JU4XCSQS,ALDI奥乐齐(静安万航渡店),购物服务;超级市场;超市,060400,万航渡路838号静安绿地柒彩里F1层,121.429612,31.228135,4008201973,4.5,[],购物菜场,上海市,上海市,静安区
B0LUH1FN29,盒马鲜生(中庚漫游城店),购物服务;超级市场;超市,060400,闵虹路8号中庚漫游城,121.397019,31.130287,9510217,4.4,[],购物菜场,上海市,上海市,闵行区
B0G0XPX6ZM,盒马鲜生(世博源店),购物服务;专卖店;礼品饰品店|购物服务;超级市场;超市,061209|060400,世博大道1368号世博源G层,121.492923,31.179727,9510217,4.6,[],购物菜场,上海市,上海市,浦东新区
B0LULOAYG3,品上生活-清美大超(百联西郊购物中心店),购物服务;超级市场;超市,060400,仙霞西路88号百联西郊购物中心B2层,121.370238,31.209187,,4.5,[],购物菜场,上海市,上海市,长宁区
B0K3XS5D9L,ALDI奥乐齐(闵行万源坊店),购物服务;超级市场;超市,060400,万源路550号万源坊F1层(顾戴路地铁站3号口步行410米),121.395889,31.142125,,4.4,[],购物菜场,上海市,上海市,闵行区
B0J22CXFO0,ALDI奥乐齐(徐汇龙华会店),购物服务;超级市场;超市,060400,龙华路2618号龙华会B2楼S09A,121.452771,31.172223,4008201973,4.6,76.00,购物菜场,上海市,上海市,徐汇区
B0FFJLZF1Q,盒马鲜生(189弄购物中心店),购物服务;综合市场;农副产品市场|购物服务;超级市场;超市,060703|060400,长寿路189号189弄购物中心LG2层B201,121.440700,31.241916,9510217,4.4,[],购物菜场,上海市,上海市,普陀区
B0K0OYAON8,ALDI奥乐齐(缤谷广场店),购物服务;超级市场;超市,060400,天山路341号缤谷广场东座F2(威宁路地铁站2号口旁),121.387674,31.214357,,4.4,[],购物菜场,上海市,上海市,长宁区
B00155H8L9,屈臣氏(新世界城),购物服务;超级市场;屈臣氏,060411,南京西路新世界城B1F-11商铺,121.473226,31.234415,021-63353170;4008301310,4.4,[],购物菜场,上海市,上海市,黄浦区
B0H1C610HZ,APIO艾彼悠超市(晶耀前滩店),购物服务;超级市场;超市,060400,耀体路308号晶耀前滩北区B1层,121.476831,31.152911,021-50588156,4.6,[],购物菜场,上海市,上海市,浦东新区
B0KUD98A8W,奥乐齐(仲盛世界商城),购物服务;超级市场;超市,060400,都市路5001号仲盛商城2楼258A&259号,121.387155,31.107933,,4.5,[],购物菜场,上海市,上海市,闵行区
B0JKLK02CP,ALDI奥乐齐(黄浦凯德晶萃店),购物服务;超级市场;超市,060400,徐家汇路268号LUONE凯德晶萃广场负一楼,121.477843,31.210577,4008201973,4.5,[],购物菜场,上海市,上海市,黄浦区
B0L1PR6TSR,品上生活-清美大超(百联南方购物中心店),购物服务;超级市场;超市,060400,沪闵路7388号1区L2,121.400425,31.131566,021-62965956;18017329669,4.5,[],购物菜场,上海市,上海市,闵行区
B0J2DAE45O,盒马鲜生(凯德闵行商业中心店),购物服务;超级市场;超市,060400,凯德龙之梦(莘庄店)B1层,121.377822,31.107666,13122826257,4.5,[],购物菜场,上海市,上海市,闵行区
B00155EWHR,世纪联华(鲁班店),购物服务;超级市场;超市,060400,斜土路645号(鲁班路地铁站3号口步行450米),121.473655,31.203129,021-63032197;021-63047252,4.6,[],购物菜场,上海市,上海市,黄浦区
B0K2C956EX,7FRESH七鲜京东自营超市(长宁荟聚店),购物服务;超级市场;超市,060400,金钟路788号上海荟聚B2层,121.356695,31.221909,021-80566790,4.6,[],购物菜场,上海市,上海市,长宁区
B0IUS59XAB,盒马生鲜奥莱店(康健店),购物服务;超级市场;超市,060400,康健路18号(漕宝路地铁站5号口步行430米),121.431871,31.165455,13701992411,4.5,[],购物菜场,上海市,上海市,徐汇区
B0FFFWUB5G,Ole精品超市(新世界新丸中心店),购物服务;超级市场;华润,060403,南京东路228号新世界新丸中心B2楼,121.485967,31.238310,021-80162068,4.5,[],购物菜场,上海市,上海市,黄浦区
B0FFI1XVQ5,联华超市(浙江中路店),购物服务;超级市场;上海华联,060405,浙江中路391号,121.477893,31.235972,021-33040714,4.5,[],购物菜场,上海市,上海市,黄浦区
B0FFF5TOYD,世纪联华(黄浦新苑店),购物服务;专卖店;烟酒专卖店|购物服务;超级市场;超市,061210|060400,西藏南路1130号(陆家浜路地铁站3号口步行110米),121.486302,31.210517,021-63161400;021-63161731,4.4,[],购物菜场,上海市,上海市,黄浦区
B0HB9AD0XO,ALDI奥乐齐(闵行红松店),购物服务;综合市场;农副产品市场|购物服务;超级市场;超市,060703|060400,红松路227号,121.370044,31.181622,4008201973,4.6,84.00,购物菜场,上海市,上海市,闵行区
B0FFJEQ2P9,Ole精品超市(港汇恒隆广场店),购物服务;超级市场;超市,060400,虹桥路1号港汇广场B1层(徐家汇地铁站出口旁),121.436911,31.195123,021-61270702,4.4,[],购物菜场,上海市,上海市,徐汇区
B0FFINNK9Y,华润万家(上海万象城店),购物服务;超级市场;超市,060400,吴中路1599号上海万象城LG层LG120,121.370476,31.170883,021-60873931,4.3,[],购物菜场,上海市,上海市,闵行区
B0FFKUNAV2,盒马鲜生(我格广场店),购物服务;综合市场;水产海鲜市场|购物服务;超级市场;超市,060706|060400,武宁路101号我格广场F2层,121.424031,31.237807,13167020470,4.3,[],购物菜场,上海市,上海市,普陀区
B0JUAL21ND,ALDI奥乐齐超市(长宁龙之梦店),购物服务;超级市场;超市,060400,长宁路1018号龙之梦城市生活中心长宁店B2层,121.417332,31.219577,,4.5,[],购物菜场,上海市,上海市,长宁区
B0I0Y7ZDE4,盒马鲜生(莘庄维璟印象城店),购物服务;超级市场;超市,060400,七莘路1507号莘庄维璟印象城B1层(七莘路地铁站出入口旁),121.362960,31.130915,,4.5,[],购物菜场,上海市,上海市,闵行区
B0HKB5W56B,盒马鲜生(金沙·和美广场店),购物服务;综合市场;水产海鲜市场|购物服务;超级市场;超市,060706|060400,金沙江路2239弄1号金沙·和美广场B1层,121.366359,31.237094,9510217,4.5,[],购物菜场,上海市,上海市,普陀区
B0G29RQH7M,好特卖HotMaxx(PLAYNE新邻店),购物服务;超级市场;超市,060400,陆家浜路1100号新邻生活站B2-11-19,121.487389,31.211700,13167275618,4.6,[],购物菜场,上海市,上海市,黄浦区
B0JBAZB86T,奥乐齐超市(徐汇日月光中心店),购物服务;超级市场;超市,060400,漕宝路33号徐汇日月光中心D座B2层(七分甜旁边),121.433524,31.168994,4008201973,4.4,[],购物菜场,上海市,上海市,徐汇区
B0KG6SXVJ8,ALDI奥乐齐超市(漫圈邻里店),购物服务;超级市场;超市,060400,西藏南路1699弄漫圈邻里4号楼1层,121.490914,31.201282,4008201973,4.4,[],购物菜场,上海市,上海市,黄浦区
B0KUG9R9N0,ALDI奥乐齐超市(徐汇万科广场),购物服务;超级市场;超市,060400,定安路55号徐汇万科中心T3办公楼B1-11,121.431659,31.157894,4008201973,4.4,[],购物菜场,上海市,上海市,徐汇区
B0L6HHFU4E,ALDI奥乐齐超市(徐汇永新坊店),购物服务;超级市场;超市,060400,天钥桥路131号永新坊天钥桥路店B1层,121.443333,31.192170,,4.4,[],购物菜场,上海市,上海市,徐汇区
B0KAMA3IX8,盒马鲜生(博荟广场ONE EAST店),购物服务;超级市场;超市,060400,中山南一路788号博荟广场ONE EAST1层,121.480108,31.196902,,4.4,[],购物菜场,上海市,上海市,黄浦区
B0K6YA6HFM,超盒算NB(上海静安余姚路店),购物服务;超级市场;超市|生活服务;生活服务场所;生活服务场所,060400|070000,余姚路292号(昌平路地铁站5号口步行460米),121.438186,31.235630,9523988,4.3,[],购物菜场,上海市,上海市,静安区
B0FFIBJRA9,citysuper超市Royce巧克力柜台(兴业太古汇香港兴业中心2座店),购物服务;超级市场;超市,060400,石门一路288号兴业太古汇LG207,121.463460,31.228420,021-60749508,4.3,[],购物菜场,上海市,上海市,静安区
B0GK3CT3DJ,盒马鲜生(金谷里),购物服务;超级市场;超市,060400,桂平路188号金地喜悦荟地下一层101室,121.411577,31.151488,,4.4,[],购物菜场,上海市,上海市,徐汇区
B0KBYA9GRA,奥乐齐超市(光启城店),购物服务;超级市场;超市,060400,"宜山路455号光启城B1层(宜山路7号口右拐走20m,光启城北门扶梯下负一楼)",121.428390,31.184219,4008201973,4.4,[],购物菜场,上海市,上海市,徐汇区
B00155AUJV,农工商超市(118广场店),购物服务;超级市场;超市,060400,金沙江路1685号农工商118广场内(近真北路),121.377285,31.231648,021-52101605;021-52101699,4.5,[],购物菜场,上海市,上海市,普陀区
B0FFHNTVPM,city super LOG-ON(环贸iapm),购物服务;超级市场;超市,060400,淮海中路999号环贸iapm商场LG1层LG1-111,121.457250,31.215692,021-54661588;021-54674384,4.3,[],购物菜场,上海市,上海市,徐汇区
B0HAX4LPJB,万锦生活广场,购物服务;超级市场;超市,060400,罗锦路98号,121.419744,31.123588,,4.4,[],购物菜场,上海市,上海市,闵行区
B0HK9H449S,ALDI奥乐齐(徐汇罗秀创邑店),购物服务;超级市场;超市,060400,罗秀路897号创邑MIXB1楼01,121.432340,31.131063,,4.4,[],购物菜场,上海市,上海市,徐汇区
B0K6KS1IZ4,上海超盒算NB(徐汇田林店),购物服务;超级市场;超市,060400,钦州北路188号,121.420831,31.181012,,4.3,[],购物菜场,上海市,上海市,徐汇区
B0FFFSDNFM,尚优玛特(兴南路店),购物服务;超级市场;超市,060400,"梅陇镇兴南路399号一层,二层",121.433368,31.123904,021-54716253;021-54717620,4.2,[],购物菜场,上海市,上海市,闵行区
B0KALBGUJG,上海超盒算NB香港名都店,购物服务;超级市场;超市,060400,复兴东路733号M2香港名都B1层,121.489724,31.223317,,4.4,[],购物菜场,上海市,上海市,黄浦区
B0I1RBY839,盒马生鲜奥莱(昌里浦商百货店),购物服务;超级市场;超市,060400,昌里路321浦商百货东区F1层,121.491950,31.173833,9510217,4.3,[],购物菜场,上海市,上海市,浦东新区
B0K2XDABS9,超盒算NB(闵行龙柏店),购物服务;超级市场;超市|生活服务;生活服务场所;生活服务场所,060400|070000,青杉路369龙柏,121.364014,31.175703,,4.4,[],购物菜场,上海市,上海市,闵行区
B0L6PSCVIG,超盒算NB(普陀真光路店),购物服务;超级市场;超市|生活服务;生活服务场所;生活服务场所,060400|070000,长征镇真光路1219号,121.380877,31.243256,16684100809,4.3,[],购物菜场,上海市,上海市,普陀区
B00155FXQD,马当菜场(马当路店),购物服务;超级市场;超市|公司企业;公司;公司,060400|170200,马当路349-2号临附近,121.475797,31.214706,,4.4,[],购物菜场,上海市,上海市,黄浦区
B0FFG2J6PD,联华超市(上海金陵店),购物服务;超级市场;超市,060400,外滩街道金陵东路545号(大世界地铁站5号口步行50米),121.481477,31.227324,18917635356,4.3,[],购物菜场,上海市,上海市,黄浦区
B00155FW5U,联华超市(枫林店),购物服务;超级市场;超市,060400,枫林路街道医学院路73号,121.455382,31.199406,021-34160211,4.3,[],购物菜场,上海市,上海市,徐汇区
B0FFLP3VID,Gmart(G超市韩国超市),购物服务;超级市场;超市,060400,虹泉路1101弄57-58号,121.372406,31.168806,17317364146,4.2,[],购物菜场,上海市,上海市,闵行区
B00155I7HA,屈臣氏(巴黎春天淮海V店),购物服务;超级市场;屈臣氏,060411,淮海中路93-947号巴黎春天b2层,121.459616,31.216654,021-64282816;4008301310,4.3,[],购物菜场,上海市,上海市,黄浦区
B00155FY97,联华超市(黄河店),购物服务;超级市场;超市,060400,新闸路233号(新闸路地铁站5号口步行60米),121.468041,31.238824,021-33060079,4.3,[],购物菜场,上海市,上海市,黄浦区
B0IU6A8VJR,联华超市(重庆北路店),购物服务;超级市场;上海华联,060405,重庆北路208号,121.469849,31.227002,021-63276057,4.3,[],购物菜场,上海市,上海市,黄浦区
B0G0DRA159,好特卖HotMaxx(上海月星环球港店),购物服务;超级市场;超市,060400,中山北路3300号上海月星环球港B2层,121.412835,31.233672,15601994362,4.3,[],购物菜场,上海市,上海市,普陀区
B00155IMTQ,联华超市(西凌店),购物服务;超级市场;超市,060400,西凌家宅路70号(西藏南路地铁站5号口步行390米),121.486949,31.204299,021-53590024,4.2,[],购物菜场,上海市,上海市,黄浦区
B0FFG22BU2,农工商超市(柳州店),购物服务;超级市场;超市,060400,柳州路588号圣诺亚广场1层,121.420547,31.177353,021-54668156;13916876143,4.4,[],购物菜场,上海市,上海市,徐汇区
B0FFGHN78M,屈臣氏(湖滨道购物中心店),购物服务;超级市场;屈臣氏,060411,湖滨路150号湖滨道购物中心b2,121.478662,31.220814,021-63339205;021-63339206,4.3,[],购物菜场,上海市,上海市,黄浦区
B00155L3KX,联华超市(延平店),购物服务;超级市场;超市,060400,延平路128号静安盛达,121.441027,31.229320,021-52610015,4.2,[],购物菜场,上海市,上海市,静安区
B00155FG6Q,DELL戴尔电脑(售后服务)数码配件(大沽路店),购物服务;超级市场;上海华联,060405,大沽路543号(南京西路地铁站8号口步行310米),121.463704,31.225165,4001839178,4.2,[],购物菜场,上海市,上海市,静安区
B0IKA7RJ5F,世纪联华(淞虹路店),购物服务;超级市场;超市,060400,淞虹路938号1号楼B1楼,121.364283,31.204843,021-52198996,4.2,[],购物菜场,上海市,上海市,长宁区
B00155ILPA,联华超市(兴国店),购物服务;超级市场;超市,060400,兴国路277号(交通大学地铁站7号口步行440米),121.437792,31.204690,021-54560076,4.3,[],购物菜场,上海市,上海市,徐汇区
B00155K8A6,屈臣氏(美罗城店),购物服务;超级市场;屈臣氏,060411,肇嘉浜路1111号美罗城A区2层(徐家汇地铁站出入口旁),121.440096,31.193029,021-64267269,4.2,[],购物菜场,上海市,上海市,徐汇区
B0L1XHR8U5,超盒算NB(虹中路店),购物服务;超级市场;超市,060400,虹中路535号,121.377856,31.187340,,4.3,[],购物菜场,上海市,上海市,闵行区
B0FFHLGX0N,屈臣氏(日月光中心店),购物服务;超级市场;屈臣氏,060411,日月光中心徐家汇路618号日月光中心B1-TK05-11,121.468200,31.207346,021-64410265,4.2,[],购物菜场,上海市,上海市,黄浦区
B00156O7ZL,联华超市(虹古店),购物服务;超级市场;超市,060400,安龙路833号,121.387344,31.208438,021-32080017,4.2,[],购物菜场,上海市,上海市,长宁区
B001557GJW,联华超市(新闸店),购物服务;超级市场;超市,060400,新闸路1051号,121.455950,31.233032,021-52610075,4.3,[],购物菜场,上海市,上海市,静安区
B00155IL31,联华超市(安顺店),购物服务;超级市场;超市,060400,安顺路290号,121.412848,31.200045,021-32230386,4.2,[],购物菜场,上海市,上海市,长宁区
B0FFLM6818,多果和生鲜超市(斜土路店),购物服务;超级市场;超市,060400,斜土路1931号(东安路地铁站4号口步行410米),121.452688,31.194814,15137701079,4.4,[],购物菜场,上海市,上海市,徐汇区
B0FFGY7HZQ,三生有信(豫园商城店),购物服务;超级市场;屈臣氏,060411,豫园老街35号(豫园地铁站7号口步行370米),121.491552,31.227301,17621494766,4.2,[],购物菜场,上海市,上海市,黄浦区
B00155QKFB,联华超市(茶陵店),购物服务;超级市场;超市,060400,茶陵路216-1号,121.466378,31.197715,021-64166864,4.3,[],购物菜场,上海市,上海市,徐汇区
B0FFI72PPB,联华超市(瑞金二路店),购物服务;超级市场;超市,060400,瑞金二路207号联华超市(打浦桥地铁站1号口步行440米),121.466474,31.209752,,4.2,[],购物菜场,上海市,上海市,黄浦区
B0JDZRJQUW,上海超盒算NB(西环路店),购物服务;超级市场;超市,060400,西环路与莘谭路交叉口西北100米,121.366701,31.106274,,4.4,[],购物菜场,上海市,上海市,闵行区
B00155QG08,联华超市,购物服务;超级市场;超市,060400,乌鲁木齐北路170号(静安寺地铁站1号口步行400米),121.442101,31.222954,021-62082769,4.3,[],购物菜场,上海市,上海市,静安区
B0FFH2DUFW,联华(漕东路店),购物服务;超级市场;超市,060400,漕东路209号(漕溪路地铁站2号口步行410米),121.438111,31.173442,021-54590451;021-64386081,4.1,[],购物菜场,上海市,上海市,徐汇区
B00155LB4I,新快超市(万科广场商务楼店),购物服务;超级市场;超市,060400,水城南路37号万科广场北楼1层,121.393276,31.194678,021-62092656,4.2,[],购物菜场,上海市,上海市,长宁区
B0FFJZ320N,如海购物超市(德州店),购物服务;超级市场;超市,060400,德州路461号,121.481874,31.166349,15366441600,4.3,[],购物菜场,上海市,上海市,浦东新区
B0FFJD1E10,全家便利店(中山公园站三店),购物服务;超级市场;超市,060400,长宁路1018号龙之梦城市生活中心(长宁店),121.416773,31.218487,021-22056301,4.3,[],购物菜场,上海市,上海市,长宁区
B00154DNV6,联华超市(上中西路店),购物服务;超级市场;超市,060400,梅陇镇上中西路1280号,121.408005,31.130179,021-54813019;13761234880,4.2,[],购物菜场,上海市,上海市,闵行区
B0FFFA1T2P,联华超市(辛耕店),购物服务;超级市场;超市,060400,宛平南路240弄5-9号宛平南路240弄小区,121.446358,31.193072,021-54251391,4.2,[],购物菜场,上海市,上海市,徐汇区
B00154DNUS,联华(香花桥小区店),购物服务;家电电子卖场;手机销售|购物服务;超级市场;超市,060305|060400,新华路370弄之2-36号香花桥小区,121.425034,31.203729,021-52540051;18019785722,4.2,[],购物菜场,上海市,上海市,长宁区
B0I1R1ABQT,联华超市(金沙江路店),购物服务;超级市场;超市,060400,金沙江路788号和胤788广场F2层,121.398896,31.232566,18019785877,4.1,[],购物菜场,上海市,上海市,普陀区
B00155KKIM,联华超市(余姚路二店),购物服务;超级市场;超市,060400,延平路505-507,121.436397,31.235197,021-62195312,4.2,[],购物菜场,上海市,上海市,静安区
B00155H9ZM,农工商超市(蒙自店),购物服务;超级市场;超市,060400,蒙自路479号(世博会博物馆地铁站3号口步行490米),121.479359,31.202063,021-63013998;021-63043980;15618631372,4.2,[],购物菜场,上海市,上海市,黄浦区
B0LUFU1KAR,上蔬永辉(凌云店),购物服务;超级市场;超市,060400,凌云天地,121.431228,31.136836,,4.3,[],购物菜场,上海市,上海市,徐汇区
B00155L8FH,联华超市(上海戏剧学院莲花路校区店),购物服务;超级市场;超市,060400,莲花路241号,121.401629,31.138783,021-34713026;021-56413417;18019785752,4.1,[],购物菜场,上海市,上海市,闵行区
B0FFIMIPEU,屈臣氏(M2香港名都店),购物服务;超级市场;屈臣氏,060411,河南南路489号香港名都一楼,121.489811,31.223504,021-63307315,4.2,[],购物菜场,上海市,上海市,黄浦区
B0FFHJT2AB,联华超市(杏山店),购物服务;超级市场;超市,060400,杏山路65号(金沙江路地铁站5号口步行430米),121.408598,31.233440,021-32250327,4.2,[],购物菜场,上海市,上海市,普陀区
B0L0RC7AG6,麦德龙(总部),购物服务;超级市场;麦德龙|公司企业;公司;公司,060406|170200,长征镇真北路1425号,121.384583,31.242020,,[],[],购物菜场,上海市,上海市,普陀区
B00154DT0Q,联华超市(昌化路店),购物服务;超级市场;超市,060400,昌化路575-577号,121.448442,31.240509,021-32270035,4.2,[],购物菜场,上海市,上海市,静安区
B00155L22I,联华(建国西店),购物服务;超级市场;上海华联,060405,嘉善路453号(嘉善路地铁站2号口步行380米),121.460440,31.205560,021-64459766;13818871744,4.2,[],购物菜场,上海市,上海市,徐汇区
B0ID7CD874,兔喜生活(环镇南路店),购物服务;超级市场;超市,060400,环镇南路87-93号环镇南路87-93号小区,121.393430,31.174684,18516687825,4.0,[],购物菜场,上海市,上海市,闵行区
B00155L27Z,屈臣氏(长宁龙之梦城市生活中心店),购物服务;超级市场;屈臣氏,060411,长宁路1018号龙之梦城市生活中心(长宁店)L3层3054/3056,121.416846,31.219246,021-33728688;4008301310,4.2,[],购物菜场,上海市,上海市,长宁区
B0FFG2J8SB,联华(南丹小区333弄店),购物服务;超级市场;超市,060400,南丹路313号,121.430258,31.190185,021-54591828;15301691770,4.1,[],购物菜场,上海市,上海市,徐汇区
B00154DDFF,联华超市(大境路),购物服务;超级市场;超市,060400,大境路52(豫园地铁站3B口步行290米),121.487175,31.225442,,4.3,[],购物菜场,上海市,上海市,黄浦区
B00155IMXP,联华超市(成山店),购物服务;超级市场;超市,060400,成山路167号(近上南路),121.493081,31.171256,021-38830414,4.1,[],购物菜场,上海市,上海市,浦东新区
B0K0X6360F,好特卖HotMaxx(中星城店),购物服务;超级市场;超市,060400,浦北路9号中星城F1层(上海南站地铁站8号口步行320米),121.428813,31.158920,,4.2,[],购物菜场,上海市,上海市,徐汇区
B00155INYQ,联华超市(恒大店),购物服务;超级市场;超市,060400,三林镇西营南路15号,121.485947,31.161030,021-38790014,4.2,[],购物菜场,上海市,上海市,浦东新区
B0FFGFZNT8,联华超市(龙南店),购物服务;超级市场;超市,060400,黄石路龙南七村12号,121.452645,31.157259,021-54353044,4.2,[],购物菜场,上海市,上海市,徐汇区
B0HBMBIF67,联华超市(南京西路店),购物服务;超级市场;超市,060400,上海市静安区奉贤路193号(御品大厦东南侧约130米),121.458555,31.230273,18358815271,4.2,[],购物菜场,上海市,上海市,静安区
B00155HMKR,联华超市(南光大楼店),购物服务;超级市场;超市,060400,白玉路200号(曹杨路地铁站2号口步行400米),121.416384,31.234197,,4.2,[],购物菜场,上海市,上海市,普陀区
B0H6KHBJHC,联华超市(国庆店),购物服务;超级市场;超市,060400,国庆路6号(曲阜路地铁站2号口步行280米),121.471369,31.240569,18019785601,4.2,[],购物菜场,上海市,上海市,静安区
B00155HS4N,联华超市(漕宝店),购物服务;超级市场;超市,060400,漕宝路1800号(星中路地铁站2号口旁),121.369061,31.157863,021-34100054,4.2,[],购物菜场,上海市,上海市,闵行区
B00154DNGV,汇金超市(凌云店),购物服务;便民商店/便利店;便民商店/便利店|购物服务;超级市场;超市,060200|060400,凌云路212号,121.421169,31.133846,021-64779521,4.2,[],购物菜场,上海市,上海市,徐汇区
B0G0B6Y1EM,好特卖HotMaxx(正大乐城店),购物服务;服装鞋帽皮具店;品牌服装店|购物服务;超级市场;超市,061101|060400,中山南二路699号正大乐城B1层(龙华中路地铁站1号口旁),121.457560,31.185775,15601994278,4.4,[],购物菜场,上海市,上海市,徐汇区
B0LGDZGBFW,联华超市百茗店,购物服务;超级市场;超市,060400,龙茗路1256号,121.385157,31.143887,,4.3,[],购物菜场,上海市,上海市,闵行区
B0FFG8ZFDH,星星+超市(凤阳路店),购物服务;便民商店/便利店;便民商店/便利店|购物服务;超级市场;超市,060200|060400,凤阳路618号凤阳路大田路路口,121.464177,31.233030,13761161502;18321331736,4.2,[],购物菜场,上海市,上海市,静安区
B0FFG2J6JJ,联华(XIANG YANG CENTER店),购物服务;超级市场;超市,060400,襄阳大楼正门北100米,121.455175,31.219141,13651733473,4.3,[],购物菜场,上海市,上海市,徐汇区
B0IRV7SD2U,优易品精品生活超市(舒也时代广场店),购物服务;超级市场;超市,060400,老沪闵路与华济路交叉口南60米,121.434586,31.111737,13818822104,4.3,[],购物菜场,上海市,上海市,闵行区
B00155KJXF,华联超市(申隆店),购物服务;超级市场;上海华联,060405,玉屏南路490号(娄山关路地铁站出入口步行340米),121.404962,31.213559,021-52530393,4.1,[],购物菜场,上海市,上海市,长宁区
B0HUB7GK8C,联华生活鲜(曹家渡店),购物服务;超级市场;超市,060400,康定路1445号(武宁路地铁站5A口步行380米),121.430650,31.228960,021-52560524,4.1,[],购物菜场,上海市,上海市,静安区
B0JRZ55MZR,Blueglass酸奶(1788广场店),购物服务;超级市场;超市|餐饮服务;甜品店;甜品店,060400|050900,南京西路1818号1层119B单元(贝瑞咖啡对面),121.443463,31.222664,13381998620,4.2,37.00,购物菜场,上海市,上海市,静安区
B00155GHOK,农工商超市(娄山关路店),购物服务;超级市场;超市,060400,玉屏南路476弄1-12号玉屏南路476弄小区,121.404757,31.213772,021-62337125;021-62598168;18939775330,4.1,[],购物菜场,上海市,上海市,长宁区
B0FFJXEVDS,荟选集市(丽园店),购物服务;超级市场;超市|购物服务;便民商店/便利店;便民商店/便利店,060400|060200,丽园路1020号(打浦桥地铁站2号口步行300米),121.472332,31.205825,021-63129385;15257953810,4.2,[],购物菜场,上海市,上海市,黄浦区
B0FFF09Y7W,联华(丁香大楼店),购物服务;超级市场;超市,060400,华山路900号,121.438607,31.212684,021-62121232,4.1,[],购物菜场,上海市,上海市,长宁区
B00155D899,联华超市(中江路店),购物服务;超级市场;超市,060400,中江路1059号(近739梅川新村站),121.392419,31.237989,021-52650805;13472505765,4.1,[],购物菜场,上海市,上海市,普陀区
B00155INTT,联华(罗阳店),购物服务;超级市场;上海华联,060405,莲花南路438号,121.406328,31.122637,021-54281921,4.0,[],购物菜场,上海市,上海市,闵行区
B0FFHMI25V,联华超市(青杉店),购物服务;超级市场;超市,060400,虹桥镇青杉路286号,121.363827,31.176162,021-64493880,4.1,[],购物菜场,上海市,上海市,闵行区
B0FFHHNEW5,联华超市(宛南一村店),购物服务;超级市场;超市,060400,宛平南路852号,121.451408,31.183979,021-54590443,4.1,[],购物菜场,上海市,上海市,徐汇区
B0FFHHTTUD,屈臣氏(上海月星环球港),购物服务;超级市场;屈臣氏,060411,中山北路3300号环球港b1(金沙江路地铁站1号口旁),121.411968,31.231503,021-62899070,4.2,[],购物菜场,上海市,上海市,普陀区
B0FFJCRR4J,联华超市(虹漕路店),购物服务;超级市场;超市,060400,华悦家园东2门西北110米(虹漕路地铁站1号口步行330米),121.411156,31.165999,15000391005;15317729353,4.2,[],购物菜场,上海市,上海市,徐汇区
B0FFGYZT5R,联华超市(百朱店),购物服务;超级市场;超市,060400,莘庄镇莘朱路452号,121.391033,31.110314,021-52965866,4.2,[],购物菜场,上海市,上海市,闵行区
B00155QFI3,华联超市(中谊商场),购物服务;超级市场;上海华联,060405,中谊路392号,121.363744,31.143752,021-54851508,4.1,[],购物菜场,上海市,上海市,闵行区
B0FFJYATDY,元华超市(怒江路店),购物服务;超级市场;超市,060400,怒江路209号(大渡河路地铁站9号口步行480米),121.398960,31.230043,13761149802;15801894833,4.1,[],购物菜场,上海市,上海市,普陀区
B0FFFSZRET,华联超市(德州店),购物服务;超级市场;上海华联,060405,德州三村(南门)附近,121.491509,31.167579,021-58323197;13917653930,4.2,[],购物菜场,上海市,上海市,浦东新区
B00156EHBZ,联华超市(虹中店),购物服务;超级市场;超市,060400,虹中路436弄21-23号,121.381710,31.184149,021-54580177,4.1,[],购物菜场,上海市,上海市,闵行区
B0KUZXPJAY,尚优超市(力波九坊店),购物服务;超级市场;超市,060400,上中西路155号力波·九坊B1层,121.413634,31.134039,021-68888852,4.2,[],购物菜场,上海市,上海市,闵行区
B00154DT0R,联华超市(远洋店),购物服务;超级市场;超市,060400,吴中路978号,121.389061,31.178062,021-54581363,4.1,[],购物菜场,上海市,上海市,闵行区
B0FFFDWV0I,联华超市(龙山店),购物服务;超级市场;超市,060400,中山南二路950弄23-1号,121.446993,31.184474,021-64865705,4.0,[],购物菜场,上海市,上海市,徐汇区
B00155HSIR,联华超市(罗阳店),购物服务;超级市场;超市,060400,梅陇镇景福路135号,121.410055,31.121243,021-54630240,4.1,[],购物菜场,上海市,上海市,闵行区
B0IGZDZLHY,ALDI奥乐齐(徐汇大木桥店),购物服务;超级市场;超市,060400,大木桥路18号久岸大厦B2楼2008-9,121.460696,31.201504,4008201973,4.6,72.00,购物菜场,上海市,上海市,徐汇区
B00155QTTO,全家便利店(天山西路二店),购物服务;便民商店/便利店;便民商店/便利店|购物服务;超级市场;超市,060200|060400,天山西路177号(北新泾地铁站4号口旁),121.373057,31.216662,13917524756;13917534771,4.1,[],购物菜场,上海市,上海市,长宁区
B0FFIINK2Q,联华超市,购物服务;便民商店/便利店;便民商店/便利店|购物服务;超级市场;超市,060200|060400,清真路24号(嘉善路地铁站4号口步行320米),121.459730,31.199710,13816584435,4.2,[],购物菜场,上海市,上海市,徐汇区
B0J227UIOH,联华超市(百色店),购物服务;超级市场;超市,060400,百色路1163号,121.433816,31.143066,021-34053411;021-64235677,4.1,[],购物菜场,上海市,上海市,徐汇区
B00154DNVH,联华(安亭店),购物服务;超级市场;超市,060400,建国西路615号(衡山路地铁站1号口步行440米),121.448040,31.201292,021-34010135,4.1,[],购物菜场,上海市,上海市,徐汇区
B00154DDFE,联华超市(万航店),购物服务;超级市场;超市,060400,万航渡路1467号,121.420424,31.224579,021-52550070,4.1,[],购物菜场,上海市,上海市,长宁区
B00155KW3A,联华超市(曹杨店),购物服务;超级市场;超市,060400,兰溪路35号(曹杨路地铁站出入口步行400米),121.412982,31.238857,021-32250062,4.1,[],购物菜场,上海市,上海市,普陀区
B00155QRY1,联华超市(瑞盛店),购物服务;超级市场;上海华联,060405,龙茗路1841号,121.381956,31.152969,021-33588312,4.2,[],购物菜场,上海市,上海市,闵行区
B0FFJXYTNZ,联华超市(新闵路店),购物服务;超级市场;超市,060400,张虹路129-3号(吴中路地铁站4号口步行410米),121.412443,31.189079,021-54019127;021-54500806,4.1,[],购物菜场,上海市,上海市,闵行区
B0JBML40ZO,万新生鲜超市(金家巷店),购物服务;超级市场;超市,060400,新闸路1980号(近万航渡路),121.440116,31.225956,13671860818,4.2,[],购物菜场,上海市,上海市,静安区
B0015704HU,联华(水清店),购物服务;超级市场;超市,060400,莘庄镇水清路588弄618-624号,121.378799,31.120662,021-64120454,4.0,[],购物菜场,上海市,上海市,闵行区
B0FFMHCHTD,联华超市(百隆店),购物服务;超级市场;超市,060400,罗秀苑(南区)罗秀路1615号,121.410548,31.127459,13301761571;13917103845,4.3,[],购物菜场,上海市,上海市,闵行区
B00155LXCM,家得利(达安锦园店),购物服务;超级市场;超市,060400,西康路831号,121.443645,31.237720,021-62589288;021-62881209,4.1,[],购物菜场,上海市,上海市,静安区
B00155AK2S,联华超市(罗香店),购物服务;超级市场;超市,060400,罗香路170号,121.438025,31.135139,021-54630050,4.1,[],购物菜场,上海市,上海市,徐汇区
B00154HEVH,联华超市(龙茗店),购物服务;超级市场;上海华联,060405,静安新城龙茗路2196号,121.382117,31.159286,021-34153209,4.2,[],购物菜场,上海市,上海市,闵行区
B00155INPC,农工商超市(梅陇西路店),购物服务;超级市场;超市,060400,梅陇西路22号,121.413328,31.136656,021-34080725;021-64102735,4.1,[],购物菜场,上海市,上海市,闵行区
B0FFIIQLTN,联华超市(中山桥店),购物服务;超级市场;超市,060400,中山北路3736号(金沙江路地铁站5号口步行440米),121.410923,31.227289,021-52806837;13501669811,4.1,[],购物菜场,上海市,上海市,普陀区
B00155FSTQ,联华超市(梅川店),购物服务;超级市场;超市,060400,大渡河路梅川路788号(梅岭北路地铁站4号口步行390米),121.395684,31.239532,021-52501633,4.1,[],购物菜场,上海市,上海市,普陀区
B0HR4AZDXA,联华超市,购物服务;超级市场;超市,060400,廷安西路1066号,121.431071,31.211919,13817033458;15800524535,4.2,[],购物菜场,上海市,上海市,长宁区
B00155IW65,联华超市(沪闵店),购物服务;超级市场;超市,060400,老沪闵路605号(华东理工大学地铁站3号口步行390米),121.428115,31.146692,021-34280048,4.1,[],购物菜场,上海市,上海市,徐汇区
B00155LZHT,联华超市(昭化路店),购物服务;超级市场;超市,060400,昭化路118号申亚臻悦商苑F1层,121.425642,31.211824,021-62129828;18917375672,4.2,[],购物菜场,上海市,上海市,长宁区
