id,name,type,typecode,address,lng,lat,tel,rating,cost,group,pname,cityname,adname
B001550YMG,得和茶馆(建国西路店),餐饮服务;茶艺馆;茶艺馆|餐饮服务;中餐厅;中餐厅,050600|050100,建国西路135号卢湾区体育中心综合楼2层,121.463841,31.207042,021-54681117,4.4,151.00,社交餐饮|独处品质空间,上海市,上海市,黄浦区
B00155HAXI,Coffee Tree(武康路店),餐饮服务;外国餐厅;西餐厅(综合风味),050201,武康路376号武康庭1层,121.439024,31.206578,021-64660361,4.6,161.00,社交餐饮|独处品质空间,上海市,上海市,徐汇区
B0G3UO3SL6,PS.Cafe(港汇恒隆广场店),餐饮服务;外国餐厅;西餐厅(综合风味)|餐饮服务;咖啡厅;咖啡厅,050201|050500,虹桥路1号港汇恒隆广场南座2层202号,121.437747,31.194363,021-54488187;15021066829,4.3,148.00,社交餐饮|独处品质空间,上海市,上海市,徐汇区
B0FFHSJI5R,古悦面包咖啡日料,餐饮服务;外国餐厅;日本料理|餐饮服务;咖啡厅;咖啡厅,050202|050500,零陵路598-1号,121.448788,31.188242,021-54893698,4.3,49.00,社交餐饮|独处品质空间,上海市,上海市,徐汇区
B0HGA60VU8,PAOPAO Bakery&Cafe(港汇店),餐饮服务;快餐厅;快餐厅|餐饮服务;糕饼店;糕饼店,050300|050800,港汇恒隆广场虹桥路1号负一楼105B(泡泡玛特对面),121.437564,31.195146,19921180593,4.6,51.00,社交餐饮|独处品质空间,上海市,上海市,徐汇区
B0LGPZ7NBT,瑞幸咖啡,餐饮服务;休闲餐饮场所;休闲餐饮场所,050400,永嘉路5号后门旁,121.465449,31.211523,4000100100,4.3,13.00,社交餐饮|独处品质空间,上海市,上海市,黄浦区
B0LDH7H9CN,裕莲茶楼(上海徐家汇中心店),餐饮服务;休闲餐饮场所;休闲餐饮场所,050400,虹桥路183号上海徐家汇中心商场四层406室,121.434935,31.193578,18021043974,4.3,27.00,社交餐饮|独处品质空间,上海市,上海市,徐汇区
B0I06STV82,luckin coffee 瑞幸咖啡(汇联商厦店),餐饮服务;休闲餐饮场所;休闲餐饮场所,050400,天钥桥路90号,121.441492,31.192513,4000100100,4.3,17.00,社交餐饮|独处品质空间,上海市,上海市,徐汇区
B0LRDD765A,裕莲茶楼(上海One ITC店),餐饮服务;休闲餐饮场所;休闲餐饮场所,050400,徐家汇街道One ITCLG1层,121.437902,31.197203,18019387972,4.3,29.00,社交餐饮|独处品质空间,上海市,上海市,徐汇区
B0FFH9L4OD,BREAD ETC(襄阳南路店),餐饮服务;糕饼店;糕饼店|餐饮服务;休闲餐饮场所;休闲餐饮场所,050800|050400,建国西路304号一层,121.457947,31.205321,021-54198211;021-54198775,4.6,109.00,社交餐饮|独处品质空间,上海市,上海市,徐汇区
B0KRCSAKQ9,6茶共享茶室(汇银广场店),餐饮服务;休闲餐饮场所;休闲餐饮场所,050400,华山路2088号汇银广场南楼1403室,121.437162,31.196766,19521487985,4.2,75.00,社交餐饮|独处品质空间,上海市,上海市,徐汇区
B0KR5RP8DN,GapDay coffee&cake空白天咖啡,餐饮服务;咖啡厅;咖啡厅,050500,襄阳南路316号,121.457682,31.209728,,4.2,56.00,社交餐饮|独处品质空间,上海市,上海市,徐汇区
B0LUF51YXH,CUBIC 3 三立方咖啡(永康路店),餐饮服务;咖啡厅;咖啡厅,050500,永康路58号,121.458307,31.211038,13321978417,4.7,41.00,社交餐饮|独处品质空间,上海市,上海市,徐汇区
B0L1DZTA8F,星巴克(幸福里店),餐饮服务;咖啡厅;星巴克咖啡,050501,长宁区番禺路381号1层111室,121.430161,31.204428,021-62161892,4.6,30.00,社交餐饮|独处品质空间,上海市,上海市,长宁区
B0KR7MJD0K,瑞幸咖啡(光启城家乐福店),餐饮服务;咖啡厅;咖啡厅,050500,宜山路455号大华光启城负一层120-121号,121.427616,31.183211,4000100100,4.2,11.00,社交餐饮|独处品质空间,上海市,上海市,徐汇区
B0KDDRBOG0,瑞幸咖啡(阳光滨江天地店),餐饮服务;咖啡厅;咖啡厅,050500,凯滨路38号负一层01室A13-2号,121.458630,31.186507,4000100100,4.2,13.00,社交餐饮|独处品质空间,上海市,上海市,徐汇区
B0K63SNIU3,一尺花园(世博文化公园店),餐饮服务;咖啡厅;咖啡厅,050500,世博大道2200号,121.469585,31.180085,15301672179,4.7,69.00,社交餐饮|独处品质空间,上海市,上海市,浦东新区
B0JUGSB6X8,星巴克臻选(上海OneITC店),餐饮服务;咖啡厅;星巴克咖啡,050501,华山路1901号ITC国贸汇LG1层LG1-126,121.437782,31.198105,021-64221571,4.3,44.00,社交餐饮|独处品质空间,上海市,上海市,徐汇区
B0JUASX1MZ,星巴克(上海打浦桥日月光2店),餐饮服务;咖啡厅;星巴克咖啡,050501,"徐家汇路610号日月光中心瑞金区1层1F-A08单元,地铁4号口旁",121.467487,31.206413,021-64032810,4.5,30.00,社交餐饮|独处品质空间,上海市,上海市,黄浦区
B0JU1STN9P,瑞幸咖啡(沪港国际大厦店),餐饮服务;咖啡厅;咖啡厅,050500,斜土路2364号沪港国际大厦一层大堂,121.447805,31.191578,4000100100,4.4,16.00,社交餐饮|独处品质空间,上海市,上海市,徐汇区
B0JKYHE42C,Peet's Coffee 皮爷咖啡(黑石公寓店),餐饮服务;咖啡厅;咖啡厅,050500,复兴中路1333弄1-6号珊珊小区,121.452543,31.210844,13818874751,4.4,47.00,社交餐饮|独处品质空间,上海市,上海市,徐汇区
B0JKPCZ7WJ,星巴克(日月光办公楼店),餐饮服务;咖啡厅;星巴克咖啡,050501,"徐家汇路608号1FA-1(打浦桥地铁站3号口旁,日月光办公楼大厅)",121.468812,31.207438,021-23561298,4.4,42.00,社交餐饮|独处品质空间,上海市,上海市,黄浦区
B0JD5ODTJD,% Arabica(西岸金融城店),餐饮服务;咖啡厅;咖啡厅,050500,瑞宁路288号西岸中环,121.469852,31.188893,19102183072,4.4,53.00,社交餐饮|独处品质空间,上海市,上海市,徐汇区
B0JB1UH6U9,瑞幸咖啡(番禺路幸福里店),餐饮服务;咖啡厅;咖啡厅,050500,番禺路381号7号楼一层107室,121.430036,31.204318,4000100100,4.4,17.00,社交餐饮|独处品质空间,上海市,上海市,长宁区
B0J6VZ8VAK,星巴克(东安路店),餐饮服务;咖啡厅;星巴克咖啡,050501,东安路259号星巴克咖啡(东安路地铁站4号口旁),121.454083,31.192322,021-34160179;021-60782939;4008206998,4.4,46.00,社交餐饮|独处品质空间,上海市,上海市,徐汇区
B0J2TC8EUB,Peet's Coffee皮爷咖啡(腾飞广场店),餐饮服务;咖啡厅;咖啡厅,050500,腾飞大厦(上海体育场地铁站3号口步行350米),121.442293,31.187999,19727211026,4.4,32.00,社交餐饮|独处品质空间,上海市,上海市,徐汇区
B0J2JM0EIQ,库迪咖啡(徐家汇地铁站店),餐饮服务;咖啡厅;咖啡厅,050500,漕溪北路徐家汇地铁站(11号口线尚加内1-1002商铺),121.438324,31.193223,13052519448,4.3,11.00,社交餐饮|独处品质空间,上海市,上海市,徐汇区
B0J1KR4A7W,星巴克(上海中山医院店),餐饮服务;咖啡厅;星巴克咖啡,050501,医学院路111号1层101单元,121.453573,31.198736,021-66566756,4.5,41.00,社交餐饮|独处品质空间,上海市,上海市,徐汇区
B0J1GS53ED,Peet's Coffee 皮爷咖啡(徐汇绿地缤纷城西区店),餐饮服务;咖啡厅;咖啡厅,050500,东安路562号绿地缤纷城西区F1层WE-101,121.457063,31.183619,18202139188,4.4,34.00,社交餐饮|独处品质空间,上海市,上海市,徐汇区
B0J05RWFI9,库迪咖啡(上海电影集团D座店),餐饮服务;咖啡厅;咖啡厅,050500,漕溪北路595号上海电影集团D座办公楼(入口在),121.437477,31.186568,18917904225,4.2,14.00,社交餐饮|独处品质空间,上海市,上海市,徐汇区
B0IR9CP1OV,瑞幸咖啡(徐汇绿地缤纷城店),餐饮服务;咖啡厅;咖啡厅,050500,龙华中路绿地缤纷城西区一楼(龙华中路地铁站出入口旁),121.457628,31.183847,4000100100,4.5,17.00,社交餐饮|独处品质空间,上海市,上海市,徐汇区
B0IR2C3PSY,M Stand(汇京国际广场店),餐饮服务;咖啡厅;咖啡厅,050500,淮海西路555号1层111室,121.423369,31.196404,13120955135,4.3,33.00,社交餐饮|独处品质空间,上海市,上海市,徐汇区
B0IGCDCH5L,星巴克臻选(上海徐汇绿地缤纷1F店),餐饮服务;咖啡厅;星巴克咖啡,050501,东安路562号徐汇绿地缤纷城东区1F层,121.457455,31.184453,021-54520025,4.5,28.00,社交餐饮|独处品质空间,上海市,上海市,徐汇区
B0IBXAPKIU,瑞幸咖啡(中山医院西院区门诊大楼店),餐饮服务;咖啡厅;咖啡厅,050500,平江路232号一层底商(肇嘉浜路地铁站2号口步行370米),121.453575,31.199539,4000100100,4.5,12.00,社交餐饮|独处品质空间,上海市,上海市,徐汇区
B0IBCZH3NR,Tims咖啡(申信大楼捷枫店),餐饮服务;咖啡厅;咖啡厅,050500,小木桥路219号,121.457692,31.198612,15921218325,4.3,30.00,社交餐饮|独处品质空间,上海市,上海市,徐汇区
B0I33O1YVV,瑞幸咖啡(五洲国际大厦店),餐饮服务;咖啡厅;咖啡厅,050500,肇嘉浜路807号五洲国际大厦一层大堂,121.447847,31.197980,4000100100,4.2,13.00,社交餐饮|独处品质空间,上海市,上海市,徐汇区
B0I2V61NQB,Tims咖啡(龙华绿地缤纷城店),餐饮服务;咖啡厅;咖啡厅,050500,龙华中路759号一层商业WA-113,121.456675,31.183775,021-54107606,4.2,27.00,社交餐饮|独处品质空间,上海市,上海市,徐汇区
B0I2K7JFQP,星巴克(上海小木桥路店),餐饮服务;咖啡厅;星巴克咖啡,050501,小木桥路221号,121.457611,31.198604,021-54520035;021-60782939,4.4,41.00,社交餐饮|独处品质空间,上海市,上海市,徐汇区
B0I1BPS3GQ,Manner Coffee(One ITC店),餐饮服务;咖啡厅;咖啡厅,050500,华山路1901号One ITC LG2层,121.437689,31.197880,15221320265,4.3,34.00,社交餐饮|独处品质空间,上海市,上海市,徐汇区
B0HUK46BVL,星巴克(上海长宁国际办公楼店),餐饮服务;咖啡厅;星巴克咖啡,050501,凯旋路1388号T1之01(虹桥路地铁站1号口步行200米),121.421625,31.199225,,4.5,21.00,社交餐饮|独处品质空间,上海市,上海市,长宁区
B0HU5UNWQT,M Stand(上海长宁国际店),餐饮服务;咖啡厅;咖啡厅|购物服务;购物相关场所;购物相关场所,050500|060000,长宁国际广场T7栋103号(虹桥路地铁站1号口步行240米),121.422357,31.198985,16621090096,4.3,32.00,社交餐饮|独处品质空间,上海市,上海市,长宁区
B0HU2YTMZV,星巴克(上海汇金百货徐汇店),餐饮服务;咖啡厅;星巴克咖啡,050501,肇嘉浜路1000号汇金百货1F层,121.440218,31.195153,021-64399527,4.2,44.00,社交餐饮|独处品质空间,上海市,上海市,徐汇区
B0HRPN1P7B,Manner Coffee(徐汇滨江店),餐饮服务;咖啡厅;咖啡厅,050500,瑞宁路243号,121.467705,31.185822,18217396109,4.7,20.00,社交餐饮|独处品质空间,上海市,上海市,徐汇区
B0HR6M72MH,Tims咖啡(长宁IM店),餐饮服务;咖啡厅;咖啡厅,050500,凯旋路1388号长宁国际发展广场5号楼101-102室,121.422245,31.198716,021-62092257,4.4,21.00,社交餐饮|独处品质空间,上海市,上海市,长宁区
B0HKKDH19Y,M Stand(美罗城店),餐饮服务;咖啡厅;咖啡厅,050500,肇嘉浜路1111号美罗城A段1层34-2单元(商场内街),121.440153,31.193101,18501730708,4.4,28.00,社交餐饮|独处品质空间,上海市,上海市,徐汇区
B0HKDL60AE,Manner Coffee(云海大厦店),餐饮服务;咖啡厅;咖啡厅,050500,淮海中路1329号云海大厦F1层,121.449489,31.212046,16621025506,4.3,20.00,社交餐饮|独处品质空间,上海市,上海市,徐汇区
B0HGUGE9GL,M Stand(保利时光里店),餐饮服务;咖啡厅;咖啡厅,050500,瑞平路230号保利时光里购物中心1层01,121.455948,31.181912,18301933470,4.4,29.00,社交餐饮|独处品质空间,上海市,上海市,徐汇区
B0HGMX0175,星巴克臻选咖啡·焙烤坊(港汇恒隆广场北座店),餐饮服务;咖啡厅;星巴克咖啡|购物服务;购物相关场所;购物相关场所,050501|060000,虹桥路1号港汇恒隆广场北座1楼165A/178,121.436881,31.195073,021-64150012;021-64486377,4.6,49.00,社交餐饮|独处品质空间,上海市,上海市,徐汇区
B0HGFD6BI4,% Arabica阿拉比卡咖啡(港汇恒隆广场店),餐饮服务;咖啡厅;咖啡厅,050500,港汇恒隆广场B1层(徐家汇地铁站10号口步行270米),121.437518,31.194439,,4.2,37.00,社交餐饮|独处品质空间,上海市,上海市,徐汇区
B0HDXXASME,LAVAZZA拉瓦萨咖啡(上海IM长宁国际店),餐饮服务;咖啡厅;咖啡厅,050500,凯旋路1388号长宁国际广场T6栋1层01室,121.421555,31.198959,17721058461,4.2,35.00,社交餐饮|独处品质空间,上海市,上海市,长宁区
B0HBXCS49Z,Manner Coffee(日月光店),餐饮服务;咖啡厅;咖啡厅,050500,徐家汇路618号1F-CG02(中庭花园),121.467928,31.206224,021-63390882;15800468091,4.4,20.00,社交餐饮|独处品质空间,上海市,上海市,黄浦区
B0HBXCQHL0,Peet's Coffee皮爷咖啡(日月光店),餐饮服务;咖啡厅;咖啡厅,050500,徐家汇路618号1层1F-TK06室(田子坊2号门对面),121.469097,31.207490,13917262406,4.5,32.00,社交餐饮|独处品质空间,上海市,上海市,黄浦区
B0HB9ZEDMI,星巴克(上海徐汇滨江店),餐饮服务;咖啡厅;星巴克咖啡,050501,龙腾大道3222号1层101单元,121.463635,31.180804,021-54110270,4.6,46.00,社交餐饮|独处品质空间,上海市,上海市,徐汇区
B0H6HAEZ1E,星巴克臻选(上海上生新所店),餐饮服务;咖啡厅;星巴克咖啡,050501,延安西路1262号9幢地上第一层101单元,121.427707,31.207976,021-62371125,4.4,36.00,社交餐饮|独处品质空间,上海市,上海市,长宁区
B0H3ZOH8FL,瑞幸咖啡(IMshanghai长宁国际店),餐饮服务;咖啡厅;咖啡厅,050500,凯旋路1398号IM长宁国际LG层41号,121.420725,31.199875,4000100100,4.3,10.00,社交餐饮|独处品质空间,上海市,上海市,长宁区
B0H1U90GRH,M Stand(日月光中心泰康区店),餐饮服务;咖啡厅;咖啡厅,050500,徐家汇路618号日月光中心1F-TK03B(打浦桥地铁1号口),121.468523,31.207386,18502142916,4.3,36.00,社交餐饮|独处品质空间,上海市,上海市,黄浦区
B0H035SCCA,一尺花园(安和花园店),餐饮服务;咖啡厅;咖啡厅,050500,新华路179弄(近上影国际立体停车场),121.428934,31.202199,021-68538765,4.7,71.00,社交餐饮|独处品质空间,上海市,上海市,长宁区
B0GUA79TX0,VOYAGE COFFEE(永嘉路店),餐饮服务;咖啡厅;咖啡厅,050500,永嘉路502号,121.452725,31.206125,18964230737,4.4,38.00,社交餐饮|独处品质空间,上海市,上海市,徐汇区
B0GKXMEEQF,星巴克(上海天平邻里汇店),餐饮服务;咖啡厅;星巴克咖啡,050501,乌鲁木齐南路64弄4号(衡山路地铁站4号口步行400米),121.448429,31.205914,021-64391002,4.5,37.00,社交餐饮|独处品质空间,上海市,上海市,徐汇区
B0GKKCZ8XF,Manner Coffee(光启城店),餐饮服务;咖啡厅;咖啡厅,050500,宜山路455号光启城F1层(宜山路地铁站出入口步行240米),121.429147,31.183795,15221686493,4.4,20.00,社交餐饮|独处品质空间,上海市,上海市,徐汇区
B0GDR5CQBR,% Arabica阿拉比卡咖啡(建国西路店),餐饮服务;咖啡厅;咖啡厅,050500,建国西路481号,121.451285,31.202960,13391011105,4.4,38.00,社交餐饮|独处品质空间,上海市,上海市,徐汇区
B0G3LBDVAN,Arabica,餐饮服务;咖啡厅;咖啡厅,050500,武康路376号武康庭1层,121.439072,31.206897,13391031659;17301693358,4.4,36.00,社交餐饮|独处品质空间,上海市,上海市,徐汇区
B0G2OCI9TL,MOCHA猫咪咖啡(长宁中心店),餐饮服务;咖啡厅;咖啡厅,050500,安顺路118号-7(虹桥路地铁站号口步行490米),121.420018,31.202055,021-52580706,4.6,52.00,社交餐饮|独处品质空间,上海市,上海市,长宁区
B0G1ZK1O62,Manner Coffee(飞洲国际广场店),餐饮服务;咖啡厅;咖啡厅,050500,零陵路899号飞洲国际广场(零陵路)B1层,121.437352,31.183099,15800467984,4.2,20.00,社交餐饮|独处品质空间,上海市,上海市,徐汇区
B0G1BP7ED9,LAVAZZA拉瓦萨咖啡(上海美罗店),餐饮服务;咖啡厅;咖啡厅,050500,肇嘉浜路1111号1层,121.440131,31.193022,13122840063,4.4,30.00,社交餐饮|独处品质空间,上海市,上海市,徐汇区
B0G134YVE0,Manner Coffee(上海港汇恒隆广场店),餐饮服务;咖啡厅;咖啡厅,050500,徐家汇虹桥3号港汇中心二座大堂,121.436620,31.194583,15800466469,4.3,20.00,社交餐饮|独处品质空间,上海市,上海市,徐汇区
B0G107F6U6,% Arabica阿拉比卡咖啡(TWO ITC店),餐饮服务;咖啡厅;咖啡厅,050500,恭城路160号TWO itc F1层,121.436059,31.196846,17317734376,4.1,42.00,社交餐饮|独处品质空间,上海市,上海市,徐汇区
B0G02D5KMB,Manner Coffee(美罗城店),餐饮服务;咖啡厅;咖啡厅,050500,肇嘉浜路1111号美罗城B1层,121.439587,31.192815,15221686947,4.3,20.00,社交餐饮|独处品质空间,上海市,上海市,徐汇区
B0FFM8L4Q3,Peet's Coffee皮爷咖啡(ITC国贸汇店),餐饮服务;咖啡厅;咖啡厅,050500,华山路1901号上海国贸汇广场地下二层(LG2层)216室,121.438018,31.197618,13917410576,4.4,36.00,社交餐饮|独处品质空间,上海市,上海市,徐汇区
B0FFM89JVG,星巴克(上海打浦路店),餐饮服务;咖啡厅;星巴克咖啡,050501,打浦路58号1-2层裙房B区,121.469949,31.204104,021-63301290,4.5,42.00,社交餐饮|独处品质空间,上海市,上海市,黄浦区
B0FFM3LQ7R,瑞幸咖啡(瑞金商务中心店),餐饮服务;咖啡厅;咖啡厅,050500,肇嘉浜路100号瑞金商务中心一层105B室,121.465167,31.205106,4000100100,4.2,13.00,社交餐饮|独处品质空间,上海市,上海市,黄浦区
B0FFLNIUUG,瑞幸咖啡(虹桥路店),餐饮服务;咖啡厅;咖啡厅,050500,凯旋路1540号轨道交通三号线虹桥路站一层,121.421062,31.197364,4000100100,4.2,15.00,社交餐饮|独处品质空间,上海市,上海市,长宁区
B0FFLMMK67,瑞幸咖啡(南洋1931店),餐饮服务;咖啡厅;咖啡厅,050500,裕德路165号南洋1931B1层,121.433367,31.185875,4000100100,4.2,17.00,社交餐饮|独处品质空间,上海市,上海市,徐汇区
B0FFLH2TVK,铁手咖啡制造局(metalhands2店),餐饮服务;咖啡厅;咖啡厅|政府机构及社会团体;政府及社会团体相关;政府及社会团体相关,050500|130000,永嘉路37号,121.462683,31.210508,13269918959,4.7,48.00,社交餐饮|金融住宿政府|独处品质空间,上海市,上海市,黄浦区
B0FFL3HUG5,瑞幸咖啡(打浦桥日月光1F店),餐饮服务;咖啡厅;咖啡厅,050500,泰康路63号打浦桥日月光中心一层TK08-B室,121.469433,31.207586,4000100100,4.3,14.00,社交餐饮|独处品质空间,上海市,上海市,黄浦区
B0FFKQQYGG,面包咖啡好天气パンカフェ日和,餐饮服务;咖啡厅;咖啡厅,050500,永嘉路331号,121.457600,31.208795,13166302130,4.5,71.00,社交餐饮|独处品质空间,上海市,上海市,徐汇区
B0FFK9H5Y1,瑞幸咖啡(中金国际广场店),餐饮服务;咖啡厅;咖啡厅,050500,漕溪北路339号百脑汇一层,121.438523,31.190456,4000100100,4.3,12.00,社交餐饮|独处品质空间,上海市,上海市,徐汇区
B0FFK9DW9J,星巴克(嘉御庭店),餐饮服务;咖啡厅;星巴克咖啡,050501,建国西路258号(嘉善路地铁站2号口步行450米),121.459868,31.205767,021-54270483;021-54270493,4.6,29.00,社交餐饮|独处品质空间,上海市,上海市,徐汇区
B0FFK64YKB,瑞幸咖啡(百联徐汇商业广场一店),餐饮服务;咖啡厅;咖啡厅,050500,华山路2038号百联徐汇商业广场底商,121.437208,31.197180,4000100100,4.4,12.00,社交餐饮|独处品质空间,上海市,上海市,徐汇区
B0FFJGFQ0I,星巴克(上海东安路店),餐饮服务;咖啡厅;星巴克咖啡,050501,徐汇区东安路259号,121.457253,31.186268,021-34160179,4.6,51.00,社交餐饮|独处品质空间,上海市,上海市,徐汇区
B0FFIRF6BE,Tims咖啡(长宁利星行捷枫店),餐饮服务;咖啡厅;咖啡厅,050500,延安西路1319号101西室单元,121.425447,31.210582,021-62306721,4.2,38.00,社交餐饮|独处品质空间,上海市,上海市,长宁区
B0FFIL2DA7,星巴克(淮海西路店),餐饮服务;咖啡厅;星巴克咖啡,050501,淮海西路1号第1层A单元(交通大学地铁站3号口旁),121.435083,31.201942,021-32125602,4.6,45.00,社交餐饮|独处品质空间,上海市,上海市,徐汇区
B0FFIG2VN8,星巴克(汇京国际广场店),餐饮服务;咖啡厅;星巴克咖啡,050501,淮海西路555号汇京国际广场F1层103单元,121.423054,31.195891,021-52996895,4.6,38.00,社交餐饮|独处品质空间,上海市,上海市,徐汇区
B0FFI91CWR,星巴克(上海零陵路店),餐饮服务;咖啡厅;星巴克咖啡,050501,宛平南路521号B幢105室A单元,121.449301,31.188802,021-66566711,4.4,34.00,社交餐饮|独处品质空间,上海市,上海市,徐汇区
B0FFHPUSPP,星巴克(新淮海坊店),餐饮服务;咖啡厅;星巴克咖啡,050501,淮海西路676号淮海坊F1层01室,121.422693,31.196482,021-32090190,4.6,45.00,社交餐饮|独处品质空间,上海市,上海市,长宁区
B0FFHMDDTZ,TAN CAFE譚咖啡,餐饮服务;咖啡厅;咖啡厅,050500,高安路101-1号(肇嘉浜路与高安路交叉口),121.447379,31.199695,18117522808;18616734556,4.3,23.00,社交餐饮|独处品质空间,上海市,上海市,徐汇区
B00155LB7I,星巴克臻选(美罗城店),餐饮服务;咖啡厅;星巴克咖啡,050501,肇家浜路1111号美罗城2层219号(近漕溪北路),121.439677,31.193424,021-64268250,4.7,34.00,社交餐饮|独处品质空间,上海市,上海市,徐汇区
B0JRCDABNF,% Arabica阿拉比卡咖啡(上海影城店),餐饮服务;咖啡厅;咖啡厅,050500,上海影城(交通大学地铁站5号口步行480米),121.429924,31.202488,15300731585,4.2,46.00,社交餐饮|独处品质空间,上海市,上海市,长宁区
B0LG47BFT4,COFFEE IS(襄阳南路店),餐饮服务;咖啡厅;咖啡厅,050500,襄阳南路391-3号,121.458102,31.207027,19946100753,4.4,32.00,社交餐饮|独处品质空间,上海市,上海市,徐汇区
B0I2YSTDH8,星巴克(上海久隆国际大厦店),餐饮服务;咖啡厅;星巴克咖啡,050501,凯旋路1388号T1-01(虹桥路地铁站1号口步行170米),121.430382,31.203081,021-52720151,4.2,40.00,社交餐饮|独处品质空间,上海市,上海市,长宁区
B0HRHG1SX7,Manner Coffee(徐汇绿地缤纷城店),餐饮服务;咖啡厅;咖啡厅,050500,东安路562号绿地缤纷城西区B1层W-B125,121.456681,31.184083,13821319084;19822791986,4.3,20.00,社交餐饮|独处品质空间,上海市,上海市,徐汇区
B0FFL2TV5B,瑞幸咖啡(汇金百货徐汇店),餐饮服务;咖啡厅;咖啡厅,050500,肇嘉浜路1000号汇金百货B1层,121.440094,31.195654,4000100100,4.2,20.00,社交餐饮|独处品质空间,上海市,上海市,徐汇区
B0FFKSGL59,瑞幸咖啡(嘉利大厦店),餐饮服务;咖啡厅;咖啡厅,050500,延安西路1228弄2号嘉利大厦一层,121.427817,31.209854,4000100100,4.2,18.00,社交餐饮|独处品质空间,上海市,上海市,长宁区
B0FFI8BKU8,O.P.S. CAFE(太原路店),餐饮服务;咖啡厅;咖啡厅,050500,太原路177弄1号临(近建国西路),121.455320,31.205608,,4.8,66.00,社交餐饮|独处品质空间,上海市,上海市,徐汇区
B00156O2XJ,Cafe del Volcan,餐饮服务;咖啡厅;咖啡厅,050500,永康路25号,121.458909,31.211100,15618669291,4.7,44.00,社交餐饮|独处品质空间,上海市,上海市,徐汇区
B00154848C,提香研磨咖啡(徐家汇花园店),餐饮服务;咖啡厅;咖啡厅,050500,宛平南路263号(近斜土路),121.446679,31.193105,021-64261982;18930089422,4.7,64.00,社交餐饮|独处品质空间,上海市,上海市,徐汇区
B0LRUMBJBK,推浪咖啡 WAVEOFFcoffee,餐饮服务;咖啡厅;咖啡厅,050500,建国西路550号101室,121.450572,31.202860,17721256059,4.6,58.00,社交餐饮|独处品质空间,上海市,上海市,徐汇区
B0LRDM53C2,SHONEN JUMP CAFE,餐饮服务;咖啡厅;咖啡厅,050500,肇嘉浜路1111号美罗城A段第二层2-18单元,121.439543,31.193307,021-33567512,4.7,126.00,社交餐饮|独处品质空间,上海市,上海市,徐汇区
B0LG9SW6X9,酱扑·家庭料理·意面吐司咖啡,餐饮服务;咖啡厅;咖啡厅,050500,昭化路357号德必易园沿街101号,121.424527,31.211783,18918689403,4.3,58.00,社交餐饮|独处品质空间,上海市,上海市,长宁区
B0LAM5C7YI,特写南站线下体验空间,餐饮服务;咖啡厅;咖啡厅,050500,淮海中路上方花园1285弄24号3楼,121.452055,31.212837,,4.5,51.00,社交餐饮|独处品质空间,上海市,上海市,徐汇区
B0LA7ZOAAO,Hey Barista,餐饮服务;咖啡厅;咖啡厅,050500,衡山路880号,121.440007,31.196353,17821127736,4.4,54.00,社交餐饮|独处品质空间,上海市,上海市,徐汇区
B0L29RRDES,米店咖啡馆,餐饮服务;咖啡厅;咖啡厅,050500,平江路115号,121.455237,31.200051,13262576713,4.5,40.00,社交餐饮|独处品质空间,上海市,上海市,徐汇区
B0L15H0EUV,Honky Tonk Coffee,餐饮服务;咖啡厅;咖啡厅,050500,襄阳南路262号(陕西南路地铁站7号口步行430米),121.457435,31.211080,17512117707,4.4,21.00,社交餐饮|独处品质空间,上海市,上海市,徐汇区
B0KRBZJ18N,Coffee Dealer咖啡丢了(锦和巴黎时韵店),餐饮服务;咖啡厅;咖啡厅,050500,建国西路310号,121.457855,31.205081,,4.4,92.00,社交餐饮|独处品质空间,上海市,上海市,徐汇区
B0KKSDHR2U,Surry Hills Coffee,餐饮服务;咖啡厅;咖啡厅,050500,新华路165号,121.429011,31.202112,15618605289,4.4,43.00,社交餐饮|独处品质空间,上海市,上海市,长宁区
B0KGT17TUC,POLLY波麗咖啡(星期天公园店),餐饮服务;咖啡厅;咖啡厅,050500,延安西路1221号泛太大厦F1层,121.427916,31.210877,021-53555386,4.7,51.00,社交餐饮|独处品质空间,上海市,上海市,长宁区
B0KGH54XVJ,Cafe di wine,餐饮服务;咖啡厅;咖啡厅,050500,吴兴路248号(衡山路地铁站1号口步行430米),121.444871,31.200763,17321013134,4.4,128.00,社交餐饮|独处品质空间,上海市,上海市,徐汇区
B0KG9R62W6,BlueBottleCoffee蓝瓶咖啡(上生新所店),餐饮服务;咖啡厅;咖啡厅,050500,延安西路1262号上生新所15号楼1层101A单元,121.427504,31.207885,15300974448,4.5,41.00,社交餐饮|独处品质空间,上海市,上海市,长宁区
B0KA9SN68X,悉达多咖啡工作室,餐饮服务;咖啡厅;咖啡厅,050500,建国西路与太原路交叉口西南140米,121.454270,31.203732,13524039158,4.4,56.00,社交餐饮|独处品质空间,上海市,上海市,徐汇区
B0KA3RKQM7,DayDreaming Cafe(襄阳路店),餐饮服务;咖啡厅;咖啡厅,050500,襄阳南路342号,121.457886,31.208547,18930127861,4.4,52.00,社交餐饮|独处品质空间,上海市,上海市,徐汇区
B0KA1ZPTNT,大小乐咖啡商店(陕西南路488弄小区店),餐饮服务;咖啡厅;咖啡厅,050500,陕西南路488弄小区,121.461140,31.210140,,4.6,52.00,社交餐饮|独处品质空间,上海市,上海市,徐汇区
B0K2PHJJ0X,CaptainGeorge风味博物馆,餐饮服务;咖啡厅;咖啡厅,050500,太原路236号,121.455523,31.204039,,4.7,77.00,社交餐饮|独处品质空间,上海市,上海市,徐汇区
B0K1VZP4P4,Naif Coffee·Bistro,餐饮服务;咖啡厅;咖啡厅,050500,延安西路1262号上生新所6号楼201&203,121.426876,31.208544,021-52585220,4.4,134.00,社交餐饮|独处品质空间,上海市,上海市,长宁区
B0JRXD0I0L,一爆末咖啡(武夷路店),餐饮服务;咖啡厅;咖啡厅,050500,武夷路420号,121.421888,31.212807,13248303626;13817953626,4.2,38.00,社交餐饮|独处品质空间,上海市,上海市,长宁区
B0JR461DID,3½三又二分之一,餐饮服务;咖啡厅;咖啡厅,050500,太原路305弄1-10号太原路305弄,121.456159,31.202849,17621318646,4.6,63.00,社交餐饮|独处品质空间,上海市,上海市,徐汇区
B0JGA7E8BR,UshineCoffee酉光咖啡工坊,餐饮服务;咖啡厅;咖啡厅,050500,永嘉路671号(衡山路地铁站1号口步行110米),121.447314,31.203984,13817966938,4.4,57.00,社交餐饮|独处品质空间,上海市,上海市,徐汇区
B0JDDMYCXI,777Cafe,餐饮服务;咖啡厅;咖啡厅,050500,永嘉路15弄4号东,121.464974,31.211365,15900575808,4.4,23.00,社交餐饮|独处品质空间,上海市,上海市,黄浦区
B0JD5107M1,GASU,餐饮服务;咖啡厅;咖啡厅,050500,法华镇路455-7号,121.426429,31.204693,15601641713,4.3,29.00,社交餐饮|独处品质空间,上海市,上海市,长宁区
B0JD3X11B5,一期一会·Better Together Cafe,餐饮服务;咖啡厅;咖啡厅,050500,泰安路115弄(交通大学地铁站7号口步行450米),121.435910,31.204810,13501631000,4.5,51.00,社交餐饮|独处品质空间,上海市,上海市,长宁区
B0K1TBWKUB,华祥苑茗茶(新华路国缤店),餐饮服务;冷饮店;冷饮店,050700,新华路398号,121.425045,31.203734,13321891617;13671880266,4.2,134.00,社交餐饮|独处品质空间,上海市,上海市,长宁区
B0JRPSMMY8,裕莲茶楼(美罗城店),餐饮服务;茶艺馆;茶艺馆|餐饮服务;冷饮店;冷饮店,050600|050700,肇嘉浜路1111号美罗城2F层2-18B-2,121.439704,31.192822,19916535081,4.5,29.00,社交餐饮|独处品质空间,上海市,上海市,徐汇区
B0IK57UTBM,CAN COMPANY(瑞金社区店),餐饮服务;咖啡厅;咖啡厅|餐饮服务;冷饮店;冷饮店,050500|050700,瑞金二路272-1号(打浦桥地铁站4号口步行200米),121.466640,31.207827,17521136581,4.3,60.00,社交餐饮|独处品质空间,上海市,上海市,黄浦区
B0L1LREQV9,DünDun&Co.,餐饮服务;糕饼店;糕饼店,050800,衡山路199号109室(衡山路地铁站4号口步行60米),121.447201,31.204744,18001766983,4.9,61.00,社交餐饮|独处品质空间,上海市,上海市,徐汇区
B0L0DZN04L,Folder Bakery&Coffee,餐饮服务;糕饼店;糕饼店,050800,乌鲁木齐南路205号104室,121.450232,31.200503,17521619916,4.6,65.00,社交餐饮|独处品质空间,上海市,上海市,徐汇区
B0G07D33MT,隐溪茶馆(幸福里店),生活服务;生活服务场所;生活服务场所,070000,幸福里381号8号楼,121.429997,31.204449,021-62361761,4.4,138.00,购物菜场|独处品质空间,上海市,上海市,长宁区
B0FFKSGLXT,聚贤阁棋牌茶楼(家宁生活广场店),餐饮服务;茶艺馆;茶艺馆,050600,大木桥路428号家宁生活广场F1层,121.462205,31.196398,021-54489700,4.4,67.00,生活服务|独处品质空间,上海市,上海市,徐汇区
B0LDL7LWI5,君安·棋牌·茶馆(徐家汇店),体育休闲服务;娱乐场所;棋牌室,080306,南丹东路255号6楼(徐家汇地铁站2号口步行130米),121.438761,31.189435,15618777686,4.5,75.00,生活服务|体育休闲|独处品质空间,上海市,上海市,徐汇区
B0FFLLKOQ6,御丰茶室棋牌(徐汇店),体育休闲服务;体育休闲服务场所;体育休闲服务场所,080000,交通大学广元西路627号近乐山路,121.431311,31.194258,021-64680089;18017121017,4.4,74.00,生活服务|独处品质空间,上海市,上海市,徐汇区
B0H6LGC3XS,晴天棋牌茶馆(辽油大厦店),餐饮服务;茶艺馆;茶艺馆,050600,定西路1100号辽油大厦F2层,121.423560,31.211771,13916281154,4.5,57.00,生活服务|独处品质空间,上海市,上海市,长宁区
B0HKO7HSD0,盈甲棋牌茶室(徐汇滨江店),体育休闲服务;体育休闲服务场所;体育休闲服务场所,080000,宛平南路927号二楼,121.452168,31.183305,18049981632,4.2,42.00,生活服务|独处品质空间,上海市,上海市,徐汇区
B0JUFYLAIJ,开禧739·棋牌茶室,体育休闲服务;娱乐场所;棋牌室,080306,漕溪北路739号4楼(上海体育馆地铁站1号口步行280米),121.437405,31.184731,19370560739,4.5,163.00,生活服务|体育休闲|独处品质空间,上海市,上海市,徐汇区
B0K3R5WCOJ,田之芽.棋牌.茶室,体育休闲服务;娱乐场所;棋牌室,080306,天钥桥路500弄(上海体育场地铁站3号口步行290米),121.441903,31.185762,15801769086,3.7,[],生活服务|独处品质空间,上海市,上海市,徐汇区
B0FFKJZ4DH,草婴书房,科教文化服务;博物馆;博物馆,140100,乌鲁木齐南路178号3号楼(衡山路地铁站1号口步行420米),121.448870,31.203077,19946177295,4.0,[],文化地标|独处品质空间,上海市,上海市,徐汇区
B0FFGJ9EF8,金城艺术画廊,科教文化服务;展览馆;展览馆,140200,文定路218号C栋C127承接大型壁画酒店家居配画个性化私人定制,121.431353,31.186146,18317032098,3.9,[],文化地标|银发极客_科技体验|独处品质空间,上海市,上海市,徐汇区
B0FFF2YL75,龙美术馆(西岸馆),科教文化服务;美术馆;美术馆,140400,龙腾大道3398号,121.464761,31.183954,021-64227636,4.8,[],文化地标|银发极客_科技体验|独处品质空间,上海市,上海市,徐汇区
B00153E97D,上海市徐汇区艺术馆,科教文化服务;美术馆;美术馆,140400,淮海中路1413号(常熟路地铁站7号口步行330米),121.448216,31.210155,021-64336516;021-64313738,4.4,[],文化地标|银发极客_科技体验|独处品质空间,上海市,上海市,徐汇区
B00155KHGE,上海中国画院美术馆,科教文化服务;美术馆;美术馆,140400,岳阳路197号,121.452796,31.204502,021-64749977,4.6,[],文化地标|银发极客_科技体验|独处品质空间,上海市,上海市,徐汇区
B0FFHGOWN5,Capsule,科教文化服务;美术馆;美术馆,140400,安福路275弄16号1层,121.441872,31.212759,021-64170700,4.2,[],文化地标|银发极客_科技体验|独处品质空间,上海市,上海市,徐汇区
B0LAXRZ02B,山也美术馆,科教文化服务;美术馆;美术馆,140400,番禺路222弄上生新所(东南角),121.428287,31.207632,,4.4,[],文化地标|银发极客_科技体验|独处品质空间,上海市,上海市,长宁区
B0FFKQOPRF,秋海堂艺术馆,科教文化服务;美术馆;美术馆|科教文化服务;培训机构;培训机构,140400|141400,衡山路525号凯文公寓副楼2层,121.443970,31.200601,13585668808,4.3,[],文化地标|银发极客_科技体验|独处品质空间,上海市,上海市,徐汇区
B0KADCTUR8,上海正好美术馆,科教文化服务;美术馆;美术馆,140400,番禺路300弄7号B幢,121.428370,31.204495,13918927754,4.4,[],文化地标|银发极客_科技体验|独处品质空间,上海市,上海市,长宁区
B0FFFY63FU,田子坊美术馆,科教文化服务;美术馆;美术馆,140400,210弄9号站(打浦桥地铁站1号口步行160米),121.469027,31.208676,15915555598,4.2,[],文化地标|银发极客_科技体验|独处品质空间,上海市,上海市,黄浦区
B0J02SP3J5,DOSE画廊,科教文化服务;美术馆;美术馆,140400,五原路212弄7号底楼花园(常熟路地铁站8号口步行430米),121.445396,31.212973,19121363485,4.1,[],文化地标|银发极客_科技体验|独处品质空间,上海市,上海市,徐汇区
B0FFK9TN8C,墨琛画廊,科教文化服务;美术馆;美术馆,140400,新华路430号,121.424170,31.204082,13247760255,4.0,[],文化地标|银发极客_科技体验|独处品质空间,上海市,上海市,长宁区
B0LKJH1MCU,原野上美术馆·KONG-Art Gallery,科教文化服务;美术馆;美术馆,140400,法华镇路525号二楼,121.425548,31.205145,,3.8,[],文化地标|银发极客_科技体验|独处品质空间,上海市,上海市,长宁区
B0FFFTCSPN,上海明圆美术馆(暂停开放),科教文化服务;美术馆;美术馆,140400,复兴中路1199号明园商务中心A座地下一层,121.458872,31.212709,,4.3,[],文化地标|银发极客_科技体验|独处品质空间,上海市,上海市,徐汇区
B0G2K1VSOD,茑屋书店,购物服务;专卖店;书店,061205,延安西路1262号上生·新所7号楼哥伦比亚乡村俱乐部内,121.427656,31.208543,021-60193128,4.7,[],文化地标|独处品质空间,上海市,上海市,长宁区
B00155F57R,博库书城,购物服务;专卖店;书店,061205,宜山路515号(宜山路地铁站9号口步行440米),121.425573,31.180244,021-64516666,4.5,[],文化地标|独处品质空间,上海市,上海市,徐汇区
B0K61SSQPD,钟书阁(绿地中心国际广场店),购物服务;专卖店;书店,061205,东安路562号徐汇绿地缤纷城西区F1层,121.456486,31.184011,021-54356786,4.5,[],文化地标|独处品质空间,上海市,上海市,徐汇区
B0K61ZQFEF,大隐书局·印象武康主题店,购物服务;专卖店;书店,061205,淮海中路1834-1号(交通大学地铁站7号口步行450米),121.438656,31.204546,021-33566912,4.6,[],文化地标|独处品质空间,上海市,上海市,徐汇区
B00154DF7O,新华书店教材书店(大木桥门店),购物服务;专卖店;书店,061205,大木桥路499号(大木桥路地铁站4号口步行90米),121.463401,31.194984,021-64162792,4.4,[],文化地标|独处品质空间,上海市,上海市,徐汇区
B0L3L7Q4EV,悦沢书店(上海徐汇店),餐饮服务;餐饮相关场所;餐饮相关,050000,宜山路455号光启城B2层01-1,121.428641,31.183866,,4.2,[],文化地标|独处品质空间,上海市,上海市,徐汇区
B0HDXA9W21,交大书院,科教文化服务;培训机构;培训机构,141400,番禺路951号,121.428469,31.195578,021-61675277,3.8,[],文化地标|独处品质空间,上海市,上海市,徐汇区
B0I65H6T2B,钟书阁(绿地中心国际广场店),购物服务;专卖店;书店,061205,东安路562号徐汇绿地缤纷城西区F1层,121.456716,31.184124,13564671829,4.3,[],文化地标|独处品质空间,上海市,上海市,徐汇区
B0LG27KF0A,小森林书店,购物服务;专卖店;书店,061205,延安西路1221号泛太大厦2号楼1层底商,121.427889,31.210828,13524796208;18017251036,4.4,[],文化地标|独处品质空间,上海市,上海市,长宁区
B0JRHCK3X7,物邸BOOKSTORE(中南新邨店),购物服务;专卖店;书店,061205,湖南路11号(上海图书馆地铁站3号口步行170米),121.442495,31.208114,13355780900,4.3,[],文化地标|独处品质空间,上海市,上海市,徐汇区
B0FFLEZRXE,元龙音乐书店武康大楼店,购物服务;专卖店;书店,061205,淮海中路1852号(交通大学地铁站7口步行410米),121.438244,31.204281,17721392376,4.2,[],文化地标|独处品质空间,上海市,上海市,徐汇区
B0L64U5LVJ,PaperMoon Bookshop,购物服务;专卖店;书店,061205,天平路42号(交通大学地铁站1号口步行460米),121.437685,31.202680,13311960769,4.3,[],文化地标|独处品质空间,上海市,上海市,徐汇区
B00154FCZQ,上海党建书店,购物服务;专卖店;书店,061205,高安路21号(衡山路地铁站2号口步行190米),121.445062,31.204531,021-64332301,4.1,[],文化地标|独处品质空间,上海市,上海市,徐汇区
B00154SB6H,立信财经书店,购物服务;专卖店;书店,061205,中山西路2230号2号楼底楼,121.428858,31.181603,021-63226239,4.2,[],文化地标|独处品质空间,上海市,上海市,徐汇区
B00155GLNK,天梯书屋(清真路店),购物服务;专卖店;书店,061205,清真路25号(近大木桥路)(嘉善路地铁站4号口步行220米),121.460756,31.199883,021-64180753;021-64180833,4.1,[],文化地标|独处品质空间,上海市,上海市,徐汇区
B0FFF3AHOW,雨书屋,购物服务;专卖店;书店,061205,建国西路312号,121.457737,31.205036,13166194912,3.8,[],文化地标|独处品质空间,上海市,上海市,徐汇区
B0FFIBJ5KR,明室私人书房(惠安坊店),购物服务;专卖店;书店,061205,绍兴路94号二楼(惠安坊进入),121.462747,31.208902,,4.1,[],文化地标|独处品质空间,上海市,上海市,黄浦区
B0FFGOFN80,此时此地礼物,购物服务;专卖店;书店,061205,泰康路248弄51-3号(1号门田子坊美术馆对面),121.468899,31.208638,13538188284,3.9,[],文化地标|独处品质空间,上海市,上海市,黄浦区
B0K2VR9SN3,UNO garden,购物服务;购物相关场所;购物相关场所,060000,永福路51号,121.444058,31.211122,,4.1,[],文化地标|独处品质空间,上海市,上海市,徐汇区
B0HANUMU6V,新华传媒教材书店(中山南二路),购物服务;专卖店;书店,061205,大木桥路499号(大木桥路地铁站4号口步行80米),121.463424,31.194874,021-64162792,3.9,[],文化地标|独处品质空间,上海市,上海市,徐汇区
B0FFG0X04L,建科书店(汇成桂苑店),购物服务;专卖店;书店,061205,清真路22号(嘉善路地铁站4号口步行310米),121.459825,31.199750,021-64187462;021-64226671,3.8,[],文化地标|独处品质空间,上海市,上海市,徐汇区
B0FFFXU4MT,新华书店(环线广场店),购物服务;专卖店;书店,061205,宜山路515号(宜山路地铁站9号口步行420米),121.425661,31.180093,,4.0,[],文化地标|独处品质空间,上海市,上海市,徐汇区
B0FFIUSQT7,幸福集荟(番禺路店),购物服务;专卖店;书店,061205,番禺路381号4号楼,121.429741,31.204570,,4.1,[],文化地标|独处品质空间,上海市,上海市,长宁区
B0L0Z5EVPD,梵隅书房,购物服务;专卖店;书店,061205,定西路788号凯阳大厦802,121.424067,31.208877,,3.5,[],文化地标|独处品质空间,上海市,上海市,长宁区
B0L0TUAUMP,先锋书屋(绿地缤纷城店),购物服务;专卖店;书店,061205,东安路562号徐汇绿地缤纷城西区(龙华中路地铁站7号口旁),121.456499,31.184057,,3.4,[],文化地标|独处品质空间,上海市,上海市,徐汇区
B0FFFGN5FP,欣达文具店晨光文具(番禺路小区店),购物服务;文化用品店;文化用品店,060800,番禺路168号,121.428752,31.206838,13917888773,4.0,[],文化地标|独处品质空间,上海市,上海市,长宁区
B0FFKZ2D7R,画家街,购物服务;特色商业街;特色商业街|科教文化服务;培训机构;培训机构,061000|141400,文定路210号,121.432129,31.185787,,4.4,[],文化地标|独处品质空间,上海市,上海市,徐汇区
B0KR279Q99,香格纳画廊(西岸中环),科教文化服务;科教文化场所;科教文化场所,140000,西岸瑞宁路288号4幢,121.468958,31.188370,,[],[],文化地标|独处品质空间,上海市,上海市,徐汇区
B0J2FZ4IFJ,AMBELIE GALLERY家居画廊(上海),购物服务;购物相关场所;购物相关场所|科教文化服务;科教文化场所;科教文化场所,060000|140000,康平路21号,121.443837,31.204293,15900724072,4.4,[],文化地标|独处品质空间,上海市,上海市,徐汇区
B0G26XO5AW,尚艺画廊,科教文化服务;科教文化场所;科教文化场所,140000,东安路888号13幢,121.462482,31.181354,15601697114,3.9,[],文化地标|独处品质空间,上海市,上海市,徐汇区
B0FFHC0H3P,一凡画廊(大地大楼店),购物服务;专卖店;古玩字画店,061201,文定路228号B118,121.431503,31.185973,13167212073,4.1,[],文化地标|独处品质空间,上海市,上海市,徐汇区
B0LKVA3K67,大美术馆 BigGallery(武康大楼店),科教文化服务;科教文化场所;科教文化场所,140000,淮海中路1974号,121.437086,31.203576,,4.1,[],文化地标|独处品质空间,上海市,上海市,长宁区
B00156TM32,博艺画廊裱画配框字画,购物服务;专卖店;古玩字画店|生活服务;生活服务场所;生活服务场所,061201|070000,宛平南路215号,121.446373,31.193698,13501793291;13636351009,4.2,323.00,文化地标|独处品质空间,上海市,上海市,徐汇区
B0FFGBXVVG,上源艺术画廊(大地大楼店),购物服务;专卖店;古玩字画店,061201,文定路218号画家街B120号,121.431441,31.186041,13127658049,3.8,[],文化地标|独处品质空间,上海市,上海市,徐汇区
B00155A6YY,洁思园画廊有限公司,购物服务;专卖店;古玩字画店,061201,武康路437号(交通大学地铁站7号口步行450米),121.438365,31.204727,021-64339703,3.8,[],文化地标|独处品质空间,上海市,上海市,徐汇区
B0JKKMD2U9,上海古籍画廊,购物服务;专卖店;古玩字画店,061201,肇嘉浜路407号中国科学院上海分院研究生公寓,121.458023,31.201704,021-63331588;13361831576,3.4,[],文化地标|独处品质空间,上海市,上海市,徐汇区
B00155GBK1,虹墙画廊(大地大楼店),购物服务;专卖店;古玩字画店,061201,文定路218号B158虹墙画廊,121.432225,31.186025,13062785228;18217409539,3.6,[],文化地标|独处品质空间,上海市,上海市,徐汇区
B0JD21M0HK,典尚画廊(梧桐画室),购物服务;购物相关场所;购物相关场所,060000,陕西南路307弄1号1802-2,121.462402,31.206333,021-51797966;13818474461,3.2,[],文化地标|独处品质空间,上海市,上海市,黄浦区
B0FFGBPKOC,画林画廊,科教文化服务;科教文化场所;科教文化场所,140000,文定路218号画家街C101,121.431051,31.186080,15001952903,4.0,[],文化地标|独处品质空间,上海市,上海市,徐汇区
B0FFHPMN91,菲林艺术画廊(安宁邨店),购物服务;专卖店;古玩字画店,061201,陕西南路257号菲林画廊,121.461842,31.207994,13917425950,3.5,[],文化地标|独处品质空间,上海市,上海市,黄浦区
B0JGKLT1DD,上海只是儿童艺术馆,科教文化服务;科教文化场所;科教文化场所,140000,乌鲁木齐南路155号,121.449446,31.202921,,4.2,[],文化地标|独处品质空间,上海市,上海市,徐汇区
B00155GK65,沈利画廊(大地大楼店),购物服务;专卖店;古玩字画店,061201,文定路218号大地大楼F1层,121.431233,31.186292,13681692859,3.0,[],文化地标|独处品质空间,上海市,上海市,徐汇区
B0L0RO75V1,MOMO画廊,科教文化服务;培训机构;培训机构,141400,乐山支路与秀山支路交叉口北160米,121.429225,31.197875,,1.5,[],文化地标|独处品质空间,上海市,上海市,徐汇区
B0H39DRRH9,汇艺术馆(淮海中路馆),科教文化服务;科教文化场所;科教文化场所,140000,淮海中路1400号(常熟路地铁站7号口步行210米),121.448409,31.211247,17721211822,4.0,[],文化地标|独处品质空间,上海市,上海市,徐汇区
B0H2JDTYP6,爱佳装饰艺术馆,公司企业;公司;广告装饰,170201,上海中誉市政开发有限公司东南门旁,121.425249,31.180721,15061976221,4.0,[],文化地标|独处品质空间,上海市,上海市,徐汇区
B0KUFC8TF3,苍天书画馆,风景名胜;风景名胜相关;旅游景点,110000,泰康路与瑞金二路交叉口东北200米,121.468858,31.208164,,3.2,[],文化地标|独处品质空间,上海市,上海市,黄浦区
B0FFLCID82,衡复艺术中心,风景名胜;风景名胜相关;旅游景点,110000,乌鲁木齐南路178号1号楼(衡山路地铁站1号口步行410米),121.449008,31.203268,,4.4,[],文化地标|独处品质空间,上海市,上海市,徐汇区
B0GRMH0UW4,嘉澜庭口袋公园,风景名胜;公园广场;公园,110101,永嘉路309号,121.458472,31.209178,,4.2,[],风景名胜|独处品质空间,上海市,上海市,徐汇区
B0J23A33H7,天钥桥路口袋公园,风景名胜;公园广场;公园,110101,汇联商厦南侧(徐家汇地铁站10号口步行400米),121.441475,31.192395,,3.7,[],风景名胜|独处品质空间,上海市,上海市,徐汇区
B0FFFWUENB,湖南路兴国路口街心花园,风景名胜;公园广场;公园,110101,湖南路511弄18号,121.436610,31.208725,,3.8,[],风景名胜|独处品质空间,上海市,上海市,徐汇区
B0MBDAG5YZ,安顺新境儿童友好口袋公园,风景名胜;公园广场;公园,110101,安顺路与定西路交口东北角,121.422998,31.201627,,2.7,[],风景名胜|独处品质空间,上海市,上海市,长宁区
B0FFGZ1PY2,湖南街道办事处文体广场,风景名胜;公园广场;城市广场,110105,湖南路511弄18号湖南路兴国路口街心花园(西南角),121.436222,31.208536,,3.3,[],风景名胜|独处品质空间,上海市,上海市,徐汇区
B001513753,基督教国际礼拜堂,风景名胜;风景名胜;教堂,110206,衡山路53号,121.448059,31.206195,021-64376576,4.3,[],风景名胜|独处品质空间,上海市,上海市,徐汇区
B00154815D,天主教上海教区主教府(不对外开放),风景名胜;风景名胜;教堂,110206,蒲西路120号,121.436967,31.191547,021-64412211,4.1,[],风景名胜|独处品质空间,上海市,上海市,徐汇区
B0FFGJQOL3,徐家汇大修道院,风景名胜;风景名胜;风景名胜,110200,南丹路40号(徐家汇地铁站1号口步行150米),121.435768,31.188598,,4.0,[],风景名胜|独处品质空间,上海市,上海市,徐汇区
B0KUFCUTG4,朝隐寺库,风景名胜;风景名胜;寺庙道观,110205,肇嘉浜路与高安路交叉口西60米,121.447033,31.198908,,3.4,[],风景名胜|独处品质空间,上海市,上海市,徐汇区
B0H3TUK613,天主教上海教区徐家汇圣依纳爵主教座堂,风景名胜;风景名胜;教堂,110206,蒲西路158号(徐家汇地铁站8号口步行170米),121.436099,31.191164,021-64382595;021-64412211,4.7,[],风景名胜|独处品质空间,上海市,上海市,徐汇区
B0H1ULZ4YM,Metal hands铁手咖啡,体育休闲服务;娱乐场所;娱乐场所,080300,南丹路15号1楼二单元(徐家汇地铁站1号口步行160米),121.435560,31.189519,13127544675,4.5,46.00,体育休闲|独处品质空间,上海市,上海市,徐汇区
B0JBT56DJZ,集雅GATHERING咖啡(五原路店),体育休闲服务;休闲场所;休闲场所,080500,五原路263号,121.443486,31.212055,13601972652,4.5,56.00,体育休闲|独处品质空间,上海市,上海市,徐汇区
B0H3SBIT4W,T12 Lab,购物服务;购物相关场所;购物相关场所,060000,乌鲁木齐南路288号一楼,121.449564,31.201851,021-64225537,4.8,47.00,独处品质空间,上海市,上海市,徐汇区
B0K1FLQUVC,米仓POP(乌鲁木齐南路店),餐饮服务;餐饮相关场所;餐饮相关,050000,乌鲁木齐南路288号(肇嘉浜路地铁站2号口步行300米),121.449554,31.201789,13524015886,4.7,66.00,独处品质空间,上海市,上海市,徐汇区
B0LBL1S5KY,福叁咖啡&小红帽三明治,餐饮服务;餐饮相关场所;餐饮相关,050000,延安西路1566号大厦内入口左侧一层,121.420854,31.208335,18721991722,4.7,66.00,独处品质空间,上海市,上海市,长宁区
B0FFF5SHWP,星巴克臻选(衡山坊店),餐饮服务;咖啡厅;星巴克咖啡,050501,衡山路890弄3号(徐家汇地铁站13号口步行190米),121.439607,31.195729,021-54650157,4.7,32.00,独处品质空间,上海市,上海市,徐汇区
B0FFJ04PZE,Peet's Coffee皮爷咖啡(武康路店),餐饮服务;咖啡厅;咖啡厅,050500,上海城区武康路378号1楼,121.439222,31.206402,13651814956,4.6,42.00,独处品质空间,上海市,上海市,徐汇区
B001574MY2,星巴克(武康路店),餐饮服务;咖啡厅;星巴克咖啡,050501,武康路420号1F(交通大学地铁站7号口步行430米),121.437837,31.204474,021-54560060,4.7,40.00,独处品质空间,上海市,上海市,徐汇区
B0GK3HUJ6O,DayDreaming Cafe(永嘉路店),餐饮服务;咖啡厅;咖啡厅,050500,永嘉路285-287号,121.458960,31.209307,15800789910,4.5,63.00,独处品质空间,上海市,上海市,徐汇区
B0FFG4D52R,星巴克(飞洲国际广场店),餐饮服务;咖啡厅;星巴克咖啡,050501,零陵路899号飞洲国际广场(零陵路)F1层,121.437994,31.183254,021-54655695;021-60782939,4.6,34.00,独处品质空间,上海市,上海市,徐汇区
B0FFG0Y8FE,星巴克(好望角店),餐饮服务;咖啡厅;星巴克咖啡,050501,肇嘉浜路500号(肇嘉浜路地铁站2号口步行460米),121.454274,31.201145,021-54562350;021-60782939;021-61261867,4.7,40.00,独处品质空间,上海市,上海市,徐汇区
B0FFJFU0XS,星巴克(光启城店),餐饮服务;咖啡厅;星巴克咖啡,050501,宜山路455号光启城L1层183&185室,121.427960,31.183763,021-64750161,4.4,38.00,独处品质空间,上海市,上海市,徐汇区
B00155ILW5,星巴克(汾阳路店),餐饮服务;咖啡厅;星巴克咖啡,050501,汾阳路138号轻科大厦1层03单元,121.453091,31.209883,021-54650525,4.6,39.00,独处品质空间,上海市,上海市,徐汇区
B0H1U5WZAQ,BIG SUR COFFEE(永嘉路店),餐饮服务;咖啡厅;咖啡厅,050500,永嘉路277号底层,121.459402,31.209359,17316587410,4.5,46.00,独处品质空间,上海市,上海市,徐汇区
B00155L4U8,星巴克(嘉汇店),餐饮服务;咖啡厅;星巴克咖啡,050501,天钥桥路323号(近嘉汇广场),121.442123,31.188529,021-64262192,4.7,33.00,独处品质空间,上海市,上海市,徐汇区
B0FFJ3U6JV,HUGO HUSKY HOUSE,餐饮服务;餐饮相关场所;餐饮相关,050000,永嘉路227号甲,121.460978,31.209919,13764616126;18116276126,4.7,109.00,独处品质空间,上海市,上海市,徐汇区
B0FFIS07G9,老麦咖啡馆(武康路店),餐饮服务;咖啡厅;咖啡厅,050500,武康路439号(交通大学地铁站7号口步行410米),121.438148,31.204340,19921449569,4.6,63.00,独处品质空间,上海市,上海市,徐汇区
B0FFJ3TODH,星巴克(南洋1931店),餐饮服务;咖啡厅;星巴克咖啡,050501,裕德路165号南洋1931大厦1层F1-04室,121.432726,31.186020,021-33687273,4.6,32.00,独处品质空间,上海市,上海市,徐汇区
B00155H8SE,星巴克(上海瑞丽大厦店),餐饮服务;咖啡厅;星巴克咖啡,050501,淮海中路1325号瑞丽大厦1层103室,121.449925,31.212375,021-54661781,4.6,34.00,独处品质空间,上海市,上海市,徐汇区
B0FFHGKJME,星巴克咖啡(茶陵北路店),餐饮服务;咖啡厅;星巴克咖啡,050501,茶陵北路20号A1室,121.464982,31.198847,021-54362220;021-60782939;4008206998,4.6,32.00,独处品质空间,上海市,上海市,徐汇区
B0IB1UFJVN,DOU COFFEE ROASTERS,餐饮服务;咖啡厅;咖啡厅,050500,嘉善路121号,121.459373,31.209921,18939962770,4.5,46.00,独处品质空间,上海市,上海市,徐汇区
B0G0CUXNTM,BRICK LANE板砖咖啡(乌南店),餐饮服务;咖啡厅;咖啡厅,050500,乌鲁木齐南路121号(衡山路地铁站1号口步行290米),121.448975,31.204925,15712635379,4.4,36.00,独处品质空间,上海市,上海市,徐汇区
B00155H8S9,星巴克(均瑶店),餐饮服务;咖啡厅;星巴克咖啡,050501,肇嘉浜路789号均瑶国际广场1层,121.448591,31.198294,021-64161632,4.6,37.00,独处品质空间,上海市,上海市,徐汇区
B0FFFT3D3Q,星巴克(枫林国际大厦店),餐饮服务;咖啡厅;星巴克咖啡,050501,枫林路380号枫林国际大厦1层102室,121.457700,31.191302,021-54593327,4.6,33.00,独处品质空间,上海市,上海市,徐汇区
B0FFKNXGPD,BATHE COFFEE(永康小区北区店),购物服务;服装鞋帽皮具店;服装鞋帽皮具店|餐饮服务;咖啡厅;咖啡厅,061100|050500,永康路70号,121.458102,31.210994,17521626570;17891920923,4.5,51.00,独处品质空间,上海市,上海市,徐汇区
B0J63S5LYT,likelikeslike coffee悟同咖啡,餐饮服务;咖啡厅;咖啡厅,050500,天平路238号临3,121.438049,31.198928,15000556509,4.4,47.00,独处品质空间,上海市,上海市,徐汇区
B00155IMAK,星巴克(永新店),餐饮服务;咖啡厅;星巴克咖啡,050501,辛耕路129号(近天钥桥路),121.442952,31.192523,021-33686172;021-60782939;4008206998,4.7,36.00,独处品质空间,上海市,上海市,徐汇区
B0IRXA2D14,Faust浮士德咖啡馆,餐饮服务;咖啡厅;咖啡厅,050500,天平路216弄1号(交通大学地铁站2号口步行420米),121.437660,31.199673,19901851048,4.5,28.00,独处品质空间,上海市,上海市,徐汇区
B0FFIU6KU1,瑞幸咖啡(长峰中心店),餐饮服务;咖啡厅;咖啡厅,050500,延安西路1088号长峰中心一层101室,121.430791,31.211549,4000100100,4.4,23.00,独处品质空间,上海市,上海市,长宁区
B0I0VRBZDA,ALOHA COFFEE(襄阳南路店),餐饮服务;咖啡厅;咖啡厅,050500,襄阳南路269号-甲,121.457799,31.210293,13585890503,4.6,56.00,独处品质空间,上海市,上海市,徐汇区
B0FFHP5N3H,星巴克(上海交通大学店),餐饮服务;咖啡厅;星巴克咖啡,050501,华山路1954号包兆龙图书馆一层,121.433065,31.199715,021-62160157,4.6,38.00,独处品质空间,上海市,上海市,徐汇区
B0GK37UDKL,PUYEE,购物服务;专卖店;专营店,061200,复兴西路59号,121.444478,31.210458,021-54250875,4.4,47.00,独处品质空间,上海市,上海市,徐汇区
B00156NZN9,星巴克(徐汇苑店),餐饮服务;咖啡厅;星巴克咖啡,050501,中山南二路1089号徐汇苑大厦1层101室,121.443155,31.178960,021-64179705,4.5,30.00,独处品质空间,上海市,上海市,徐汇区
B00156GXP4,星巴克(宏汇国际广场店),餐饮服务;咖啡厅;星巴克咖啡,050501,中山西路1602号1层105室,121.421845,31.186586,021-34693160,4.6,42.00,独处品质空间,上海市,上海市,徐汇区
B0FFF003EQ,星巴克(昭化路店),餐饮服务;咖啡厅;星巴克咖啡,050501,定西路1026号(近昭化路),121.423543,31.211420,021-52360265,4.6,38.00,独处品质空间,上海市,上海市,长宁区
B0HDPUJP8U,内明谷Me Time Coffee(曲圆小区店),餐饮服务;咖啡厅;咖啡厅,050500,建国西路122号(近陕西南路),121.465003,31.207809,18964478517,4.4,31.00,独处品质空间,上海市,上海市,黄浦区
B0FFI918G2,星巴克(徐汇百联店),餐饮服务;咖啡厅;星巴克咖啡,050501,华山路1998号大西洋娱乐城4楼,121.436841,31.197745,021-54019629,4.6,44.00,独处品质空间,上海市,上海市,徐汇区
B0FFG59B0B,星巴克(中金国际广场店),餐饮服务;咖啡厅;星巴克咖啡,050501,漕溪北路331号中金国际广场A座1层03,121.439311,31.190746,021-33973674,4.6,42.00,独处品质空间,上海市,上海市,徐汇区
B0J3X79KCP,Blue Bottle Coffee(港汇恒隆广场店),餐饮服务;咖啡厅;咖啡厅,050500,虹桥路1号102部位166A铺位,121.436962,31.194554,15300974448,4.4,56.00,独处品质空间,上海市,上海市,徐汇区
B00155ILJS,星巴克(新华路店),餐饮服务;咖啡厅;星巴克咖啡,050501,新华路519号1B室,121.422893,31.203664,021-62803927,4.6,27.00,独处品质空间,上海市,上海市,长宁区
B0FFIU6KTY,瑞幸咖啡(光启文化广场店),餐饮服务;咖啡厅;咖啡厅,050500,斜土路2899号光启文化广场B座一层大堂,121.441210,31.185820,4000100100,4.2,14.00,独处品质空间,上海市,上海市,徐汇区
B0FFKSZFZ9,COFFEE AROMA,餐饮服务;咖啡厅;咖啡厅,050500,瑞金二路272号(打浦桥地铁站1号口步行240米),121.466685,31.207887,16601799818,4.3,36.00,独处品质空间,上海市,上海市,黄浦区
B0FFJ64L1Y,星巴克(上海图书馆店),餐饮服务;咖啡厅;星巴克咖啡,050501,淮海中路1555号1幢1楼A部位,121.444579,31.207494,021-54960172,4.5,30.00,独处品质空间,上海市,上海市,徐汇区
B0FFH9DCTA,M2F(新华路店),餐饮服务;咖啡厅;咖啡厅,050500,新华路380号,121.425469,31.203584,021-52992286;18217707039,4.4,44.00,独处品质空间,上海市,上海市,长宁区
B0FFFP9U7I,星巴克(上影博物馆店),餐饮服务;咖啡厅;星巴克咖啡,050501,漕溪北路595号上海电影博物馆A座1楼博物馆内,121.438290,31.186160,021-54268352,4.5,37.00,独处品质空间,上海市,上海市,徐汇区
B00155MZ0T,星巴克(明珠店),餐饮服务;咖啡厅;星巴克咖啡,050501,肇嘉浜路212号明珠大酒店大堂,121.462655,31.203567,021-64731870,4.5,36.00,独处品质空间,上海市,上海市,黄浦区
B0FFIZ76EQ,星巴克(番禺路店),餐饮服务;咖啡厅;星巴克咖啡,050501,番禺路1号,121.429915,31.210185,021-52710376,4.6,34.00,独处品质空间,上海市,上海市,长宁区
B00155ILV7,Costa Coffee(上海美粤华店),餐饮服务;咖啡厅;咖啡厅,050500,肇嘉浜路238号(嘉善路地铁站2号口步行160米),121.461992,31.203676,021-60349770;021-64668081,4.6,31.00,独处品质空间,上海市,上海市,徐汇区
B0FFFVD4U6,星巴克(名仕苑店),餐饮服务;咖啡厅;星巴克咖啡,050501,广元西路98号名仕苑3-4室,121.434162,31.195786,021-54365338,4.6,37.00,独处品质空间,上海市,上海市,徐汇区
B0G0DCBM76,熊爪咖啡give&take(永康路店),餐饮服务;咖啡厅;咖啡厅,050500,永康路68号,121.458168,31.211010,17721446659,4.4,21.00,独处品质空间,上海市,上海市,徐汇区
B0I3SSY4YH,Birdie Cup Coffee小鸟杯(武康路店),餐饮服务;餐饮相关场所;餐饮相关,050000,武康路105-2号,121.440894,31.209970,18221764462,4.5,28.00,独处品质空间,上海市,上海市,徐汇区
B0HBKCS31R,DG bar,餐饮服务;餐饮相关场所;餐饮相关,050000,南丹东路207号(徐家汇地铁站2号口步行230米),121.439836,31.189569,13044111028;18302100818,4.4,83.00,独处品质空间,上海市,上海市,徐汇区
B0KD6AFY2F,Ti-Akol.凯文,餐饮服务;咖啡厅;咖啡厅,050500,衡山路525号(衡山路地铁站1号口步行460米),121.443546,31.200534,13122392778,4.4,123.00,独处品质空间,上海市,上海市,徐汇区
B0FFHB9C6V,鲁马滋咖啡(中南新邨店),餐饮服务;咖啡厅;咖啡厅,050500,湖南路9号甲(近上海图书馆),121.442335,31.208216,021-34605708;18717938084,4.4,90.00,独处品质空间,上海市,上海市,徐汇区
B0FFL6OQ3E,無窮咖啡馆(集雅公寓店),餐饮服务;咖啡厅;咖啡厅,050500,衡山路331号(衡山路地铁站1号口步行260米),121.444807,31.202169,19978789567,4.2,36.00,独处品质空间,上海市,上海市,徐汇区
B0J16U2LLA,coffea SHED,餐饮服务;咖啡厅;咖啡厅,050500,上生·新所,121.427347,31.208972,18661731734,4.4,48.00,独处品质空间,上海市,上海市,长宁区
B0FFJD4OC0,Tequila espresso,餐饮服务;咖啡厅;咖啡厅,050500,嘉善路55号,121.459462,31.211968,18001618845,4.4,31.00,独处品质空间,上海市,上海市,徐汇区
B00156O26N,雷米,餐饮服务;咖啡厅;咖啡厅,050500,永康路88号(陕西南路地铁站7号口步行470米),121.457423,31.210794,021-54560218,4.4,64.00,独处品质空间,上海市,上海市,徐汇区
B0FFG69LN8,星巴克(蒲汇塘路店),餐饮服务;咖啡厅;星巴克咖啡,050501,文定路200号盛源大地家居城1层1A09ab室,121.431594,31.187331,021-54210007,4.6,34.00,独处品质空间,上海市,上海市,徐汇区
B0J19ZZE27,EAU CAFE(武夷路店),餐饮服务;咖啡厅;咖啡厅,050500,武夷路320号武夷mixB区107室,121.424245,31.212702,021-61376598,4.4,59.00,独处品质空间,上海市,上海市,长宁区
B0FFIZAMFE,M Stand(华山路店),餐饮服务;咖啡厅;咖啡厅|购物服务;购物相关场所;购物相关场所,050500|060000,华山路1126号,121.434873,31.211323,18512182640,4.4,44.00,独处品质空间,上海市,上海市,长宁区
B0H6NCF941,argang kaffe,餐饮服务;咖啡厅;咖啡厅,050500,宝庆路10号2栋1楼(常熟路地铁站7号口步行190米),121.449714,31.211197,18117156436,4.3,62.00,独处品质空间,上海市,上海市,徐汇区
B0H0SX98TJ,Goat is Dancing cafe,餐饮服务;咖啡厅;咖啡厅,050500,广元路194号,121.438619,31.199025,,4.3,30.00,独处品质空间,上海市,上海市,徐汇区
B0FFIC8K0Y,新参者咖啡(幸福里C座店),餐饮服务;咖啡厅;咖啡厅,050500,幸福路67号幸福里园区C座102,121.430797,31.204510,13761620671,4.2,57.00,独处品质空间,上海市,上海市,长宁区
B0GUOC68JP,珈琲光景Cafe Lumiere(中南新邨店),餐饮服务;咖啡厅;咖啡厅,050500,上海市徐汇区淮海中路1640-3号,121.443149,31.207553,13788986424,4.3,46.00,独处品质空间,上海市,上海市,徐汇区
B0JRAMNRAP,枕山Tea Valley,购物服务;购物相关场所;购物相关场所,060000,襄阳南路381号枕山,121.458028,31.207547,15821906868,4.4,49.00,独处品质空间,上海市,上海市,徐汇区
B0I66DLCEB,Compass Coffee(中南新邨店),餐饮服务;咖啡厅;咖啡厅,050500,淮海中路1664号-1(上海图书馆地铁站3口步行140米),121.442704,31.207169,15221942884,4.3,29.00,独处品质空间,上海市,上海市,徐汇区
B0FFICH64A,M Stand(建国西路店),餐饮服务;咖啡厅;咖啡厅,050500,建国西路338-2,121.457107,31.204849,021-54566526;13120996603,4.3,41.00,独处品质空间,上海市,上海市,徐汇区
B0HKVH6SHC,COPLUSDE咖啡豆仓(襄阳南路店),餐饮服务;咖啡厅;咖啡厅,050500,襄阳南路288号-2号,121.457617,31.210176,19117163903,4.4,54.00,独处品质空间,上海市,上海市,徐汇区
B0G33SX8VL,Lemon Louis(番禺路店),购物服务;服装鞋帽皮具店;服装鞋帽皮具店|餐饮服务;咖啡厅;咖啡厅,061100|050500,番禺路387号底层5号,121.430383,31.203858,13671777879,4.3,38.00,独处品质空间,上海市,上海市,长宁区
B0L2K9H0B9,月球咖啡,餐饮服务;咖啡厅;咖啡厅,050500,永嘉路527弄1号,121.450883,31.205319,19901608482,4.4,41.00,独处品质空间,上海市,上海市,徐汇区
B0I1GYWN0K,iFuture科学咖(太原路店),餐饮服务;咖啡厅;咖啡厅,050500,太原路258号南侧,121.455735,31.203388,13501816008;19537616062,4.4,28.00,独处品质空间,上海市,上海市,徐汇区
B0FFH7SYQ6,星巴克(永丰国际广场店),餐饮服务;咖啡厅;星巴克咖啡,050501,宛平南路100号,121.445259,31.195286,021-54100106,4.5,35.00,独处品质空间,上海市,上海市,徐汇区
B0FFJ377Q6,MUSEE CAFE(保利·时光里店),餐饮服务;咖啡厅;咖啡厅,050500,瑞平路230号保利时光里B1层,121.455093,31.181820,13916655082;18017934874,4.2,37.00,独处品质空间,上海市,上海市,徐汇区
B0J0B7OWRO,纽巷咖啡(锦和巴黎时韵店),餐饮服务;咖啡厅;咖啡厅,050500,襄阳南路500号2511室,121.457808,31.205629,18917725644,4.4,44.00,独处品质空间,上海市,上海市,徐汇区
B0GRC9EDSB,橡木郡Oakhamm Cafe&Bar(美城天地店),餐饮服务;咖啡厅;咖啡厅,050500,天钥桥路323号-7号(上海体育场地铁站3号口步行470米),121.442122,31.188540,15921223159,4.3,119.00,独处品质空间,上海市,上海市,徐汇区
B0LBUAPMI4,kapibaba卡皮叭叭咖啡,餐饮服务;餐饮相关场所;餐饮相关,050000,武康路63-2号,121.440352,31.212840,13661553540,4.4,37.00,独处品质空间,上海市,上海市,徐汇区
B0FFKQNMJX,雨山咖啡(零陵路店),餐饮服务;咖啡厅;咖啡厅,050500,零陵路899号飞洲国际广场F1层,121.437497,31.183336,17321085177,4.3,25.00,独处品质空间,上海市,上海市,徐汇区
B0K6SS50C7,Plastic Attic塑料阁楼(永康路89号),餐饮服务;餐饮相关场所;餐饮相关,050000,永康路89号(环贸iapm商场襄阳南路),121.457421,31.210641,13041603187,4.4,82.00,独处品质空间,上海市,上海市,徐汇区
B0JRMROWSA,0566珈琲制作所(港汇恒隆广场店),生活服务;生活服务场所;生活服务场所,070000,虹桥路1号上海港汇恒隆广场F5层(徐家汇地铁站出口旁),121.437310,31.194786,18939979568,4.4,77.00,独处品质空间,上海市,上海市,徐汇区
B0H16CZO71,Cafe Society咖啡会社(尚海湾豪庭店),餐饮服务;咖啡厅;咖啡厅,050500,东安路888弄12幢1层,121.462745,31.181070,19121051398,4.4,41.00,独处品质空间,上海市,上海市,徐汇区
B0G2GZN8EJ,PLUSONE COFFEE(武康路店),餐饮服务;咖啡厅;咖啡厅,050500,武康路286号,121.439983,31.207387,17321478621;17502160929,4.3,49.00,独处品质空间,上海市,上海市,徐汇区
B0FFITJA4J,瑞幸咖啡(汇京国际店),餐饮服务;咖啡厅;咖啡厅,050500,虹桥路777号汇京国际广场负一层08室,121.423489,31.196173,4000100100,4.2,21.00,独处品质空间,上海市,上海市,徐汇区
B0FFF9YS4T,星巴克(上海徐汇枫篁谷店),餐饮服务;咖啡厅;星巴克咖啡,050501,斜土路2500号商办楼地下1夹层101单元,121.445675,31.190825,021-24211281,4.6,33.00,独处品质空间,上海市,上海市,徐汇区
B0FFIMYNXK,星巴克(凯滨国际大厦店),餐饮服务;咖啡厅;星巴克咖啡,050501,凯滨路199号第一层101单元,121.454979,31.182785,021-54361365,4.5,46.00,独处品质空间,上海市,上海市,徐汇区
B0FFGDU0T8,星巴克(淮海花园店),餐饮服务;咖啡厅;星巴克咖啡,050501,淮海西路280号101室(番禺路与交口),121.429188,31.200054,021-52752016,4.6,51.00,独处品质空间,上海市,上海市,长宁区
B0FFGT41BY,树袋熊咖啡馆(淮海花园店),餐饮服务;咖啡厅;咖啡厅,050500,淮海西路280号,121.429133,31.200037,021-52588779,4.2,71.00,独处品质空间,上海市,上海市,长宁区
B0FFF65W8Q,RUMORS COFFEE ROASTERY鲁马滋咖啡(兴国路店),餐饮服务;咖啡厅;咖啡厅|购物服务;购物相关场所;购物相关场所,050500|060000,兴国路372弄1号(交通大学地铁站1号口步行490米),121.437339,31.205129,021-62497510,4.4,87.00,独处品质空间,上海市,上海市,长宁区
B0IR7H9P2C,SIM PUR咖啡艺术家(嘉善路店),餐饮服务;咖啡厅;咖啡厅,050500,嘉善路177号-2,121.460128,31.208029,13774201245;15021344007,4.3,20.00,独处品质空间,上海市,上海市,徐汇区
B0KK79PRAQ,COACORE cacao(襄阳南路店),购物服务;服装鞋帽皮具店;服装鞋帽皮具店,061100,襄阳南路391号,121.458151,31.207091,15710181177,4.3,35.00,独处品质空间,上海市,上海市,徐汇区
B0FFJHJJUO,1900LOFT(新华路店),餐饮服务;咖啡厅;咖啡厅,050500,定西路465号,121.422857,31.203541,,4.2,72.00,独处品质空间,上海市,上海市,长宁区
B0I30AKFEN,丙卡社Kasir(新华路上影店),餐饮服务;咖啡厅;咖啡厅,050500,番禺路515号(交通大学地铁站5号口步行440米),121.430215,31.202144,18019111791,4.3,26.00,独处品质空间,上海市,上海市,长宁区
B0ID77JHKY,嘲鸫咖啡(医学院路店),餐饮服务;咖啡厅;咖啡厅,050500,医学院路中山新村,121.455313,31.199156,19521418606;19542776441,4.2,21.00,独处品质空间,上海市,上海市,徐汇区
B0J14SRFFZ,Toffee Coffee,餐饮服务;咖啡厅;咖啡厅,050500,文定路208号德必WE园区A栋1001,121.432222,31.185952,13601708825,4.2,27.00,独处品质空间,上海市,上海市,徐汇区
B0J6G9UIE3,神沪珈R1070·Cafe(总店),餐饮服务;咖啡厅;咖啡厅,050500,汾阳路79号,121.454084,31.210559,17521181070,4.1,65.00,独处品质空间,上海市,上海市,徐汇区
B0FFL7M67V,LE REVE DE MONA梦纳咖啡和酒,餐饮服务;咖啡厅;咖啡厅,050500,昭化路357号A幢106,121.424285,31.211752,17601277254,4.2,40.00,独处品质空间,上海市,上海市,长宁区
B0H0U6KLQ6,私人城市(丝庐花语店),餐饮服务;咖啡厅;咖啡厅,050500,茶陵路220号,121.466070,31.197666,13918189893,4.2,83.00,独处品质空间,上海市,上海市,徐汇区
B0JA1SL5NJ,M Stand(南洋1931店),餐饮服务;餐饮相关场所;餐饮相关,050000,裕德路111号南洋1931商场1层F1-01单元,121.432710,31.186386,18616560540,4.3,31.00,独处品质空间,上海市,上海市,徐汇区
B0FFIMYG38,星巴克(城开国际大厦店),餐饮服务;咖啡厅;星巴克咖啡,050501,虹桥路355号1层107,121.431332,31.193155,021-54565556,4.3,36.00,独处品质空间,上海市,上海市,徐汇区
B0LA3C8Z4P,SPO+J.MEET Cafe&Bistro(武康大楼店),餐饮服务;餐饮相关场所;餐饮相关,050000,兴国路408号一层,121.437727,31.204131,15221610602,4.4,158.00,独处品质空间,上海市,上海市,长宁区
B0L1HUXD4Y,Miiix coffee (徐家汇店),餐饮服务;餐饮相关场所;餐饮相关,050000,辛耕路38号-3,121.444721,31.193728,17514001529,4.4,18.00,独处品质空间,上海市,上海市,徐汇区
B0J6GMECYK,瑞幸咖啡(玖時活力中心店),餐饮服务;咖啡厅;咖啡厅,050500,大木桥路18号玖时活力中心商场B2层B2002室,121.460418,31.201497,4000100100,4.2,15.00,独处品质空间,上海市,上海市,徐汇区
B0LDPKXFPI,山粮咖啡,餐饮服务;咖啡厅;咖啡厅,050500,陕西南路203号,121.461060,31.212599,18601708801,4.3,49.00,独处品质空间,上海市,上海市,黄浦区
B0FFMAEF55,言一咖啡(建国西路店),餐饮服务;咖啡厅;咖啡厅,050500,建国西路297号,121.457762,31.204885,15994934683;18037163120,4.2,35.00,独处品质空间,上海市,上海市,徐汇区
B0JGDHKG0P,隐铺Yin.COFFEE,餐饮服务;咖啡厅;咖啡厅,050500,建国西路140号,121.464356,31.207503,,4.3,37.00,独处品质空间,上海市,上海市,黄浦区
B001576FRH,BELL CAFE&BAR铃铛酒吧(田子坊店),餐饮服务;咖啡厅;咖啡厅,050500,泰康路248弄21号前门(打浦桥地铁站1号口步行90米),121.468845,31.208237,021-64282657;13867392795;13917446327,4.1,75.00,独处品质空间,上海市,上海市,黄浦区
B00156E4HS,星巴克(美罗大厦店),餐饮服务;咖啡厅;星巴克咖啡,050501,天钥桥路30号美罗大厦1层(徐家汇地铁站出入口步行240米),121.440514,31.192911,021-34141560;021-60782939;4008206998,4.5,42.00,独处品质空间,上海市,上海市,徐汇区
B0IB3CBEBT,隐溪茶馆(徐家汇店),餐饮服务;茶艺馆;茶艺馆,050600,肇嘉浜路969号(徐家汇地铁站14号口步行360米),121.442832,31.195597,021-33680857,4.5,145.00,独处品质空间,上海市,上海市,徐汇区
B0FFMG1XTR,隐溪茶馆(建国西路),生活服务;生活服务场所;生活服务场所,070000,建国西路285号2楼102室(茶馆楼上),121.458808,31.205189,021-60945665;17317185805,4.5,96.00,独处品质空间,上海市,上海市,徐汇区
B0JAD58A5W,隐溪茶馆(龙华店),餐饮服务;茶艺馆;茶艺馆,050600,瑞平路106号绿地缤纷城西区2层202室,121.455965,31.183803,021-64282939;13391366527,4.4,130.00,独处品质空间,上海市,上海市,徐汇区
B0KUTK5NZQ,开吉茶馆(上生新所店),餐饮服务;茶艺馆;茶艺馆,050600,上生新所15号楼102B,121.427435,31.207637,17511674949,4.5,59.00,独处品质空间,上海市,上海市,长宁区
B0FFJFUAP8,梅间堂茶馆(绿地缤纷城店),餐饮服务;餐饮相关场所;餐饮相关,050000,东安路800弄12号101室,121.458280,31.181951,021-64753539,4.4,172.00,独处品质空间,上海市,上海市,徐汇区
B0HAUCUO66,蝉野茶馆(淮海中路店),餐饮服务;茶艺馆;茶艺馆,050600,淮海中路1984弄1号,121.436770,31.203494,021-62177767;021-62177768,4.4,165.00,独处品质空间,上海市,上海市,长宁区
B0JU4H0YJH,拾久涧茶楼,餐饮服务;茶艺馆;茶艺馆,050600,肇嘉浜路750号(肇嘉浜路地铁站2号口步行380米),121.446942,31.198912,18116070037,4.4,113.00,独处品质空间,上海市,上海市,徐汇区
B0JK3MB99F,邈墨茶馆(上生新所店),餐饮服务;茶艺馆;茶艺馆,050600,"番禹路222弄55号,安西路金地新华道Mstand楼上",121.426539,31.208538,17321337962;18957132169,4.4,107.00,独处品质空间,上海市,上海市,长宁区
B0LB99YN0S,几言茶书房(正大乐城店),购物服务;专卖店;书店|餐饮服务;茶艺馆;茶艺馆,061205|050600,龙华中路598号-6-302室,121.458831,31.186502,18621564765,4.3,139.00,独处品质空间,上海市,上海市,徐汇区
B0J1G5675L,黄庭茶馆(徐家汇店),餐饮服务;茶艺馆;茶艺馆,050600,汇金百货(汇金广场店)4楼423室,121.440400,31.195671,13311600523,4.3,122.00,独处品质空间,上海市,上海市,徐汇区
B0KKK7J7BI,礼厚茶肆ITC店,餐饮服务;茶艺馆;茶艺馆,050600,华山路1901号One ITC商场地下二层245室礼厚茶肆,121.438162,31.197920,13585834105,4.3,22.00,独处品质空间,上海市,上海市,徐汇区
B0FFH610P7,遇到你要的时光,餐饮服务;餐饮相关场所;餐饮相关,050000,宝庆路10号(常熟路地铁站7号口步行190米),121.449776,31.211179,15317509913,4.4,136.00,独处品质空间,上海市,上海市,徐汇区
B0FFG754BQ,归朴茶空间,餐饮服务;茶艺馆;茶艺馆,050600,建国西路619弄12号,121.447807,31.200990,15921621572,4.5,175.00,独处品质空间,上海市,上海市,徐汇区
B0KKSS3WDE,大茶不茶(新·淮海坊店),餐饮服务;茶艺馆;茶艺馆,050600,凯旋路1580-1号一层新·淮海坊F1层(虹桥路地铁站6号口旁),121.422078,31.196475,021-62373381,4.3,110.00,独处品质空间,上海市,上海市,长宁区
B0KK2565GK,6茶共享茶室(肇嘉浜路店),餐饮服务;茶艺馆;茶艺馆,050600,肇嘉浜路333号408室(嘉善路地铁站5号口旁),121.460487,31.202177,13764895215,4.4,76.00,独处品质空间,上海市,上海市,徐汇区
B0I1B4QFF3,茗约荷境(大木桥路店),餐饮服务;茶艺馆;茶艺馆,050600,大木桥路18号玖时活力中心五楼,121.460582,31.201819,021-64577977,4.4,269.00,独处品质空间,上海市,上海市,徐汇区
B0LAD772DC,归去归来艺术茶空间,餐饮服务;茶艺馆;茶艺馆,050600,新华路60号(交通大学地铁站5号口步行290米),121.431281,31.201563,021-56997799,4.4,99.00,独处品质空间,上海市,上海市,长宁区
B0L3Z70TZ7,宜安琚茶空间,餐饮服务;茶艺馆;茶艺馆,050600,枫林路与中山南二路交叉口西北140米,121.459651,31.190118,,4.4,146.00,独处品质空间,上海市,上海市,徐汇区
B0IUGCHLHI,八马茶业(中山西路店),生活服务;生活服务场所;生活服务场所,070000,中山西路2240号-3室(宜山路地铁站9号口步行490米),121.430274,31.181237,17317568797,4.3,120.00,独处品质空间,上海市,上海市,徐汇区
B0KU3ULX0J,淡马茶坊(上海美罗城店),餐饮服务;茶艺馆;茶艺馆,050600,肇嘉浜路1111号A段第四层4-5A、4-5Aout1单元,121.439916,31.192832,13361548641,4.1,29.00,独处品质空间,上海市,上海市,徐汇区
B0LUZ9T4GX,梵隐茶空间(欣纪苑店),生活服务;生活服务场所;生活服务场所,070000,昭化路43弄4号4-1号沿街商铺,121.429536,31.212836,13738115295;18758585639,4.3,97.00,独处品质空间,上海市,上海市,长宁区
B0LD1RMAY0,八马茶业(徐汇绿地缤纷城店),购物服务;专卖店;专营店,061200,东安路562号缤纷城B1层(龙华中路地铁站6号口右转7号口直行),121.456813,31.183997,13761972025;15001897202,4.3,[],独处品质空间,上海市,上海市,徐汇区
B0LRLRNMZ9,田子坊•茶舍(打浦桥日月光店),餐饮服务;茶艺馆;茶艺馆,050600,泰康路220号3楼田子坊•茶舍(凭消费小票免费停车三小时),121.469222,31.207766,18017097717,4.3,76.00,独处品质空间,上海市,上海市,黄浦区
B0FFKAQMV5,古月茶号,购物服务;专卖店;专营店|餐饮服务;茶艺馆;茶艺馆,061200|050600,天平街道乌鲁木齐南路155号一楼古月茶号,121.449515,31.202812,18964008806,4.2,134.00,独处品质空间,上海市,上海市,徐汇区
B0JBM92YM5,木寸野集茶客厅(徐家汇书院店),餐饮服务;茶艺馆;茶艺馆,050600,蒲西路与紫阳路交叉口东南80米,121.437369,31.190378,,4.0,28.00,独处品质空间,上海市,上海市,徐汇区
B0FFH4LMDH,天福茗茶(打浦桥日月光店),购物服务;专卖店;专营店,061200,徐家汇路618号日月光中心B2-RJ-03,121.467761,31.206339,15921837902,4.2,[],独处品质空间,上海市,上海市,黄浦区
B0K3H74AY7,梧桐茶室,餐饮服务;茶艺馆;茶艺馆,050600,东平路2号小区(常熟路地铁站7号口步行430米),121.450672,31.209177,,4.2,80.00,独处品质空间,上海市,上海市,徐汇区
B0FFMF30EK,上茶新概念茶坊(徐汇店),餐饮服务;茶艺馆;茶艺馆,050600,肇嘉浜路333亚太企业大楼2层(嘉善路地铁站5号口旁),121.460358,31.202274,021-64038839,4.1,123.00,独处品质空间,上海市,上海市,徐汇区
B0FFKT0C3O,澜沧古茶(徐汇店),购物服务;专卖店;专营店,061200,文定路208号2098室,121.432111,31.186131,15821637366,3.9,128.00,独处品质空间,上海市,上海市,徐汇区
B0I2UO2BLD,悠茶雅趣茶馆(打浦桥日月光店),餐饮服务;茶艺馆;茶艺馆,050600,瑞金二路411号日月光伯爵居B座1510室,121.467557,31.206977,18116362352,4.0,126.00,独处品质空间,上海市,上海市,黄浦区
B0FFF5VMNO,山夫茶馆(大木桥路店),餐饮服务;茶艺馆;茶艺馆,050600,大木桥路85号(嘉善路地铁站4号口步行200米),121.461521,31.200970,021-54962217,4.4,29.00,独处品质空间,上海市,上海市,徐汇区
B0FFF90H4K,合润天香茶馆(徐汇店),餐饮服务;茶艺馆;茶艺馆,050600,柳州路928号百丽国际广场1层,121.420641,31.185923,021-64282596,3.8,84.00,独处品质空间,上海市,上海市,徐汇区
B0L2BZIMFU,裕蘭茶楼(南洋1931店),餐饮服务;餐饮相关场所;餐饮相关,050000,裕德路165号南洋写字楼B1层,121.433157,31.185951,,4.1,20.00,独处品质空间,上海市,上海市,徐汇区
B0L0XSK4SA,黄庭茶馆(南洋1931店),餐饮服务;茶艺馆;茶艺馆,050600,裕德路165号南洋写字楼F3层,121.432821,31.186245,19101676580,4.0,105.00,独处品质空间,上海市,上海市,徐汇区
B0L1KBU1DJ,八马茶业(徐汇番禺路店),生活服务;生活服务场所;生活服务场所,070000,徐家汇街道番禺路1191号,121.425816,31.191511,18918075070,4.1,[],独处品质空间,上海市,上海市,徐汇区
B0HG0SXDVB,茶香酒浓丽人馆(华山路店),餐饮服务;茶艺馆;茶艺馆,050600,华山路1639号华山花苑(交通大学地铁站6号口步行160米),121.434637,31.203754,15316117890,3.7,121.00,独处品质空间,上海市,上海市,长宁区
B0L1XDR8JH,曾名堂·茶美学馆,购物服务;购物相关场所;购物相关场所,060000,瑞平路230号保利时光里F1层,121.455143,31.181378,13916564287,4.0,[],独处品质空间,上海市,上海市,徐汇区
B0LKY43WND,源流·茶事,餐饮服务;茶艺馆;茶艺馆,050600,天平路208弄(交通大学地铁站2号口步行350米),121.437322,31.199952,,3.5,119.00,独处品质空间,上海市,上海市,徐汇区
B0H2PUR9E6,大益茶(番禺路店),餐饮服务;茶艺馆;茶艺馆,050600,番禺路56号,121.429290,31.209332,021-62777542;18017385655,4.3,242.00,独处品质空间,上海市,上海市,长宁区
B0JU57FI48,非室茶空间(吴兴大楼小区店),餐饮服务;茶艺馆;茶艺馆,050600,建国西路750-01号,121.444247,31.200412,18667392073,4.3,[],独处品质空间,上海市,上海市,徐汇区
B0KUKC5PHL,枫林茶舍,餐饮服务;茶艺馆;茶艺馆,050600,枫林路420号枫林国际中心2期A座1层102,121.458233,31.190429,13524515690,4.2,101.00,独处品质空间,上海市,上海市,徐汇区
B0HRPC5SI9,一叶(田子坊店),餐饮服务;茶艺馆;茶艺馆,050600,建国中路155弄16号(打浦桥地铁站1号口步行150米),121.467966,31.208477,13761761655,4.0,[],独处品质空间,上海市,上海市,黄浦区
B0HGSX5QMC,古垚坊茶馆(金融大厦店),餐饮服务;茶艺馆;茶艺馆,050600,延安西路1023号,121.429405,31.212330,18918047119,3.7,105.00,独处品质空间,上海市,上海市,长宁区
B0L0XHLGIM,516 fohatun road,餐饮服务;餐饮相关场所;餐饮相关,050000,法华镇路516号,121.425509,31.204675,13002150469,3.9,101.00,独处品质空间,上海市,上海市,长宁区
B0LG7SV1LJ,枞来茶舍,餐饮服务;茶艺馆;茶艺馆,050600,建国西路506弄1-57号懿园,121.450843,31.203326,,3.6,98.00,独处品质空间,上海市,上海市,徐汇区
B0H1URYNS8,兰亭茶叙(田子坊店),餐饮服务;茶艺馆;茶艺馆,050600,泰康路248弄田子坊(打浦桥地铁站1号口步行150米),121.469052,31.208599,,3.6,857.00,独处品质空间,上海市,上海市,黄浦区
B0JBOZLPWP,古一庄园(建国店),餐饮服务;茶艺馆;茶艺馆,050600,建国西路192号,121.462322,31.206705,13301600813,3.9,[],独处品质空间,上海市,上海市,黄浦区
B0FFLOY3WU,嘉益阁茶楼,餐饮服务;茶艺馆;茶艺馆,050600,延安西路1235弄1-6号佳达新苑,121.427223,31.210688,021-62932222,4.3,158.00,独处品质空间,上海市,上海市,长宁区
B0L369B6C7,黄庭茶馆(徐汇滨江店),餐饮服务;茶艺馆;茶艺馆,050600,中山南二路699号正大乐城F2层(龙华中路地铁站2号口旁),121.457715,31.185835,18616669569,3.9,106.00,独处品质空间,上海市,上海市,徐汇区
B0JRHLGADE,花开茶里,餐饮服务;茶艺馆;茶艺馆,050600,泰康路248弄22号(打浦桥地铁站1号口步行90米),121.468125,31.208025,,3.4,[],独处品质空间,上海市,上海市,黄浦区
B0L165SYKI,栖桐·茶境,餐饮服务;茶艺馆;茶艺馆,050600,乌鲁木齐中路255弄7号,121.446430,31.212452,13122996787,4.2,[],独处品质空间,上海市,上海市,徐汇区
B0KGU9ST6F,KX白夜茶会,体育休闲服务;娱乐场所;酒吧,080304,延安西路与安西路交叉口东140米,121.427746,31.209814,,2.8,94.00,独处品质空间,上海市,上海市,长宁区
B0K1CPBB55,律野茶宗,餐饮服务;茶艺馆;茶艺馆,050600,古宜路与徐虹中路交叉口东南120米,121.425125,31.186625,,2.3,[],独处品质空间,上海市,上海市,徐汇区
B0L2VH8E4D,至味堂茶空间,餐饮服务;中餐厅;中餐厅|餐饮服务;茶艺馆;茶艺馆,050100|050600,宝庆路9弄1号楼102室(常熟路地铁站7号口步行210米),121.450167,31.211074,18616577976,3.8,[],独处品质空间,上海市,上海市,徐汇区
B0FFLHEVCG,玖个一空间,餐饮服务;茶艺馆;茶艺馆,050600,宛平路21号,121.441470,31.203107,18116251999,3.8,[],独处品质空间,上海市,上海市,徐汇区
B0L2LCP1RL,曲韵茶艺,餐饮服务;茶艺馆;茶艺馆,050600,延安西路1116号一楼曲韵茶艺店,121.430272,31.211101,13611685172,3.5,[],独处品质空间,上海市,上海市,长宁区
B0HKX9SMIA,茶无忧茶馆(田子坊店),餐饮服务;茶艺馆;茶艺馆,050600,泰康路与瑞金二路交叉口东北140米,121.468222,31.208036,021-54660776;15021895512,4.0,[],独处品质空间,上海市,上海市,黄浦区
B0I375S4GI,麒麟堂,餐饮服务;茶艺馆;茶艺馆,050600,高安路1弄号101(上海图书馆地铁站3号口步行190米),121.444088,31.206380,,4.0,[],独处品质空间,上海市,上海市,徐汇区
B0K105JKQO,见物,购物服务;服装鞋帽皮具店;服装鞋帽皮具店,061100,复兴中路1290号102室,121.456675,31.212674,,3.9,[],独处品质空间,上海市,上海市,徐汇区
B0L1Y5ETE6,黄庭茶馆(高邮路店),餐饮服务;茶艺馆;茶艺馆,050600,高邮路与湖南路交叉口北160米,121.437925,31.209875,,2.8,101.00,独处品质空间,上海市,上海市,徐汇区
B0LKK5MW50,无知舍玄茶沉香馆,餐饮服务;茶艺馆;茶艺馆,050600,天平路208弄(交通大学地铁站2号口步行440米),121.437414,31.199988,,4.0,157.00,独处品质空间,上海市,上海市,徐汇区
B0L09KBWX8,黄庭茶馆(东平路店),餐饮服务;茶艺馆;茶艺馆,050600,东平路2号小区,121.451075,31.208625,,3.8,98.00,独处品质空间,上海市,上海市,徐汇区
B0KRR10A7X,Tearoom by EHB,餐饮服务;咖啡厅;咖啡厅,050500,衡山路与东平路交叉口南40米,121.449611,31.208358,,3.8,503.00,独处品质空间,上海市,上海市,徐汇区
B0HDBSGZNQ,晶丰堂.普洱茶馆(番禺路店)(暂停营业),餐饮服务;茶艺馆;茶艺馆|购物服务;购物相关场所;购物相关场所,050600|060000,番禺路209弄8号,121.430424,31.206544,021-52666875;17306200869,4.2,297.00,独处品质空间,上海市,上海市,长宁区
B0LACSCR7H,华祥苑茗茶(上海市徐汇区华山路双子别墅店)(暂停营业),生活服务;生活服务场所;生活服务场所,070000,华山路1461弄4号A座,121.434061,31.206967,15601705020,4.1,[],独处品质空间,上海市,上海市,长宁区
B0I1LCLT0C,宇智艺术空间(武康大楼店),科教文化服务;培训机构;培训机构,141400,虹桥路996弄71号楼5楼507室,121.420048,31.193516,18702126125,4.0,[],独处品质空间,上海市,上海市,长宁区
B0J1CCGLCE,所样国际艺术中心,科教文化服务;科教文化场所;科教文化场所,140000,延安西路1538号财景新地·同创717A座12F,121.421385,31.208134,13451826661,4.3,[],独处品质空间,上海市,上海市,长宁区
B0HD27EF5C,DG ART SPACE,公司企业;公司;公司,170200,永嘉路617号(衡山路地铁站1号口步行230米),121.448547,31.204372,18918019987,4.5,[],独处品质空间,上海市,上海市,徐汇区
B0I1R4VO6E,熔艺术中心,科教文化服务;科教文化场所;科教文化场所,140000,凯滨路38号LG层B13-16,121.462388,31.180624,,4.2,[],独处品质空间,上海市,上海市,徐汇区
B0JB31KDHS,圣佳艺术空间,科教文化服务;科教文化场所;科教文化场所,140000,武康路376号五层,121.439173,31.206723,,4.2,[],独处品质空间,上海市,上海市,徐汇区
B0LUNX7LHI,C SPACE美学艺术空间,购物服务;购物相关场所;购物相关场所,060000,建国西路386号甲,121.454879,31.204168,,4.4,[],独处品质空间,上海市,上海市,徐汇区
B0L25ZCHPJ,嘉艺术,公司企业;公司;公司|科教文化服务;科教文化场所;科教文化场所,170200|140000,凯滨路199号凯滨国际北楼10层(龙华中路地铁站7号口步行300米),121.454794,31.182627,,4.2,[],独处品质空间,上海市,上海市,徐汇区
B0IKJ586U2,上影艺术中心,科教文化服务;培训机构;培训机构,141400,斜土路2899号上影公寓,121.441466,31.184619,,4.0,[],独处品质空间,上海市,上海市,徐汇区
B0KGGS7F76,慈善艺术中心,科教文化服务;科教文化场所;科教文化场所,140000,新华路345弄2号楼一楼北侧,121.425749,31.202924,,3.8,[],独处品质空间,上海市,上海市,长宁区
B0K1FDMBVC,山隐艺术空间,科教文化服务;科教文化场所;科教文化场所,140000,宜山路439号七建大厦12楼(宜山路地铁站7号口步行80米)12F,121.427628,31.183914,,3.5,[],独处品质空间,上海市,上海市,徐汇区
B0HUVA0U07,离Lí Gallery,科教文化服务;科教文化场所;科教文化场所,140000,余庆路41弄2号,121.439006,31.202570,,3.1,[],独处品质空间,上海市,上海市,徐汇区
B0FFIJQXH4,杜梦堂,风景名胜;风景名胜相关;旅游景点,110000,衡山路199号永平里105栋(永嘉路安亭路),121.447272,31.204646,021-64186367,4.1,[],独处品质空间,上海市,上海市,徐汇区
