id,name,type,typecode,address,lng,lat,tel,rating,cost,group,pname,cityname,adname
B0FFIKANHD,Stonesal言盐西餐厅,体育休闲服务;娱乐场所;酒吧|餐饮服务;中餐厅;中餐厅,080304|050100,东湖路9号上海地产大厦裙房1M,121.453492,31.216319,021-54651765,4.6,796.00,社交餐饮|体育休闲,上海市,上海市,徐汇区
B0LUY6V2Y8,半酌烧烤小酒馆(中山公园店),体育休闲服务;运动场馆;运动场所|餐饮服务;中餐厅;中餐厅,080100|050100,宣化路300号ARK新华宁F1层,121.422525,31.217475,18845273555,4.5,88.00,社交餐饮|体育休闲,上海市,上海市,长宁区
B0KRSUB24T,COMMUNE·X幻师(上海利园店),餐饮服务;外国餐厅;西餐厅(综合风味)|体育休闲服务;娱乐场所;娱乐场所,050201|080300,新闸路668号LI-15室,121.461811,31.237547,13301850452,4.6,163.00,社交餐饮|体育休闲,上海市,上海市,静安区
B0FFFWUGFK,SFC上影影城(世博店),体育休闲服务;影剧院;电影院|购物服务;便民商店/便利店;便民商店/便利店,080601|060200,世博大道1200号梅赛德斯奔驰文化中心6层,121.492480,31.188605,021-20251186,4.6,52.00,购物菜场|体育休闲,上海市,上海市,浦东新区
B0KUMZ4BLW,网鱼电竞(闵行爱琴海购物中心店),购物服务;家电电子卖场;手机销售|体育休闲服务;娱乐场所;网吧,060305|080308,爱琴海购物中心虹井路120弄6号楼3层321室,121.372736,31.175393,18200327621,4.5,20.00,购物菜场|体育休闲,上海市,上海市,闵行区
B0FFHH36C9,凯乐石KAILAS(上海新世界店),购物服务;体育用品店;户外用品|购物服务;专卖店;专营店|体育休闲服务;娱乐场所;娱乐场所,060907|061200|080300,南京西路2-68号新世界城6楼25-26(人民广场地铁站19号口步行60米),121.473453,31.235417,15221339320;17305674806,4.3,[],购物菜场|体育休闲,上海市,上海市,黄浦区
B0H35H4JYX,江宁路街道社区综合为老服务中心(昌化大楼店),体育休闲服务;度假疗养场所;疗养院,080402,江宁路街道淮安路771号,121.450353,31.239228,021-62991007,[],[],生活服务|体育休闲,上海市,上海市,静安区
B0FFF90GSL,上海市司法局老干部活动中心,体育休闲服务;休闲场所;休闲场所,080500,中山西路1538号,121.421871,31.187587,,[],[],生活服务|体育休闲,上海市,上海市,徐汇区
B0G3Z7UNU5,永联村褚家塘老人活动站,体育休闲服务;休闲场所;休闲场所,080500,龙联路与银都路466弄交叉口东140米,121.446935,31.108597,,[],[],生活服务|体育休闲,上海市,上海市,闵行区
B00157I1Y7,上海市普陀区老干部活动中心(大渡河路),体育休闲服务;休闲场所;休闲场所,080500,大渡河路525号(长风公园地铁站2号口步行110米),121.396735,31.225718,,[],[],生活服务|体育休闲,上海市,上海市,普陀区
B00153D2D7,东华大学老年活动中心,体育休闲服务;休闲场所;休闲场所,080500,延安西路1882号东华大学(延安路校区),121.412750,31.202795,,[],[],生活服务|体育休闲,上海市,上海市,长宁区
B0LUOHHT8G,雀王棋牌俱乐部(巨鹿路店),体育休闲服务;娱乐场所;棋牌室,080306,瑞金一路8号5c,121.462892,31.223135,13381537591,4.5,65.00,生活服务|体育休闲,上海市,上海市,黄浦区
B0H1ULZR20,雀禧荟,体育休闲服务;娱乐场所;棋牌室,080306,新闸路833号3层(自然博物馆地铁站2号口步行330米),121.459558,31.234594,021-62666966,4.5,59.00,生活服务|体育休闲,上海市,上海市,静安区
B0H6ZUS5YH,天合地合棋牌(打浦桥店),体育休闲服务;娱乐场所;棋牌室,080306,斜徐路595号202(打浦桥地铁站2号口步行370米),121.472518,31.206866,021-53018727,4.5,60.00,生活服务|体育休闲,上海市,上海市,黄浦区
B0LUVCEC9O,上海晶雀棋牌会所,体育休闲服务;娱乐场所;棋牌室|购物服务;服装鞋帽皮具店;服装鞋帽皮具店,080306|061100,是斜土东路198号(陆家浜路地铁站2号口步行470米),121.488051,31.207667,021-60297080;13761673487;18321071188,4.5,74.00,生活服务|体育休闲,上海市,上海市,黄浦区
B0LB4DAQVV,雀禧荟·棋牌(康定路店),体育休闲服务;娱乐场所;棋牌室,080306,康定路1590号3层(武宁路地铁站5A口步行400米),121.429899,31.228995,021-62660878;13764501590,4.6,72.00,生活服务|体育休闲,上海市,上海市,静安区
B0L13P68GT,一线天·派对,体育休闲服务;娱乐场所;KTV,080302,康定路1590号3层,121.431398,31.233100,18502371523,4.5,1404.00,生活服务|体育休闲,上海市,上海市,静安区
B00155F57K,新华社区文化活动中心(海富公寓1号楼东南),体育休闲服务;休闲场所;休闲场所|生活服务;生活服务场所;生活服务场所,080500|070000,法华镇路453号,121.427038,31.204325,021-52802857,[],[],文化地标|体育休闲,上海市,上海市,长宁区
B00155INTZ,咏文上书房(新梅广场店),购物服务;专卖店;书店|体育休闲服务;休闲场所;休闲场所,061205|080500,龙茗路24号(外环路地铁站北口步行400米),121.389570,31.121941,021-54173758,4.2,[],文化地标|体育休闲|独处品质空间,上海市,上海市,闵行区
B0KDSHRJOV,深空未来剧场,体育休闲服务;影剧院;剧场,080603,龙腾大道2600号西海岸美术馆B1,121.463860,31.167701,,4.1,[],文化地标|体育休闲|独处品质空间,上海市,上海市,徐汇区
B00154DQ3U,上海大剧院,体育休闲服务;影剧院;剧场,080603,人民大道300号,121.471825,31.229400,021-63728702;021-63868686;4001068686,4.9,314.00,文化地标|体育休闲,上海市,上海市,黄浦区
B0KAK1PF9S,西岸大剧院(Gate M西岸梦中心),体育休闲服务;影剧院;剧场,080603,龙腾大道2290号,121.465724,31.163375,4001265688,4.9,475.00,文化地标|体育休闲,上海市,上海市,徐汇区
B0FFKOEPBA,前滩31演艺中心,体育休闲服务;影剧院;剧场,080603,高青西路777号,121.484956,31.150756,021-38932988,4.9,309.00,文化地标|体育休闲,上海市,上海市,浦东新区
B00150C921,美琪大戏院,体育休闲服务;影剧院;剧场,080603,奉贤路258号(南京西路地铁站1号口步行350米),121.456669,31.229695,021-62173311,4.8,324.00,文化地标|体育休闲,上海市,上海市,静安区
B0HDVUXPY7,宛平剧院,体育休闲服务;影剧院;剧场,080603,枫林路街道中山南二路857-859号,121.451612,31.185011,021-64392277;021-64691383,4.8,175.00,文化地标|体育休闲,上海市,上海市,徐汇区
B0FFLOXPF9,艺海剧院(FanclArtCenter),体育休闲服务;影剧院;剧场,080603,江宁路466艺海大厦,121.452607,31.234993,021-22009936;021-62568282,4.9,306.00,文化地标|体育休闲,上海市,上海市,静安区
B0G3UU3NX1,上海共舞台,体育休闲服务;影剧院;剧场,080603,延安东路433号(大世界地铁站1号口步行260米),121.479378,31.228867,021-63309781,4.8,165.00,文化地标|体育休闲,上海市,上海市,黄浦区
B001516B0B,兰心大戏院,体育休闲服务;影剧院;剧场,080603,上海市瑞金二路街道茂名南路57号,121.460518,31.221033,021-62178530,4.7,330.00,文化地标|体育休闲,上海市,上海市,黄浦区
B0FFKBUMWT,上音歌剧院管弦乐排练厅,体育休闲服务;影剧院;剧场,080603,汾阳路6号(陕西南路地铁站7号口步行350米),121.455425,31.214725,021-24158000,4.8,570.00,文化地标|体育休闲,上海市,上海市,徐汇区
B00156EX81,荣威·上海儿童艺术剧场,体育休闲服务;影剧院;剧场,080603,苗江路800号,121.494585,31.196360,021-63338993;021-62537171,4.7,129.00,文化地标|体育休闲,上海市,上海市,黄浦区
B00155Q8KQ,上海城市剧院,体育休闲服务;影剧院;剧场,080603,都市路4889号,121.389681,31.105119,021-64135188,4.7,208.00,文化地标|体育休闲,上海市,上海市,闵行区
B00155KLQC,上海商城剧院,体育休闲服务;影剧院;剧场,080603,南京西路1376号上海商城4层,121.451936,31.22676,021-62797132,4.7,141.00,文化地标|体育休闲,上海市,上海市,静安区
B0I2PHI2F8,茉莉花剧场,体育休闲服务;影剧院;剧场,080603,北海路247号(人民广场地铁站1号口步行390米),121.478466,31.230065,021-53098219,4.7,291.00,文化地标|体育休闲,上海市,上海市,黄浦区
B001532792,中国大戏院,体育休闲服务;影剧院;剧场,080603,牛庄路704号,121.476522,31.237706,021-63778820,4.7,112.00,文化地标|体育休闲,上海市,上海市,黄浦区
B00154ZDUN,白玉兰剧场,体育休闲服务;影剧院;剧场,080603,重庆南路308号,121.472101,31.209803,021-64450086,4.6,49.00,文化地标|体育休闲,上海市,上海市,黄浦区
B0FFJIOVZ8,长江剧场(黄河路美食休闲街店),体育休闲服务;影剧院;剧场,080603,黄河路35号(人民广场地铁站9号口步行150米),121.470960,31.233716,021-63290350,4.4,230.00,文化地标|体育休闲,上海市,上海市,黄浦区
B0I2ANIZIZ,上海国际舞蹈中心大剧场,体育休闲服务;影剧院;剧场,080603,虹桥路1650号(上海国际舞蹈中心)2号楼,121.395252,31.199389,021-52990372,4.5,[],文化地标|体育休闲,上海市,上海市,长宁区
B0FFFA2Q5U,上海京剧院,体育休闲服务;影剧院;剧场,080603,天钥桥路1198号,121.447761,31.174394,021-54619880,4.5,178.00,文化地标|体育休闲,上海市,上海市,徐汇区
B0IK05RL4D,笑乐汇相声社(外滩NEO店),体育休闲服务;影剧院;剧场,080603,人民路399号外滩NEO商厦B1层(桔子水晶进入大堂手扶梯至B1层),121.491404,31.229260,13761229373,4.6,[],文化地标|体育休闲,上海市,上海市,黄浦区
B0H23UQKHR,要玩喜剧脱口秀(南京东路店),体育休闲服务;影剧院;剧场,080603,南京东路299号宏伊广场4楼(南京东路地铁站3号口旁),121.484736,31.236943,13120788074,4.6,[],文化地标|体育休闲,上海市,上海市,黄浦区
B00151C5FA,中国福利会儿童艺术剧院,体育休闲服务;影剧院;剧场,080603,华山路643号,121.440539,31.216223,021-62494790;021-62497313,4.4,[],文化地标|体育休闲,上海市,上海市,静安区
B00155LAUZ,上戏实验剧院,体育休闲服务;影剧院;剧场,080603,华山路678号华景大厦F1层,121.439846,31.216601,021-62485600,4.6,[],文化地标|体育休闲,上海市,上海市,静安区
B0IK3DP66N,肆笑喜剧脱口秀(南京东路店),体育休闲服务;影剧院;剧场,080603,南京东路479号U479商场4楼,121.481421,31.235882,17774358542,4.7,[],文化地标|体育休闲,上海市,上海市,黄浦区
B00154DVZY,上海话剧艺术中心-艺术剧院(话剧大厦店),体育休闲服务;影剧院;剧场,080603,安福路288号话剧大厦1层,121.441117,31.213735,021-64730123;021-64748600,4.5,297.00,文化地标|体育休闲,上海市,上海市,徐汇区
B0LAHRJ3FZ,第七感魔术剧场(长风大悦城店),体育休闲服务;影剧院;剧场,080603,长风大悦城室内区域4楼第七感魔术剧场,121.395404,31.222895,19117259612,4.0,152.00,文化地标|体育休闲,上海市,上海市,普陀区
B0J2NY0D4Q,新天安堂剧院,体育休闲服务;影剧院;剧场,080603,南苏州路与圆明园路交叉口东南40米,121.488378,31.243333,13671949927,4.5,306.00,文化地标|体育休闲,上海市,上海市,黄浦区
B0LGR7EHTR,上海大剧院-中剧场,体育休闲服务;影剧院;剧场,080603,人民大道300号上海大剧院,121.471821,31.229339,021-63868686,4.4,297.00,文化地标|体育休闲,上海市,上海市,黄浦区
B0LGKHP3XD,赫兹星球·新天地剧场,体育休闲服务;影剧院;剧场,080603,新天地时尚二期地下一层b120-122室,121.474927,31.218203,17317395992,4.5,[],文化地标|体育休闲,上海市,上海市,黄浦区
B00154AF39,上海歌剧院,体育休闲服务;影剧院;剧场,080603,常熟路100弄10号,121.445527,31.217045,021-62491465;021-62491479;021-62485359,4.4,[],文化地标|体育休闲,上海市,上海市,静安区
B0LG2R953O,玫瑰奇迹魔术剧场,体育休闲服务;影剧院;剧场,080603,徐家汇路268号Luone凯德晶萃广场L5-13玫瑰奇迹魔术剧场,121.476995,31.210533,17326023672,4.1,[],文化地标|体育休闲,上海市,上海市,黄浦区
B0L3JSDKOV,雕像·临窗小剧场,体育休闲服务;影剧院;剧场,080603,九江路663号亚洲大厦一楼,121.477958,31.234242,,4.4,[],文化地标|体育休闲,上海市,上海市,黄浦区
B0L22UZSIO,大世界·轮盘剧场,体育休闲服务;影剧院;剧场,080603,宁海东路与云南南路交叉口西40米,121.479875,31.228032,021-63013680,4.3,[],文化地标|体育休闲,上海市,上海市,黄浦区
B001525371,徐汇影剧场,体育休闲服务;影剧院;剧场,080603,田林街道田林东路588号田林文化广场,121.424766,31.172350,021-64755431,4.2,58.00,文化地标|体育休闲,上海市,上海市,徐汇区
B001534B0E,上海越剧院,体育休闲服务;影剧院;剧场,080603,复兴西路10弄16号,121.447557,31.211266,021-64375837,4.4,[],文化地标|体育休闲,上海市,上海市,徐汇区
B0FFGFP4V7,霞棐剧院,体育休闲服务;影剧院;剧场,080603,上海师范大学教师教育实验实训大楼,121.421258,31.160539,,4.4,[],文化地标|体育休闲,上海市,上海市,徐汇区
B0FFLFEFDU,浦东大戏院,体育休闲服务;影剧院;剧场,080603,三林镇杨新路61号(近杨思新村路),121.494556,31.163738,,4.4,162.00,文化地标|体育休闲,上海市,上海市,浦东新区
B0HD9U1BVK,索石剧场(黎安产业园办公楼店),体育休闲服务;影剧院;剧场,080603,七莘路1366号黎安智谷园区1A号楼F2层,121.367666,31.130220,,4.4,[],文化地标|体育休闲,上海市,上海市,闵行区
B00155QH0Z,上海沪剧院,体育休闲服务;影剧院;剧场,080603,淮海中路1889号(沪剧会馆内),121.437434,31.202915,021-62821616;13917903228,4.4,[],文化地标|体育休闲,上海市,上海市,徐汇区
B0JBFZ0WCI,德必世纪WE办公会议剧场,体育休闲服务;影剧院;剧场,080603,浦北路6号,121.429923,31.160086,15882489759,4.4,[],文化地标|体育休闲,上海市,上海市,徐汇区
B0FFHDAXMG,星空间·星空穹顶剧场,体育休闲服务;影剧院;剧场,080603,南京东路830号第一百货C馆11楼,121.475360,31.235553,,4.4,[],文化地标|体育休闲,上海市,上海市,黄浦区
B00155QNQ3,上海星舞台,体育休闲服务;影剧院;剧场,080603,古宜路125号(宜山路地铁站10号口步行460米),121.424316,31.185637,,4.2,[],文化地标|体育休闲,上海市,上海市,徐汇区
B00151E89A,上海话剧艺术中心(安福路),体育休闲服务;影剧院;剧场,080603,安福路288号话剧大厦,121.441136,31.213710,021-64748600;021-64734567;021-64730123,4.9,315.00,文化地标|体育休闲,上海市,上海市,徐汇区
B00155DJ3T,云峰剧院,体育休闲服务;影剧院;剧场,080603,北京西路1700(静安寺地铁站1号口步行440米),121.443016,31.226246,021-53530706,4.7,207.00,文化地标|体育休闲,上海市,上海市,静安区
B001549495,黄浦剧场,体育休闲服务;影剧院;电影院,080601,北京东路780号,121.475639,31.238464,021-63229103;021-63508739,4.6,60.00,文化地标|体育休闲,上海市,上海市,黄浦区
B00155QDCQ,人民大舞台,体育休闲服务;影剧院;剧场,080603,九江路663号,121.477966,31.234248,021-61326586;021-61005266;021-61326581,4.8,291.00,文化地标|体育休闲,上海市,上海市,黄浦区
B00155KKQI,上海天蟾逸夫舞台,体育休闲服务;影剧院;剧场,080603,福州路701号,121.477544,31.231892,021-63225075;021-63225294,4.8,188.00,文化地标|体育休闲,上海市,上海市,黄浦区
B00156NZA8,上海国际舞蹈中心,体育休闲服务;影剧院;剧场,080603,虹桥路1650号(水城路地铁站2号出口东侧),121.394385,31.199244,021-52990372,4.8,319.00,文化地标|体育休闲,上海市,上海市,长宁区
B0J6HMHE3M,第四面剧场(仙乐斯广场店),体育休闲服务;影剧院;剧场,080603,南京西路388号仙乐斯广场4层406,121.468953,31.231364,,4.2,[],文化地标|体育休闲,上海市,上海市,黄浦区
B0J2UL2KSV,喜联空间(无限极荟购物中心店),体育休闲服务;影剧院;剧场,080603,湖滨路168号无限极荟购物中心2楼W19b,121.477444,31.220394,17887950037,4.7,210.00,文化地标|体育休闲,上海市,上海市,黄浦区
B0FFG950NW,上剧场(美罗城店),体育休闲服务;影剧院;剧场,080603,肇嘉浜路1111号美罗城5层(地铁1号线徐家汇站10号出口),121.440082,31.192895,,4.7,336.00,文化地标|体育休闲,上海市,上海市,徐汇区
B0JBHNV05Q,宋城艺术演艺中心,体育休闲服务;影剧院;剧场,080603,世博大道1750号(世博大道地铁站1号口步行360米),121.483114,31.186629,,4.3,[],文化地标|体育休闲,上海市,上海市,浦东新区
B00156E1II,上海文化广场剧场,体育休闲服务;影剧院;剧场,080603,复兴中路597号,121.462248,31.211934,021-64729000,4.7,455.00,文化地标|体育休闲,上海市,上海市,黄浦区
B0H2YO140F,食物剧场(新天地时尚店),体育休闲服务;影剧院;剧场,080603,马当路与自忠路交叉口东北80米,121.475008,31.219034,,2.8,[],文化地标|体育休闲,上海市,上海市,黄浦区
B00156NDMO,阴阳club-沉浸式星空剧场,体育休闲服务;影剧院;剧场|体育休闲服务;娱乐场所;娱乐场所,080603|080300,南昌路125号(近茂名路),121.463748,31.217380,,4.5,312.00,文化地标|体育休闲,上海市,上海市,黄浦区
B0LB5M12C6,黄浦文化中心·大上海剧场,体育休闲服务;影剧院;剧场,080603,黄浦文化中心内,121.492008,31.214542,,4.7,510.00,文化地标|体育休闲,上海市,上海市,黄浦区
B0FFGFTISY,豫园·海上梨园,体育休闲服务;影剧院;剧场,080603,豫园文昌路10号和丰楼4层,121.491867,31.226088,021-63553801,4.6,224.00,文化地标|体育休闲,上海市,上海市,黄浦区
B0LRKXJPRM,幽灵剧场,体育休闲服务;影剧院;剧场,080603,九江路与金华路交叉口西南20米,121.477925,31.234225,,4.0,[],文化地标|体育休闲,上海市,上海市,黄浦区
B0LDNBUGRA,星空间72号·神庙剧场,体育休闲服务;影剧院;剧场,080603,第一百货c馆,121.475298,31.235600,,4.2,[],文化地标|体育休闲,上海市,上海市,黄浦区
B0K1GHS8KL,开心麻花大三角剧场(Gate M西岸梦中心),体育休闲服务;影剧院;剧场,080603,龙腾大道2266号Gate M西岸梦中心7栋3楼,121.465506,31.159621,,4.6,[],文化地标|体育休闲,上海市,上海市,徐汇区
B00155LZ8Q,端钧剧场,体育休闲服务;影剧院;剧场,080603,华山路600号上海戏剧学院内(近镇宁路),121.439977,31.217424,021-62482920,4.4,101.00,文化地标|体育休闲,上海市,上海市,静安区
B0L6YOL0Q4,面剧人沉浸式交互演绎剧场,体育休闲服务;影剧院;剧场,080603,胶州路941号长久商务中心801室,121.436525,31.237475,,4.4,[],文化地标|体育休闲,上海市,上海市,普陀区
B001574LUJ,中华艺术宫艺术剧场,体育休闲服务;影剧院;电影院,080601,上南路161号中华艺术宫1层,121.494558,31.184366,021-20252018;021-20252019,4.3,[],文化地标|体育休闲,上海市,上海市,浦东新区
B00155KLIS,小伙伴剧场,体育休闲服务;影剧院;剧场,080603,延安西路64号,121.443726,31.221318,021-62489564;021-62497119,4.2,121.00,文化地标|体育休闲,上海市,上海市,静安区
B0KDGDIZ89,大笑喜剧脱口秀俱乐部(人民广场店),体育休闲服务;影剧院;剧场,080603,南京东路800号第一百货商场c馆二楼,121.475088,31.235763,13671377873,4.7,[],文化地标|体育休闲,上海市,上海市,黄浦区
B0JB6KFV0T,魔脱喜剧脱口秀-人民广场店,体育休闲服务;影剧院;剧场,080603,南京西路388号仙乐斯广场4层406室,121.468968,31.231465,,4.7,[],文化地标|体育休闲,上海市,上海市,黄浦区
B0G3JG2ITS,星空间(亚洲大厦店),体育休闲服务;影剧院;剧场,080603,汉口路650号亚洲大厦,121.478020,31.233886,,4.6,301.00,文化地标|体育休闲,上海市,上海市,黄浦区
B0L1B5Y9QD,半笑喜剧(人民广场店),体育休闲服务;影剧院;剧场,080603,六合路98号港陆黄浦中心1层,121.474965,31.236575,,4.2,[],文化地标|体育休闲,上海市,上海市,黄浦区
B0JAYNH7VQ,星空间100号·猎剧场(暂停营业),体育休闲服务;影剧院;剧场,080603,第一百货c馆,121.475266,31.235662,,3.8,[],文化地标|体育休闲,上海市,上海市,黄浦区
B001508193,上海闵行体育公园,风景名胜;公园广场;公园,110101,新镇路456号,121.370878,31.143166,021-54823272;021-64612503,4.7,[],风景名胜|体育休闲,上海市,上海市,闵行区
B0G295OTG0,前滩体育公园,风景名胜;公园广场;公园,110101,前滩大道735号,121.464880,31.146551,021-20285577,4.6,[],风景名胜|体育休闲,上海市,上海市,浦东新区
B0FFK039C0,育音堂音乐公园,风景名胜;公园广场;水族馆|体育休闲服务;娱乐场所;娱乐场所,110104|080300,愚园路1398号B1层B1-02,121.422275,31.219175,021-52378662,4.7,120.00,风景名胜|体育休闲,上海市,上海市,长宁区
B0FFMCC2IW,康健社区体育公园,风景名胜;公园广场;公园|体育休闲服务;运动场馆;综合体育馆,110101|080101,康健新村街道桂林西街168号康健社区体育场内(近浦北路),121.418177,31.152215,021-54199404,4.2,[],风景名胜|体育休闲,上海市,上海市,徐汇区
B00154DH42,漕河泾开发区科创公园,风景名胜;公园广场;公园,110101,漕河泾新兴技术开发区桂果路601号(近宜山路),121.400330,31.169296,,4.1,[],风景名胜|体育休闲,上海市,上海市,徐汇区
B0FFFTRZGW,友城公园,风景名胜;公园广场;公园,110101,前滩大道108号,121.472198,31.157571,,4.3,[],风景名胜|体育休闲,上海市,上海市,浦东新区
B0FFH8I7B8,体汇+名都体育公园,风景名胜;公园广场;公园,110101,虹桥镇红松东路620号,121.398873,31.189377,13564350283,4.4,[],风景名胜|体育休闲,上海市,上海市,闵行区
B00155LI8X,梅陇好人公园,风景名胜;公园广场;公园,110101,上中西路788号,121.415918,31.131627,,3.9,[],风景名胜|体育休闲,上海市,上海市,闵行区
B0FFFEK0BT,上海体育场,体育休闲服务;运动场馆;综合体育馆,080101,徐家汇街道天钥桥路666号,121.442030,31.181448,021-64266666,4.9,400.00,体育休闲,上海市,上海市,徐汇区
B00155MS4T,东方体育中心,体育休闲服务;运动场馆;综合体育馆,080101,耀体路701号(东方体育中心地铁站6号口步行130米),121.477469,31.156002,021-20232008,4.9,75.00,体育休闲,上海市,上海市,浦东新区
B00155NIG5,上海体育馆,体育休闲服务;运动场馆;综合体育馆,080101,漕溪北路1111号(上海体育馆地铁站2号口步行140米),121.438321,31.181431,021-64266666,4.9,176.00,体育休闲,上海市,上海市,徐汇区
B00155IVED,静安运动健身中心,体育休闲服务;运动场馆;健身中心,080111,康定路151号,121.453126,31.235236,021-62727277,4.7,37.00,体育休闲,上海市,上海市,静安区
B001556IEG,上海游泳馆,体育休闲服务;运动场馆;游泳馆,080110,中山南二路1300号(上海游泳馆地铁站1号口步行230米),121.440718,31.179125,021-34196900,4.7,34.00,体育休闲,上海市,上海市,徐汇区
B001519FFF,卢湾体育馆,体育休闲服务;运动场馆;综合体育馆,080101,肇嘉浜路128号,121.464004,31.204371,021-64451045;021-64675358,4.8,50.00,体育休闲,上海市,上海市,黄浦区
B0FFHKDU6C,徐家汇体育公园,体育休闲服务;运动场馆;运动场所,080100,零陵路800号(上海游泳馆地铁站2号口旁),121.440734,31.181297,021-64266666,4.4,[],体育休闲,上海市,上海市,徐汇区
B0J2CZ3NPA,BANANA+香蕉攀岩(嘉里合集店),体育休闲服务;运动场馆;运动场所,080100,天目西路218号嘉里合集B1B103B104,121.456808,31.244932,13120709609,4.7,104.00,体育休闲,上海市,上海市,静安区
B0FFGBC02P,浦发银行东方体育中心体育馆,体育休闲服务;运动场馆;综合体育馆,080101,泳耀路300号,121.479260,31.157430,021-20236877,4.7,[],体育休闲,上海市,上海市,浦东新区
B0LUYCWQGG,香蕉攀岩(延安西路店),体育休闲服务;运动场馆;运动场所,080100,昭化路658号104、105室,121.418786,31.210117,15201920100,4.7,156.00,体育休闲,上海市,上海市,长宁区
B001524450,徐汇游泳馆(枫林路),体育休闲服务;运动场馆;游泳馆,080110,枫林路329号(近零陵路)(东安路地铁站1号口步行400米),121.457566,31.193415,021-64162756;021-64164838,4.7,42.00,体育休闲,上海市,上海市,徐汇区
B0I13SSZNE,YONEX虎啸球馆,体育休闲服务;运动场馆;羽毛球场|体育休闲服务;休闲场所;休闲场所,080118|080500,梅川路1258号1F-A,121.382529,31.243628,15821010670,4.7,104.00,体育休闲,上海市,上海市,普陀区
B001526576,静安区体育馆(西康路),体育休闲服务;运动场馆;综合体育馆,080101,南阳路123号,121.451782,31.227845,021-62587787,4.6,38.00,体育休闲,上海市,上海市,静安区
B0JU67OM2Q,国展体育公园羽毛球馆,体育休闲服务;运动场馆;羽毛球场,080118,国展路812号(世博大道地铁站2号口步行220米),121.485858,31.180618,17317673186,4.8,[],体育休闲,上海市,上海市,浦东新区
B0KG27Q55W,NICE酒吧(上海旗舰店),体育休闲服务;娱乐场所;酒吧|体育休闲服务;运动场馆;运动场所,080304|080100,万航渡888号,121.428387,31.228542,15618139783,4.7,200.00,体育休闲,上海市,上海市,静安区
B0LUL7AXNI,GOAT攀岩俱乐部(徐家汇TPY中心店),体育休闲服务;运动场馆;运动场所,080100,肇嘉浜路1117号TPY中心八楼,121.439165,31.193015,021-34197883;13370261020,4.6,127.00,体育休闲|科技体验,上海市,上海市,徐汇区
B0GD7A9IYU,虹桥镇体育中心,体育休闲服务;运动场馆;综合体育馆,080101,合川路3369号,121.379038,31.181611,18821281878,4.6,4902.00,体育休闲,上海市,上海市,闵行区
B0FFFJY4BS,上海市黄浦体育馆,体育休闲服务;运动场馆;综合体育馆,080101,九江路327号(南京东路地铁站4号口步行180米),121.483830,31.235907,021-63515223,4.5,38.00,体育休闲,上海市,上海市,黄浦区
B0FFFOSU8O,上海城市运动中心,体育休闲服务;运动场馆;综合体育馆,080101,山东中路2号,121.486075,31.231838,021-63212666,4.7,[],体育休闲,上海市,上海市,黄浦区
B0K3O7UMAZ,Change Pro(长宁龙之梦馆),体育休闲服务;运动场馆;健身中心,080111,长宁路1018号12层(中山公园地铁站出入口旁),121.416675,31.219175,021-62569839,4.5,456.00,体育休闲,上海市,上海市,长宁区
B00155L0U4,上海徐汇万体馆,体育休闲服务;运动场馆;综合体育馆|体育休闲服务;影剧院;剧场,080101|080603,漕溪北路1111号(上海体育馆地铁站2号口步行140米),121.438374,31.181445,,4.4,158.00,体育休闲,上海市,上海市,徐汇区
B0KB7CN8OV,普陀体育馆,体育休闲服务;运动场馆;综合体育馆,080101,普雄路与曹杨路交叉口东北80米,121.420890,31.236121,021-62661978,4.6,51.00,体育休闲,上海市,上海市,普陀区
B0G3Z7TTEO,洛克公园(总店),体育休闲服务;运动场馆;篮球场馆,080104,曹杨路400号(曹杨路地铁站2号口步行330米),121.420901,31.236111,021-62661978,4.6,40.00,体育休闲,上海市,上海市,普陀区
B0L0L7A6A6,静安嘉里中心,体育休闲服务;运动场馆;健身中心,080111,南京西路1515号静安嘉里中心东区商场L3层,121.450059,31.224105,,4.4,[],体育休闲,上海市,上海市,静安区
B00155GGA6,卢湾体育场,体育休闲服务;运动场馆;综合体育馆,080101,建国西路135号(嘉善路地铁站2号口步行490米),121.464014,31.205100,021-64672065;021-64675358,4.6,54.00,体育休闲,上海市,上海市,黄浦区
B001574KZG,阿迪达斯徐家汇公园篮球场,体育休闲服务;运动场馆;篮球场馆,080104,肇嘉浜路986号(徐家汇公园内),121.443668,31.198358,15026454743,4.7,[],体育休闲,上海市,上海市,徐汇区
B00156F271,七宝中学游泳馆,体育休闲服务;运动场馆;游泳馆,080110,农南路22号七宝中学内,121.367378,31.151593,021-64592100,4.6,32.00,体育休闲,上海市,上海市,闵行区
B0HR4O2LB8,得乐坊Livehub健身(前滩得乐坊店),体育休闲服务;运动场馆;健身中心|购物服务;商场;商场,080111|060100,三林镇钱家滩路480号前滩时代广场3号楼2楼,121.479024,31.151461,021-50713009,4.4,2948.00,体育休闲,上海市,上海市,浦东新区
B0LAFHZ0NB,加伍磅健身PLUS(新天地店),体育休闲服务;运动场馆;健身中心,080111,湖滨路168号(近新天地)无限极荟购物中心B1-W01,121.477785,31.220645,18202165915,4.5,4511.00,体育休闲,上海市,上海市,黄浦区
B00155NLFX,梅陇镇文化体育中心,体育休闲服务;运动场馆;综合体育馆,080101,高兴路108号(近莲花南路),121.404686,31.114188,021-34700371;021-34700381,4.5,26.00,体育休闲,上海市,上海市,闵行区
B00154O2TB,仙霞网球中心,体育休闲服务;运动场馆;网球场,080103,虹桥路1885号(水城路地铁站3号口步行470米),121.387432,31.199631,021-62628327,4.6,62.00,体育休闲,上海市,上海市,长宁区
B0IRDZKJN3,静安区工人体育场,体育休闲服务;运动场馆;综合体育馆,080101,昌平路888号(昌平路地铁站5号口步行180米),121.439012,31.233987,021-62533456,4.5,28.00,体育休闲,上海市,上海市,静安区
B0G064LPHK,PURE Yoga&Fitness(太古汇会馆),体育休闲服务;运动场馆;健身中心,080111,南京西路699号2、3、4楼,121.463284,31.230295,021-52832363,4.7,14956.00,体育休闲,上海市,上海市,静安区
B0H2H1KE8Z,上海久事国际马术中心,体育休闲服务;运动场馆;综合体育馆,080101,通耀路251号(后滩地铁站4号口步行320米),121.475476,31.174504,18912555023,4.7,420.00,体育休闲,上海市,上海市,浦东新区
B0KKL7BPT4,24/ 7FITNESS(前滩公园店),体育休闲服务;运动场馆;健身中心,080111,耀龙路1359号E1栋F2,121.474460,31.153805,18321439639,4.5,5920.00,体育休闲,上海市,上海市,浦东新区
B0I13ZQ7G2,洛克公园篮球馆(沪西工人文化宫店),体育休闲服务;运动场馆;篮球场馆,080104,曹杨路520号(曹杨路地铁站2号口步行300米),121.419374,31.237896,021-62372225,4.5,38.00,体育休闲,上海市,上海市,普陀区
B0G1MSWMVB,万国体育(上海世博击剑运动中心),体育休闲服务;运动场馆;综合体育馆,080101,耀江路590号1号楼、2号楼、3号楼,121.474114,31.162401,17521288509,4.4,[],体育休闲,上海市,上海市,浦东新区
B0FFHLMFNQ,西郊体育中心,体育休闲服务;运动场馆;综合体育馆,080101,程家桥街道虹桥路1949号(近虹梅路),121.385048,31.198287,021-62198800,4.5,134.00,体育休闲,上海市,上海市,长宁区
B0JUOL9551,MYbarre脉芭(悟锦世纪大楼店),体育休闲服务;运动场馆;健身中心|体育休闲服务;运动场馆;综合体育馆,080111|080101,悟锦世纪大楼3A层406,121.452390,31.217285,13072161672;15110622629,4.5,131.00,体育休闲,上海市,上海市,徐汇区
B0LU2UOXSV,YUNIK电竞酒店(上海九院斜土东路店),体育休闲服务;运动场馆;运动场所,080100,斜土东路350号4F,121.485179,31.206714,021-63730898,4.9,[],体育休闲,上海市,上海市,黄浦区
B0K2FRO89Q,M6台球俱乐部(上海乔氏旗舰店),体育休闲服务;运动场馆;台球厅,080113,吴中路1235号,121.381851,31.175638,13940444816,4.6,[],体育休闲,上海市,上海市,闵行区
B0LAA54TJI,mYSTEPS life 大型健身空间(凯欣豪园店),体育休闲服务;运动场馆;健身中心,080111,汇川路88号(中山公园地铁站10号口步行120米),121.417933,31.216978,16601805526,4.5,1438.00,体育休闲,上海市,上海市,长宁区
B00155QJBP,闵行体育馆,体育休闲服务;运动场馆;综合体育馆,080101,新镇路288号,121.370841,31.141808,021-54865928,4.4,[],体育休闲,上海市,上海市,闵行区
B0FFJHH8VD,Y+瑜伽会所(嘉善路店),体育休闲服务;运动场馆;健身中心,080111,嘉善路307号A01,121.460367,31.206260,15316865091,4.6,1610.00,体育休闲,上海市,上海市,徐汇区
B00154QY6B,闵行区体育场,体育休闲服务;运动场馆;综合体育馆,080101,莘东路540号,121.373433,31.116181,021-64922073,4.6,23.00,体育休闲,上海市,上海市,闵行区
B0LBDLYQO0,PP台球俱乐部,体育休闲服务;运动场馆;台球厅,080113,天山路1111号现所创邑D栋五层518,121.407232,31.210135,15021524458,4.5,[],体育休闲,上海市,上海市,长宁区
B0FFFEY0AC,外滩·湾璟会,商务住宅;楼宇;商务写字楼|体育休闲服务;运动场馆;健身中心|体育休闲服务;休闲场所;休闲场所,120201|080111|080500,中山南一路468号(世博会博物馆地铁站3号口步行360米),121.484304,31.199284,,4.4,195.00,体育休闲,上海市,上海市,黄浦区
B0L6NSA994,Change Pro(静安MOHO馆),体育休闲服务;运动场馆;健身中心,080111,江宁路699号MOHO MallF3层,121.448475,31.237325,021-62880308,4.4,470.00,体育休闲,上海市,上海市,静安区
B0FFM59VB5,PURE Fitness(新天地会馆),体育休闲服务;运动场馆;健身中心,080111,淮海中路381号中环广场L4-1,121.472938,31.222032,021-63133008,4.4,1067.00,体育休闲,上海市,上海市,黄浦区
B0IBBAU09L,徐家汇体育公园综合馆,体育休闲服务;运动场馆;运动场所,080100,漕溪北路1111号(上海体育馆地铁站6号口步行360米),121.438204,31.179816,021-34196878,4.5,[],体育休闲,上海市,上海市,徐汇区
B0KKDMW7NK,云川台球(黄浦雅居乐国际广场店),体育休闲服务;运动场馆;台球厅,080113,长沙路28号2楼云川台球,121.472685,31.235978,021-63127188,4.6,[],体育休闲,上海市,上海市,黄浦区
B0FFK7VAKB,BOLDWELLNESSCULB,体育休闲服务;运动场馆;健身中心,080111,马当路616号(马当路地铁站4号口旁),121.476020,31.209686,021-53866669,4.5,3396.00,体育休闲,上海市,上海市,黄浦区
B0FFKJETSS,上海虹桥国际外籍人员子女学校,体育休闲服务;运动场馆;运动场所,080100,伊犁南路218号(姚虹路地铁站3号口步行50米),121.404947,31.191954,021-62682074;021-62683121;19301283399,[],[],体育休闲,上海市,上海市,长宁区
B0H1NC9X6R,洛克中环篮球公园,体育休闲服务;运动场馆;篮球场馆,080104,云岭东路89号,121.376996,31.224979,021-62563973,4.5,36.00,体育休闲,上海市,上海市,普陀区
B0FFI833K7,曼逸瑜伽(苏河店),体育休闲服务;运动场馆;健身中心,080111,南苏州路381号2楼(南京东路地铁站6号口步行340米),121.483569,31.241728,021-31006866;021-63610430,4.7,151.00,体育休闲,上海市,上海市,黄浦区
B001575RPF,和平饭店-健身中心,体育休闲服务;运动场馆;健身中心,080111,南京东路20号和平饭店1楼蔚柳溪水疗中心内(近中山东一路),121.489459,31.239065,021-61386813;021-61386818,4.4,[],体育休闲,上海市,上海市,黄浦区
B0FFKPGV7Y,魔赛卡丁车赛车汇,体育休闲服务;运动场馆;运动场所,080100,云锦路500号(GRC·绿地滨江CLUB)B1层,121.457875,31.164975,19822798980,4.5,159.00,体育休闲,上海市,上海市,徐汇区
B00154NIU6,上海市体育场馆设施管理中心-田林体育俱乐部,体育休闲服务;运动场馆;运动场所,080100,钦州路728号,121.428605,31.174666,021-54974676;021-54979800,4.4,35.00,体育休闲,上海市,上海市,徐汇区
B0KGFZ3AOE,PANATTA普拉达健身(西岸中環钻石会所),体育休闲服务;运动场馆;健身中心,080111,瑞宁路258号1幢1层,121.469760,31.189153,021-61674367,4.5,19199.00,体育休闲,上海市,上海市,徐汇区
B0HU9R7NEV,HGA网球俱乐部(三林前滩店),体育休闲服务;运动场馆;网球场,080103,济阳路1973号,121.491843,31.136925,4000399398,4.5,165.00,体育休闲,上海市,上海市,浦东新区
B0JGXL4EUQ,PURE Yoga & Fitness(环贸iapm会馆),体育休闲服务;运动场馆;健身中心,080111,淮海中路999号环贸iapm商场L6层L6-616,121.459013,31.215768,021-53890268;021-54661266,4.4,14817.00,体育休闲,上海市,上海市,徐汇区
B0FFFR4J44,Z&B Fitness Studio&Gym(长乐路店),体育休闲服务;运动场馆;健身中心,080111,长乐路1219号长鑫大厦1层和14层(近乌鲁木齐路),121.442553,31.214957,021-54019537;021-61219079,4.4,122.00,体育休闲,上海市,上海市,徐汇区
B0KAR4C91B,STAND峰动篮球馆,体育休闲服务;运动场馆;篮球场馆,080104,南苏州路1501号5号楼,121.460486,31.238757,13482676428,4.5,41.00,体育休闲,上海市,上海市,静安区
B0LUBU3DVE,薰风·嗨友羽毛球馆,体育休闲服务;运动场馆;跆拳道场馆,080119,瑞宁路899号上海阳光滨江中心三楼,121.458992,31.180124,18321429313,4.6,[],体育休闲,上海市,上海市,徐汇区
B0I1J1ICKJ,鲁班游泳馆(鲁班路店),体育休闲服务;运动场馆;游泳馆,080110,鲁班路183弄7号,121.475745,31.205587,021-63017618,4.4,42.00,体育休闲,上海市,上海市,黄浦区
B0H3DRT98E,ENDLESS RACING模拟赛车(大世界店),体育休闲服务;运动场馆;运动场所,080100,浙江南路88号东新大厦2楼214室,121.482111,31.228683,13004175617;17317925602,4.2,99.00,体育休闲,上海市,上海市,黄浦区
B0HUACC27Q,索尔羽毛球训练基地,体育休闲服务;运动场馆;羽毛球场,080118,顾戴路1618号紫江喷铝院内,121.379618,31.139019,15000884569,4.5,[],体育休闲,上海市,上海市,闵行区
B0K0R5OIUX,田林街道市民健身中心,体育休闲服务;运动场馆;健身中心,080111,田林东路588号田林街道市民健身中心7-10楼,121.423937,31.172352,021-64182318,4.5,[],体育休闲,上海市,上海市,徐汇区
B0LUPS0VL4,Z+ByZ,体育休闲服务;运动场馆;健身中心,080111,南京西路1717南号L1层L102号、L2层商铺,121.444620,31.221274,021-52991796;18321505900,4.4,1841.00,体育休闲,上海市,上海市,静安区
B0FFJXMKJN,飞扬冰上运动中心(浦西馆),体育休闲服务;运动场馆;溜冰场,080107,罗锦路218号30幢1号门,121.415200,31.122115,021-33583880,4.4,66.00,体育休闲,上海市,上海市,闵行区
B0HAB6OA1C,运康体育公园,体育休闲服务;运动场馆;篮球场馆,080104,梅陇镇伟业路855号,121.400411,31.115764,13032117938;13122680889,4.5,[],体育休闲,上海市,上海市,闵行区
B0GD5S2JW3,八万人体育馆-外场足球场,体育休闲服务;运动场馆;足球场,080105,零陵路与三角东街交叉口东120米,121.440205,31.182966,,4.4,86.00,体育休闲,上海市,上海市,徐汇区
B0HDY5QPJW,高远羽毛球馆,体育休闲服务;运动场馆;羽毛球场,080118,华中路408号,121.355275,31.133084,15711666635;18916640683,4.5,185.00,体育休闲,上海市,上海市,闵行区
B0JDRDIKG8,BenchmarkClimbingGym,体育休闲服务;运动场馆;健身中心,080111,银城大厦三楼(金沙江路地铁站5号口步行220米),121.410534,31.229162,021-62092061;18701712662,4.4,54.00,体育休闲,上海市,上海市,普陀区
B0L6XC3PN2,Victor荫荫羽毛球闵行专卖店,体育休闲服务;运动场馆;羽毛球场,080118,顾戴路1618号(虹莘路地铁站4号口步行420米),121.378330,31.138910,15202138154;19921980144,4.4,[],体育休闲,上海市,上海市,闵行区
B0H6YS7GSG,洛克公园篮球羽毛球(北新泾馆),体育休闲服务;运动场馆;篮球场馆|体育休闲服务;休闲场所;休闲场所,080104|080500,北翟路57号,121.376178,31.219485,021-62087023,4.4,39.00,体育休闲,上海市,上海市,长宁区
B0J1LPPMLF,不可思议运动街区(莘庄维璟印象城),体育休闲服务;运动场馆;运动场所,080100,七宝镇七莘路1507号莘庄维璟印象城3楼,121.363743,31.131511,13096950434,4.2,93.00,体育休闲,上海市,上海市,闵行区
B0H01RR22T,KOTC美式复合篮球馆(徐汇凌云店),体育休闲服务;运动场馆;篮球场馆,080104,罗秀路1129号凌云市民健身中心2楼(近白鹿市场),121.425376,31.129415,15618929252,4.4,43.00,体育休闲,上海市,上海市,徐汇区
B00150CEAC,斜桥游泳池,体育休闲服务;运动场馆;游泳馆,080110,大吉路218号(陆家浜路地铁站4号口步行330米),121.483199,31.213472,021-63450508,4.4,24.00,体育休闲,上海市,上海市,黄浦区
B00155D6CE,金汇足球公园,体育休闲服务;运动场馆;足球场,080105,金汇路488号,121.375136,31.178679,15301882619,4.4,57.00,体育休闲,上海市,上海市,闵行区
B0KDSSWD4I,XBOX家庭运动中心(中庚漫游城店),体育休闲服务;运动场馆;运动场所,080100,闵虹路8号中庚漫游城F4层,121.398126,31.131055,18201775211,4.6,183.00,体育休闲,上海市,上海市,闵行区
B0LA1U9Q7F,羽鼎羽毛球俱乐部,体育休闲服务;运动场馆;羽毛球场,080118,伯士路57弄118号西广场4楼,121.375735,31.231066,18329012221,4.5,[],体育休闲,上海市,上海市,普陀区
B001536B22,上海市长宁区长宁温水游泳池,体育休闲服务;运动场馆;游泳馆,080110,愚园路1041号(江苏路地铁站7号口步行300米),121.429542,31.218274,021-62136501;021-62522797,4.4,435.00,体育休闲,上海市,上海市,长宁区
B0LRKUKDCO,IRONJUNGLE GYM爱扔浆果健身(三林前滩店),体育休闲服务;运动场馆;健身中心,080111,三林镇三林路105号风动园区104室,121.493434,31.138980,,4.5,296.00,体育休闲,上海市,上海市,浦东新区
B0KUFM4NHE,至臻网球(前滩店),体育休闲服务;运动场馆;网球场,080103,西营南路555号杨思新东里运动中心3层,121.487951,31.152413,13761831377,4.4,233.00,体育休闲,上海市,上海市,浦东新区
B0IK5AS65D,STUD CROSSFIT(泰丰大厦店),体育休闲服务;运动场馆;健身中心,080111,徐家汇路555号泰丰大厦1层1d区,121.472427,31.207729,18677077729;19821110931,4.4,1057.00,体育休闲,上海市,上海市,黄浦区
B0LG717PX8,GMJ·24H健身房(徐家汇店),体育休闲服务;运动场馆;健身中心,080111,漕溪北路595号5幢地下一层B区101-102单元,121.438175,31.186875,17621725153,4.4,2127.00,体育休闲,上海市,上海市,徐汇区
B0K1UCB8P0,至臻网球(西岸店),体育休闲服务;运动场馆;网球场,080103,百色路88号博翠中心20号楼B1层,121.448517,31.144284,13818181779,4.5,214.00,体育休闲,上海市,上海市,徐汇区
B0L1UU3BDK,24/7 FITNESS(新天地东台里店),体育休闲服务;运动场馆;健身中心,080111,西藏南路368号太平洋新天地T2地下一层B-LG106单元,121.480832,31.221962,18988765354,4.4,61.00,体育休闲,上海市,上海市,黄浦区
B0JBOZJDDU,乐刻运动健身,体育休闲服务;运动场馆;健身中心,080111,白玉路101号2层(曹杨路地铁站2号口步行90米),121.417658,31.236375,15316677738,4.4,2049.00,体育休闲,上海市,上海市,普陀区
B0I2CZ96OH,Mars Pro(大木桥店),体育休闲服务;运动场馆;健身中心,080111,大木桥路588号(大木桥路地铁站5号口旁),121.463467,31.193641,13917907521,4.4,1335.00,体育休闲,上海市,上海市,徐汇区
B0FFK93C2P,Z&B FITNESS健身中心(香港广场店),体育休闲服务;运动场馆;健身中心,080111,淮海中路283号香港广场购物中心北区F4层,121.474625,31.223720,021-63296673;13122499675,4.4,125.00,体育休闲,上海市,上海市,黄浦区
B0JG2S7N56,新东里羽毛球馆,体育休闲服务;运动场馆;羽毛球场,080118,西营南路555号,121.487918,31.152490,15317990649,4.6,[],体育休闲,上海市,上海市,浦东新区
B0FFG4PQFR,敬业游泳馆,体育休闲服务;运动场馆;游泳馆,080110,尚文路183号,121.490625,31.215626,,4.4,26.00,体育休闲,上海市,上海市,黄浦区
B0J30H979B,洛克公园SSR运动娱乐中心国际篮联篮球之家(光大店),体育休闲服务;运动场馆;篮球场馆,080104,漕宝路88号光大会展中心(西馆)三楼,121.427317,31.167547,19370972278,4.6,[],体育休闲,上海市,上海市,徐汇区
B00155KL3B,华东师范大学普陀校区体育馆,体育休闲服务;运动场馆;综合体育馆,080101,中山北路3663号华东师范大学,121.409334,31.227350,021-62233602,4.5,21.00,体育休闲,上海市,上海市,普陀区
B0L1XZQA5R,24/7 FITNESS(CP静安),体育休闲服务;运动场馆;健身中心,080111,愚园路68号CP静安L5层(静安寺地铁站出入口步行320米),121.446252,31.225256,13917332920;15901678858,4.4,2224.00,体育休闲,上海市,上海市,静安区
B0K1G7SF9R,OO台球,体育休闲服务;运动场馆;台球厅,080113,虹梅路2975号,121.392014,31.181102,15301936575,4.5,[],体育休闲,上海市,上海市,闵行区
B0KKB6GXOX,乐滑之梦冰乐园(西岸梦中心店),体育休闲服务;运动场馆;运动场所,080100,龙腾大道2266号西岸梦中心剧院广场(户外),121.465493,31.162802,13788975783,4.3,[],体育休闲,上海市,上海市,徐汇区
B0FFG6BRTM,丁俊晖台球俱乐部(长寿路店),体育休闲服务;运动场馆;台球厅,080113,长寿路97号世纪商务大厦4层,121.443024,31.243243,021-52522531,4.4,57.00,体育休闲,上海市,上海市,普陀区
B0G2AU4WR8,海之宝游泳中心,体育休闲服务;运动场馆;游泳馆,080110,耀江路590号-2,121.472589,31.162872,18001995309,4.5,[],体育休闲,上海市,上海市,浦东新区
B0FFHW5K4Q,源8台球俱乐部(绿地缤纷城西区),体育休闲服务;运动场馆;台球厅,080113,东安路562号徐汇绿地缤纷城西区中庭BM层,121.457430,31.183430,,4.4,44.00,体育休闲,上海市,上海市,徐汇区
B0FFKRQP2K,加伍磅健身(锦和越界智造坊店),体育休闲服务;运动场馆;健身中心,080111,局门路419-421号,121.482171,31.203375,13262616015,4.4,4927.00,体育休闲,上海市,上海市,黄浦区
B0LAV17XWG,mYSTEPS life 大型健身空间(华府天地店),体育休闲服务;运动场馆;健身中心,080111,自忠路386号华府天地商场B1层,121.474286,31.218654,18521322197,4.4,171.00,体育休闲,上海市,上海市,黄浦区
B0KUGZM3NT,TENNIS WORLD网球世界,体育休闲服务;运动场馆;网球场,080103,光复西路与丹巴路交叉口西300米路西桥底下,121.376314,31.221202,15800862878,4.4,64.00,体育休闲,上海市,上海市,普陀区
B0L2A51MZB,乐刻运动健身(西岸凤巢AI PLAZA店),体育休闲服务;运动场馆;健身中心,080111,云锦路683号西岸凤巢AI PLAZA B1层麦当劳斜对面,121.460889,31.163627,19901699185,4.4,1046.00,体育休闲|科技体验,上海市,上海市,徐汇区
B0FFM1E7R4,乐刻健身(法华门市店),体育休闲服务;运动场馆;健身中心,080111,法华镇路455号2楼,121.426491,31.204772,13120910534,4.4,1777.00,体育休闲,上海市,上海市,长宁区
B0KDURDZ1Z,漠浔健身MOTION(天钥桥路店),体育休闲服务;运动场馆;健身中心,080111,天钥桥路318号,121.441720,31.188978,19921556942,4.4,4613.00,体育休闲,上海市,上海市,徐汇区
B0K2PCKV1U,越雷健身,体育休闲服务;运动场馆;健身中心,080111,北京西路833号京泰楼2楼,121.458845,31.231307,021-63806980,4.4,258.00,体育休闲,上海市,上海市,静安区
B0FFFCTNMZ,上海市徐汇区青少年水上运动学校,体育休闲服务;运动场馆;羽毛球场,080118,枫林路329号(东安路地铁站1号口步行440米),121.457788,31.193361,021-64164838,4.3,[],体育休闲,上海市,上海市,徐汇区
B0I0BOEJI4,乐刻运动健身(徐汇亚太精品馆),体育休闲服务;运动场馆;健身中心,080111,大木桥路与肇嘉浜路交叉口西南40米(嘉善路地铁站5号口旁)2楼,121.460615,31.202275,19802198388,4.4,1223.00,体育休闲,上海市,上海市,徐汇区
B0L2CAHPD8,24/7 FITNESS(长宁来福士店),体育休闲服务;运动场馆;健身中心,080111,长宁路1191号长宁来福士广场-西区4层03-05号,121.413924,31.216935,15216635937,4.4,1725.00,体育休闲,上海市,上海市,长宁区
B0L0BCUZ2G,SAVAGE运动空间(中信泰富店),体育休闲服务;运动场馆;健身中心,080111,南京西路1168号中信泰富广场3层309号铺位,121.455634,31.228274,18201809700,4.4,43.00,体育休闲,上海市,上海市,静安区
B0FFIRVSBG,MOB迈博健身游泳(徐汇旗舰店),体育休闲服务;运动场馆;健身中心|体育休闲服务;运动场馆;游泳馆,080111|080110,枫林国际·科创园西南门旁(桂林路地铁站13号口旁),121.415473,31.177413,021-64750330;021-64750331,4.4,5665.00,体育休闲,上海市,上海市,徐汇区
B0FFHI3Y04,闵行区少体校羽毛球馆训练馆,体育休闲服务;运动场馆;羽毛球场,080118,莘庄镇莘东路540号,121.373055,31.115469,021-64882028,4.4,34.00,体育休闲,上海市,上海市,闵行区
B0LA7AVALO,乐刻运动健身(天山路巴黎春天店),体育休闲服务;运动场馆;健身中心,080111,天山路街道天山路762号巴黎春天西区6层,121.402377,31.211735,18321667516,4.3,3070.00,体育休闲,上海市,上海市,长宁区
B0K23U0Y39,24/7 FITNESS(徐汇美罗城店),体育休闲服务;运动场馆;健身中心,080111,肇嘉浜路1111号美罗城L4-A3,121.439647,31.192947,15901678827,4.4,2581.00,体育休闲,上海市,上海市,徐汇区
B0LRN5KXXJ,现代丛林健身会所(徐家汇店),体育休闲服务;运动场馆;健身中心,080111,肇嘉浜路955号2楼(徐家汇地铁站14号口步行420米),121.443156,31.195751,18121006801,4.5,4115.00,体育休闲,上海市,上海市,徐汇区
B0L1MDGYIO,乐刻运动健身(亚新生活广场铁馆),体育休闲服务;运动场馆;健身中心,080111,长寿路318号(长寿路地铁站7号口步行180米),121.437474,31.239102,19145485998,4.4,440.00,体育休闲,上海市,上海市,普陀区
B0J27CCS30,乐动力西岸栖羽体育中心,体育休闲服务;运动场馆;运动场所,080100,龙腾大道与喜泰支路交叉口西南60米,121.454108,31.145117,13072170790,4.4,[],体育休闲,上海市,上海市,徐汇区
B0FFG8I1BF,乐游宝宝亲子游泳(徐汇中心),体育休闲服务;运动场馆;游泳馆|生活服务;婴儿服务场所;婴儿游泳馆,080110|072001,钦州北路226号田尚坊b28,121.418618,31.180680,021-31593746,4.4,166.00,体育休闲,上海市,上海市,徐汇区
B0K6B5GTNE,Z&B FITNESS,体育休闲服务;运动场馆;健身中心,080111,东育路345号前滩L+PLAZA F3层,121.482067,31.156078,021-68406053,4.4,3657.00,体育休闲,上海市,上海市,浦东新区
B0K0FHDJOH,纳羽丰羽毛球网球馆,体育休闲服务;运动场馆;羽毛球场,080118,吴中路586号,121.401339,31.183882,13817661559;13901605267,4.5,[],体育休闲,上海市,上海市,闵行区
B0JAS76XZH,斜土社区市民健身中心,体育休闲服务;运动场馆;健身中心,080111,零陵北路1号二楼(大木桥路地铁站1号口步行420米),121.464758,31.197035,13635971138,4.4,81.00,体育休闲,上海市,上海市,徐汇区
B0JDZZFVVH,乐刻运动健身(中信泰富广场店),体育休闲服务;运动场馆;健身中心,080111,南京西路1168号中信泰富广场F4层,121.455611,31.228503,18917742306,4.4,2163.00,体育休闲,上海市,上海市,静安区
B0LBBCKFDP,24/7 FITNESS(凯德星贸店),体育休闲服务;运动场馆;健身中心,080111,恒通路318号凯德星贸中心03层06-08号,121.458448,31.240904,13482506247,4.4,2323.00,体育休闲,上海市,上海市,静安区
B0JDZCAMW3,The ZUK Bar,体育休闲服务;运动场馆;运动场所|购物服务;购物相关场所;购物相关场所,080100|060000,威海路380号(南京西路地铁站8号口步行140米),121.464451,31.227544,15315564344;4009963652,4.1,160.00,体育休闲,上海市,上海市,静安区
B0LDTX8HBT,元拓健身YouTop Gym,体育休闲服务;运动场馆;健身中心,080111,虹梅南路863号5号楼4层(宝岛眼镜左侧电梯),121.422840,31.124397,13167213903,4.5,1930.00,体育休闲,上海市,上海市,闵行区
B0I3FRU8U6,韦格健身(建滔广场店),体育休闲服务;运动场馆;健身中心,080111,通斜路269号建滔广场中庭2F219-220室,121.356186,31.225474,021-62202464,4.7,2080.00,体育休闲,上海市,上海市,长宁区
B0FFFAL85E,Y+瑜伽会所(新天地店),体育休闲服务;运动场馆;健身中心,080111,湖滨路202号企业天地5号楼3层,121.478996,31.221019,15316865091,4.6,1009.00,体育休闲,上海市,上海市,黄浦区
B00155FUP0,星之健身(卢湾店),体育休闲服务;运动场馆;游泳馆|体育休闲服务;运动场馆;健身中心,080110|080111,建国西路135卢湾区体育中心综合楼5层,121.463844,31.207043,021-64666836,4.5,1643.00,体育休闲,上海市,上海市,黄浦区
B0FFJB4CGX,SUPER MONKEY 超级猩猩健身(新天地时尚店),体育休闲服务;运动场馆;健身中心,080111,马当路245号新天地时尚二期B1层B137,121.475184,31.216984,,4.4,111.00,体育休闲,上海市,上海市,黄浦区
B0LA9RZ9EI,Cyberpunk198健身(前滩至尊店),体育休闲服务;运动场馆;健身中心,080111,园照路200号莱佛士医院1号门,121.468880,31.146596,15001758249,4.4,816.00,体育休闲,上海市,上海市,浦东新区
B0G0AGT6HJ,中安射击运动俱乐部(柒彩里中心店),体育休闲服务;运动场馆;运动场所,080100,万航渡路838号静安绿地柒彩里B1层,121.429506,31.228106,13122826445,4.4,288.00,体育休闲,上海市,上海市,静安区
B00152AEF6,林百欣游泳馆,体育休闲服务;运动场馆;游泳馆,080110,茅台路665号,121.387885,31.210230,021-62905417,4.3,24.00,体育休闲,上海市,上海市,长宁区
B0IATZLSZ0,跨采中心羽毛球馆,体育休闲服务;运动场馆;羽毛球场,080118,中江路121号5号门(长风公园地铁站3号口步行490米),121.392286,31.221632,021-52802266,4.4,[],体育休闲,上海市,上海市,普陀区
B00154VOEZ,上海市体育场馆设施管理中心康东网球馆,体育休闲服务;运动场馆;网球场|体育休闲服务;运动场馆;综合体育馆,080103|080101,浦北路270号,121.422054,31.155898,021-64750504,4.5,46.00,体育休闲,上海市,上海市,徐汇区
B0FFI8OQ4A,Space(兴业太古汇店),购物服务;服装鞋帽皮具店;品牌服装店|体育休闲服务;运动场馆;健身中心,061101|080111,南京西路789号兴业太古汇L3层L343,121.463174,31.228494,021-62881529,4.5,222.00,体育休闲,上海市,上海市,静安区
B0KRLC6RV6,珀曼健身(古北店),体育休闲服务;运动场馆;健身中心,080111,虹中路158号古北尚公馆B1层,121.384242,31.181524,13061990064,4.5,3072.00,体育休闲,上海市,上海市,闵行区
B0JGD7J6ZM,攀竞体育(静安馆),体育休闲服务;运动场馆;运动场所,080100,和一大厦北面1层,121.453722,31.235118,,4.4,73.00,体育休闲,上海市,上海市,静安区
B0FFGIQP0J,春天健身连锁(曹杨影城店),体育休闲服务;运动场馆;健身中心,080111,兰溪路125号曹杨影城5楼,121.405799,31.238880,021-62110120,4.4,3082.00,体育休闲,上海市,上海市,普陀区
B0L3O7XUM2,至臻网球徐汇旗舰店,体育休闲服务;运动场馆;网球场,080103,平福路299-1号室内网球场(有空调),121.448511,31.135174,16628559965,4.5,238.00,体育休闲,上海市,上海市,徐汇区
B0GK0G9GGY,KC篮球公园(水清路店),体育休闲服务;运动场馆;篮球场馆,080104,水清路1390号,121.373810,31.132845,13611871461;13641763569,4.5,33.00,体育休闲,上海市,上海市,闵行区
B0LAR9EED8,24/7 FITNESS(莘庄SkyMall店),体育休闲服务;运动场馆;健身中心,080111,都市路5001号仲盛世界商城F5层,121.387475,31.107775,13681626851,4.4,2853.00,体育休闲,上海市,上海市,闵行区
B0FFFWUL6X,东方体育中心羽毛球馆,体育休闲服务;运动场馆;羽毛球场,080118,泳耀路300号,121.478795,31.157709,021-20236877,4.4,[],体育休闲,上海市,上海市,浦东新区
B0LGURFZ1M,洛克公园水世界·冲浪潜水馆,体育休闲服务;运动场馆;篮球场馆,080104,西营南路555号2层222-225-230-235,121.488421,31.150907,,4.4,38.00,体育休闲,上海市,上海市,浦东新区
B0FFJYBWZV,乐刻运动健身(第一百货旗舰店),体育休闲服务;运动场馆;健身中心,080111,南京东路800号第一百货c馆2层(阿迪达斯对面扶梯旁边),121.475308,31.235767,15800737885;17521602507,4.4,1214.00,体育休闲,上海市,上海市,黄浦区
B00156O3MU,黄浦市民健身中心,体育休闲服务;运动场馆;健身中心,080111,九江路327号(南京东路地铁站3号口步行130米),121.483568,31.236121,021-63515223,4.5,[],体育休闲,上海市,上海市,黄浦区
B0FFHIVWRR,伍拾壹亚力山大健身游泳(古北店),体育休闲服务;运动场馆;健身中心,080111,玛瑙路228号(古北瑞仕花园),121.403485,31.195641,021-61512788;021-62111268,4.4,5494.00,体育休闲,上海市,上海市,长宁区
B0FFJOZL2U,乐刻运动健身(宜山路新华博库店),体育休闲服务;运动场馆;健身中心,080111,宜山路515号博库书城L2-3号,121.425840,31.180606,17721470690,4.4,2022.00,体育休闲,上海市,上海市,徐汇区
B0H3DDRGJQ,SUPER MONKEY 超级猩猩健身(晶耀前滩店),体育休闲服务;运动场馆;健身中心|购物服务;服装鞋帽皮具店;服装鞋帽皮具店,080111|061100,耀体路308号晶耀前滩Crystal Plaza F1层,121.477861,31.152353,,4.4,4186.00,体育休闲,上海市,上海市,浦东新区
B0H3F58JQF,乐刻运动健身(金玉兰广场店),体育休闲服务;运动场馆;健身中心,080111,打浦路1号四楼(打浦桥地铁站2号口步行150米),121.470235,31.204906,13162298756,4.4,799.00,体育休闲,上海市,上海市,黄浦区
B0K0L5TVII,YONEX互动网球馆(万体馆店),体育休闲服务;运动场馆;网球场,080103,斜土路2570号1号楼1楼YONEX互动网球馆,121.445178,31.188106,13361940056,4.4,59.00,体育休闲,上海市,上海市,徐汇区
B0LA4C473F,24/7 FITNESS(漕河泾印象城店),体育休闲服务;运动场馆;健身中心,080111,漕宝路1011号漕河泾印象城5F层,121.399225,31.161725,15216636365,4.5,1606.00,体育休闲,上海市,上海市,徐汇区
B0KRM51VPJ,赛博跳动CyberDance(上海爱琴海店),体育休闲服务;运动场馆;运动场所,080100,吴中路1588号爱琴海购物中心4层F428商铺,121.373350,31.175286,13564657121,4.4,135.00,体育休闲,上海市,上海市,闵行区
B0FFLK40H1,乐刻运动健身(兰溪路店),体育休闲服务;运动场馆;健身中心,080111,兰溪路148号5楼(流行线时尚美食休闲广场),121.404815,31.239998,15301678044,4.4,1402.00,体育休闲,上海市,上海市,普陀区
B0I3NRCQOC,SUPER MONKEY 超级猩猩健身(百联徐汇商业广场店),体育休闲服务;运动场馆;健身中心,080111,华山路2038号百联徐汇商业广场4F层,121.437301,31.196779,4009009166,4.3,5999.00,体育休闲,上海市,上海市,徐汇区
B0H01RRHAG,乐刻健身(腾飞广场店),体育休闲服务;运动场馆;健身中心,080111,天钥桥路333号腾飞广场F1层,121.442559,31.188132,15026788106,4.4,1798.00,体育休闲,上海市,上海市,徐汇区
B0FFIDKQIA,世纪星滑冰俱乐部(万象城店),体育休闲服务;运动场馆;溜冰场,080107,吴中路1551号万象城4层401(紫藤路地铁站1号口步行230米),121.367601,31.169923,021-61519852,4.4,108.00,体育休闲,上海市,上海市,闵行区
B0LDVC511Y,中国瑜伽联盟(上海环球港新校区),体育休闲服务;运动场馆;健身中心,080111,上海城区宁夏路777号D区中国瑜伽联盟大楼3楼整层,121.411738,31.230254,13614385805,4.4,[],体育休闲,上海市,上海市,普陀区
B0LKGH1YVL,全速出绩田径俱乐部,体育休闲服务;运动场馆;运动场所,080100,春申路1899号陇上快体活力公园内,121.427600,31.113027,13386056853,4.3,53.00,体育休闲,上海市,上海市,闵行区
B0JBPZ8UQH,洛克公园(新虹桥花园店),体育休闲服务;运动场馆;运动场所,080100,新虹桥中心花园桥下空间(伊犁路地铁站4号口步行350米),121.402659,31.200560,021-52202750,4.4,43.00,体育休闲,上海市,上海市,长宁区
B0H25DLFKK,VPsmart私教健身工作室(新闸路店),体育休闲服务;运动场馆;健身中心,080111,新闸路818号(自然博物馆地铁站2号口步行330米),121.459711,31.235468,15821038546,4.3,171.00,体育休闲,上海市,上海市,静安区
B00155HA6W,沈坚强游泳俱乐部(武宁南路店),体育休闲服务;运动场馆;游泳馆,080110,武宁南路48号(近万航渡路)(武定路地铁站1号口步行80米),121.437730,31.226411,021-62586142;021-62586165,4.3,40.00,体育休闲,上海市,上海市,静安区
B0L1RHB70H,SAVAGE运动空间(长宁来福士店),体育休闲服务;运动场馆;健身中心,080111,长宁路1191号西区04层06-09号,121.413945,31.216950,18201902100,4.4,48.00,体育休闲,上海市,上海市,长宁区
B0HDUAHCOK,乐刻运动健身(外环路店),体育休闲服务;运动场馆;健身中心,080111,龙茗路75号2层,121.390615,31.122622,17721407283,4.5,1712.00,体育休闲,上海市,上海市,闵行区
B0FFH2T9FJ,黄浦滩名苑健身俱乐部,体育休闲服务;运动场馆;健身中心,080111,保屯路328号2层(西藏南路地铁站2号口步行480米),121.493525,31.201285,021-60833985,4.4,217.00,体育休闲,上海市,上海市,黄浦区
B0FFGJO6BI,TransFit体能训练营(普陀店),体育休闲服务;运动场馆;健身中心|科教文化服务;培训机构;培训机构,080111|141400,安远路737号(武宁路地铁站2号口步行450米),121.434845,31.235070,13585868715,4.4,2398.00,体育休闲,上海市,上海市,静安区
B0H1AA2JWU,珀曼健身(徐汇旗舰店),体育休闲服务;运动场馆;健身中心,080111,宛平南路1188弄13号地下1夹地下1层会所,121.452850,31.181106,15900735873,4.4,2550.00,体育休闲,上海市,上海市,徐汇区
B0LGSC1OG7,24/7 FITNESS(淮海百盛店),体育休闲服务;运动场馆;健身中心,080111,淮海中路918号,121.459130,31.217704,13524911247,4.4,1095.00,体育休闲,上海市,上海市,黄浦区
B0FFLLNMNI,BetaBouldersClimbingGYM难点攀岩馆,体育休闲服务;运动场馆;运动场所,080100,昌化路667号S1室(江宁路地铁站3号口步行430米),121.447420,31.241545,18001812545,4.4,207.00,体育休闲,上海市,上海市,静安区
B0K6VR01LG,活力街家庭运动中心(SOHO天山广场店),体育休闲服务;运动场馆;运动场所,080100,紫云路421号SOHO天山广场一层音乐厅,121.408568,31.209344,18621008671,4.4,217.00,体育休闲,上海市,上海市,长宁区
B0FFFTYXGQ,静安区工人体育场-足球场,体育休闲服务;运动场馆;足球场,080105,昌平路888-1号(昌平路地铁站5号口步行280米),121.439008,31.234146,021-62678051,4.4,50.00,体育休闲,上海市,上海市,静安区
B0JBCRKI76,NIOO Fitness,体育休闲服务;运动场馆;健身中心,080111,宋园路191号-13室(吴中路地铁站4号口步行310米),121.412956,31.187903,15692157217;17891946092,4.5,2865.00,体育休闲,上海市,上海市,徐汇区
B00155HWTO,上海市长宁区长宁网球场,体育休闲服务;运动场馆;网球场,080103,华山路1038弄173号,121.435938,31.212329,021-62524436,4.4,57.00,体育休闲,上海市,上海市,长宁区
B0K3H53PN3,乐刻运动健身(春秋国际大厦店),体育休闲服务;运动场馆;健身中心,080111,昭化路699号春秋国际大厦F1层,121.419027,31.211965,15397178657,4.5,672.00,体育休闲,上海市,上海市,长宁区
B0LGDLJ5NA,乐刻运动健身康健社区(上海师范大学店),体育休闲服务;运动场馆;健身中心,080111,桂林路188弄B106(金谷里),121.411680,31.151913,16621636603,4.4,925.00,体育休闲,上海市,上海市,徐汇区
B0G30MIXZP,乐刻运动健身(汇京国际广场店),体育休闲服务;运动场馆;健身中心,080111,汇京国际广场B1层24-03,121.423726,31.195710,15800962691,4.4,1515.00,体育休闲,上海市,上海市,徐汇区
B0L2F91WSF,GreenFighters青少年篮球俱乐部(徐汇校区),体育休闲服务;运动场馆;篮球场馆,080104,漕宝路211号鑫耀·光环Live东区3层,121.416072,31.166948,13262789698,4.4,[],体育休闲,上海市,上海市,徐汇区
B0FFLOHXK4,乐刻运动健身(桂平路店),体育休闲服务;运动场馆;健身中心,080111,桂平路391号C座214室,121.403548,31.164671,17621750523,4.4,1460.00,体育休闲,上海市,上海市,徐汇区
B0FFKGFPXO,大岩悦动攀岩场(长风大悦城店),体育休闲服务;休闲场所;休闲场所|体育休闲服务;运动场馆;运动场所,080500|080100,大渡河路196号长风大悦城5楼,121.395053,31.222809,17621036753,4.2,107.00,体育休闲,上海市,上海市,普陀区
B0K2C53X3G,沃野冰雪乐园(上海店),体育休闲服务;运动场馆;滑雪场|体育休闲服务;休闲场所;游乐场,080106|080501,吴中路1588号爱琴海购物中心7楼706,121.371706,31.173936,16621377818,4.5,124.00,体育休闲,上海市,上海市,闵行区
B0LUOCGHA7,乐刻运动健身(淮海百盛店),体育休闲服务;运动场馆;健身中心,080111,淮海百盛5楼(陕西南路地铁站出入口旁),121.459111,31.217466,13002171205,4.4,4089.00,体育休闲,上海市,上海市,黄浦区
B0JR1BNY3C,InLove英乐·板式网球·匹克球,体育休闲服务;运动场馆;网球场,080103,打浦路603号外广场,121.474756,31.194839,13262681280,4.5,69.00,体育休闲,上海市,上海市,黄浦区
B0IGBLPN83,快网网球俱乐部(普陀中环店),体育休闲服务;运动场馆;网球场,080103,云岭西路与真北路交叉口高架下,121.376283,31.223366,4009688828,4.4,81.00,体育休闲,上海市,上海市,普陀区
B0K2DYF8DA,Z&B FITNESS(One ITC),体育休闲服务;运动场馆;健身中心,080111,华山路1901号One ITC3层303,121.437749,31.197505,021-54665531,4.4,3700.00,体育休闲,上海市,上海市,徐汇区
B0KRLD75HN,锐博康复(静安店),体育休闲服务;运动场馆;健身中心,080111,光复路1088号JiC静安国际中心商场西区光复西入口F3层303(苏州河一侧入口),121.451595,31.242934,,4.5,[],体育休闲,上海市,上海市,静安区
B0JRTR62VZ,乐刻运动健身(万都中心精品馆),体育休闲服务;运动场馆;健身中心,080111,兴义路8号S315S317A室,121.405522,31.204641,17821292033,4.3,895.00,体育休闲,上海市,上海市,长宁区
B0FFIJQ9D6,MTHD Fitness,体育休闲服务;运动场馆;健身中心,080111,复兴中路1199号A302,121.458586,31.212601,021-54510003,4.4,2025.00,体育休闲,上海市,上海市,徐汇区
B0G357YIE9,乐刻运动健身(徐汇梅陇商业中心店),体育休闲服务;运动场馆;健身中心,080111,龙州路995号3层3001A号,121.422186,31.139053,18302121901;4001501866,4.4,2854.00,体育休闲,上海市,上海市,徐汇区
B0LAJZRNU5,漠浔健身MOTION(静安寺嘉园店),体育休闲服务;运动场馆;健身中心,080111,万航渡路442号201室(武定路地铁站2号口步行340米),121.436184,31.224907,17621877771,4.4,3423.00,体育休闲,上海市,上海市,静安区
B0HKLCWKYP,乐刻运动健身(古北店),体育休闲服务;运动场馆;健身中心,080111,水城南路268号(古北家乐福1楼17B),121.393436,31.196622,18916512957,4.4,1028.00,体育休闲,上海市,上海市,长宁区
B0ID6AXTII,STAR星岩攀岩俱乐部,体育休闲服务;运动场馆;运动场所,080100,凯滨路38号尚湾里沉式广场地下一层A03-3室,121.461606,31.180336,18801738015,4.4,117.00,体育休闲,上海市,上海市,徐汇区
B0I3JA6HJQ,妍多福羽毛球俱乐部,体育休闲服务;运动场馆;羽毛球场,080118,梅陇镇同乐路189号常宁加注站(右道口进到底2号商务楼),121.419657,31.126199,19521298688,4.5,169.00,体育休闲,上海市,上海市,闵行区
B0K019AMRT,AFTERWORK健身(上海外滩店),体育休闲服务;运动场馆;健身中心,080111,牛庄路607号中财中心大厦2F,121.477768,31.237979,18017530396,4.4,343.00,体育休闲,上海市,上海市,黄浦区
B0JUOHHSKN,鑫空篮羽运动馆(华光店),体育休闲服务;运动场馆;运动场所,080100,虹梅南路1005号4层,121.423585,31.123312,13122680889,4.4,71.00,体育休闲,上海市,上海市,闵行区
B0FFH185MP,SUPERMONKEY超级猩猩健身综合训练中心(CP静安店),体育休闲服务;运动场馆;健身中心,080111,愚园路68号CP静安L3-12,121.446875,31.225710,4009009166,4.4,3893.00,体育休闲,上海市,上海市,静安区
B0KK95MYYF,球魔桌球俱乐部(长宁店),体育休闲服务;运动场馆;台球厅,080113,长宁路88号KiNG88商业广场3层,121.427260,31.228594,18116480147,4.5,[],体育休闲,上海市,上海市,长宁区
B0FFIGKJJZ,G.NEXT室内高尔夫室内会所,体育休闲服务;高尔夫相关;高尔夫相关,080200,虹梅路3213号红春商务楼F2层,121.386352,31.186261,021-34905515,4.4,[],体育休闲,上海市,上海市,闵行区
B0FFFWU9Z3,上海森星高尔夫练习场,体育休闲服务;高尔夫相关;高尔夫练习场,080202,新泾镇福泉北路88号,121.355226,31.233150,021-62037991,4.4,[],体育休闲,上海市,上海市,长宁区
B00156EX9L,上海天萌名都城高尔夫练习场,体育休闲服务;高尔夫相关;高尔夫练习场,080202,虹许路788号,121.394775,31.190125,021-64051536,3.8,[],体育休闲,上海市,上海市,闵行区
B0FFIX1PRO,GOLFZON,体育休闲服务;高尔夫相关;高尔夫练习场|体育休闲服务;高尔夫相关;高尔夫球场|公司企业;公司;公司,080202|080201|170200,虹泉路1000号井亭大厦八楼,121.375525,31.171175,021-34293669,3.7,[],体育休闲,上海市,上海市,闵行区
B0FFG77B91,上海静安(昱同)青少年高尔夫训练基地,体育休闲服务;高尔夫相关;高尔夫练习场,080202,昌化路165号五楼,121.453906,31.235125,13681888822,4.2,[],体育休闲,上海市,上海市,静安区
B00156LI7Z,1012城市高尔夫俱乐部,体育休闲服务;高尔夫相关;高尔夫练习场,080202,河南中路1号(豫园地铁站5号口步行380米),121.486194,31.231885,021-33662156,4.0,[],体育休闲,上海市,上海市,黄浦区
B00155MNMI,时代(上海)高尔夫俱乐部,体育休闲服务;高尔夫相关;高尔夫练习场,080202,龙漕路51弄4号现代商务中心210,121.437472,31.169224,,2.0,[],体育休闲,上海市,上海市,徐汇区
B0H2D7F2C6,WOWGOLF(徐汇滨江店),体育休闲服务;高尔夫相关;高尔夫球场,080201,瑞平路230号保利时光里(上海)购物中心地下二层铺B2-001-002,121.455486,31.181900,15721473146,4.4,[],体育休闲,上海市,上海市,徐汇区
B00155I66N,上海名流高尔夫俱乐部,体育休闲服务;高尔夫相关;高尔夫练习场,080202,延平路98号98创意园B栋2层,121.442353,31.228472,021-62713606;021-62713608,3.7,[],体育休闲,上海市,上海市,静安区
B0L6YSDSQ8,FreeTee室内高尔夫(JiC静安国际店),体育休闲服务;高尔夫相关;高尔夫球场,080201,JiC静安国际中心(裕通路89号)L3-301,121.453715,31.243360,15921050905,4.5,[],体育休闲,上海市,上海市,静安区
B0L6GRHD9Q,柒号铁高尔夫俱乐部(闵行店),体育休闲服务;高尔夫相关;高尔夫球场,080201,老沪闵路1388号F栋一楼柒号铁高尔夫俱乐部,121.434035,31.110885,17756823488,4.4,[],体育休闲,上海市,上海市,闵行区
B0JUPZUDYQ,FREE TEE室内高尔夫球馆,体育休闲服务;高尔夫相关;高尔夫练习场,080202,古北1699商业广场B2层,121.402825,31.188425,021-62961859;13816771636,4.4,110.00,体育休闲,上海市,上海市,闵行区
B0I6VR80XH,高尔夫尊GOLFZON PARK上海古北店,体育休闲服务;高尔夫相关;高尔夫球场|体育休闲服务;高尔夫相关;高尔夫练习场,080201|080202,虹许路480号3,121.397568,31.189116,13301679209,4.5,[],体育休闲,上海市,上海市,闵行区
B0M6VAIV3R,逸杆高尔夫GolfZon旗舰店,体育休闲服务;高尔夫相关;高尔夫球场,080201,友东路83号5楼,121.355469,31.121501,18101720658;19257941384,3.7,[],体育休闲,上海市,上海市,闵行区
B0LKBDSVV0,高尔夫尊GOLFZON PARK 上海闵行友东店,体育休闲服务;高尔夫相关;高尔夫球场,080201,莘庄镇友东路83号5楼,121.355359,31.121527,19257941384,4.1,[],体育休闲,上海市,上海市,闵行区
B0L1R5BMBK,爱玩高尔夫(正大乐城店),体育休闲服务;高尔夫相关;高尔夫球场,080201,中山南二路699号正大乐城F4层5-401,121.458649,31.186887,,4.3,[],体育休闲,上海市,上海市,徐汇区
B0K3KHFULF,HH GOLF今玺室内高尔夫,体育休闲服务;高尔夫相关;高尔夫球场,080201,吴中路1245号105室,121.381469,31.175259,,4.4,[],体育休闲,上海市,上海市,闵行区
B0J6MHI1I4,沪高汇高尔夫俱乐部Golf Club(静安寺店),体育休闲服务;高尔夫相关;高尔夫相关,080200,延安西路1033号大众金融大厦裙楼110室,121.429594,31.212625,13301795699;15800438010;18758014434,4.3,[],体育休闲,上海市,上海市,长宁区
B0FFM4JR50,幸福高尔夫训练营(万源店),体育休闲服务;高尔夫相关;高尔夫练习场,080202,万源路916号万源城·乐斯生活会馆F1层,121.394634,31.148712,021-54833303,4.5,[],体育休闲,上海市,上海市,闵行区
B0LRSK4ASL,ANYTIME玩慧高尔夫(闵行智谷店),体育休闲服务;高尔夫相关;高尔夫球场,080201,东兰路320号1号楼207室,121.397200,31.158054,,4.0,[],体育休闲,上海市,上海市,闵行区
B0GKVA1FD0,宏羽高尔夫俱乐部(衡山路店),体育休闲服务;高尔夫相关;高尔夫球场,080201,永嘉路570号5号楼一楼,121.451062,31.206067,13917792375,4.2,[],体育休闲,上海市,上海市,徐汇区
B0LDDUH6C9,E. GOLF 高尔夫俱乐部,体育休闲服务;高尔夫相关;高尔夫球场,080201,合川路3088号4号楼102-2,121.382210,31.179184,021-23570161;18402183031,4.4,[],体育休闲,上海市,上海市,闵行区
B0KRK59SL1,GOLFZON PARK七字头高尔夫(西岸传媒港花园里店),体育休闲服务;高尔夫相关;高尔夫球场,080201,龙爱路58号B1层K区14号,121.463085,31.160661,13166325118,4.3,[],体育休闲|科技体验,上海市,上海市,徐汇区
B0K3DUUXKS,GOLFZONPARK,体育休闲服务;高尔夫相关;高尔夫球场,080201,泸定路388号桃源π商业广场B1层,121.389475,31.226825,17621860501,2.0,[],体育休闲,上海市,上海市,普陀区
B0JGNSUS9V,如歌高尔夫上海体验中心,体育休闲服务;高尔夫相关;高尔夫球场,080201,虹桥镇虹梅路3203号力玮科技大厦106室,121.386075,31.184860,13661943089,3.9,[],体育休闲,上海市,上海市,闵行区
B0J0XCHHAH,聚尔乐高尔夫(正大乐城店),体育休闲服务;高尔夫相关;高尔夫球场,080201,中山南二路699号正大乐城F4层5-401,121.458649,31.186887,,3.9,[],体育休闲,上海市,上海市,徐汇区
B0FFL6PEDQ,上海雅克仕SG高尔夫,体育休闲服务;高尔夫相关;高尔夫球场,080201,虹泉路1051弄33号2楼,121.374383,31.169219,021-62202500,3.5,[],体育休闲,上海市,上海市,闵行区
B0L1758UP4,iGolf 爱高尔夫,体育休闲服务;高尔夫相关;高尔夫球场,080201,浦江镇芦恒路368号,121.490261,31.113834,021-33886226,4.3,[],体育休闲,上海市,上海市,闵行区
B00156NZSP,虹桥高尔夫球奕教学中心,体育休闲服务;高尔夫相关;高尔夫练习场,080202,虹梅路3000号1楼,121.390179,31.185519,021-34622660,4.5,[],体育休闲,上海市,上海市,闵行区
B0FFHEPBWY,名伦高尔夫学院,体育休闲服务;高尔夫相关;高尔夫球场,080201,协和路199号仙霞高尔夫练习场,121.355014,31.209537,19821444888,4.2,[],体育休闲,上海市,上海市,长宁区
B0LR5CAH49,OnePercent·1%高尔夫(闵行春申店),体育休闲服务;高尔夫相关;高尔夫球场,080201,春申体育公园停车场内高尔夫练习场,121.414223,31.108406,18916786918,4.3,[],体育休闲,上海市,上海市,闵行区
B0KUZAHT33,AURORA GOLF CLUB·极光高尔夫俱乐部,体育休闲服务;高尔夫相关;高尔夫练习场,080202,新华路345号F3,121.425163,31.201806,15505610627;16621614663,4.3,[],体育休闲,上海市,上海市,长宁区
B0FFKV9EVG,名门高尔夫,体育休闲服务;高尔夫相关;高尔夫球场,080201,江苏路563弄华敏大厦小区内,121.433280,31.215985,021-52392886,4.3,[],体育休闲,上海市,上海市,长宁区
B0J0AC8I64,onin高尔夫运动表现中心,体育休闲服务;高尔夫相关;高尔夫球场,080201,虹梅路3000号2楼,121.390469,31.185565,19921036669,4.1,[],体育休闲,上海市,上海市,闵行区
B0K0JKAQJC,O2Gether数据高尔夫,体育休闲服务;高尔夫相关;高尔夫球场,080201,龙台路10号传媒港G WALK B1层M区-05商铺,121.415449,31.172191,13482028102,3.3,[],体育休闲,上海市,上海市,徐汇区
B0L1VXCNPP,卡拉威高尔夫柜台(上海久光百货店),体育休闲服务;高尔夫相关;高尔夫球场,080201,南京西路1618号久光百货(静安寺地铁站出入口步行100米),121.445841,31.223884,,3.0,[],体育休闲,上海市,上海市,静安区
B0K35DH7ML,GolfPod·24H高尔夫舱(徐家汇汇阳广场店),体育休闲服务;高尔夫相关;高尔夫球场,080201,田林东路75号汇阳广场4楼408l高尔夫舱,121.433369,31.174127,18621901292,3.7,[],体育休闲,上海市,上海市,徐汇区
B00156ZKUH,仁恒河滨花园会所高尔夫练习场,体育休闲服务;高尔夫相关;高尔夫练习场,080202,芙蓉江路388弄,121.394447,31.215203,021-52063900,3.7,[],体育休闲,上海市,上海市,长宁区
B0LKMX7SOX,GolfPod·24H高尔夫舱(长宁大融城店),体育休闲服务;高尔夫相关;高尔夫球场,080201,淞虹路377号长宁Art Park大融城,121.359425,31.217525,,2.5,[],体育休闲,上海市,上海市,长宁区
B0KDC9SZCF,高尔夫公园(桃源π商业广场),体育休闲服务;高尔夫相关;高尔夫练习场,080202,泸定路388号桃源π商业广场B1层B1-14b,121.389663,31.226661,,3.4,[],体育休闲,上海市,上海市,普陀区
B0L19AH19N,破九高尔夫,体育休闲服务;高尔夫相关;高尔夫球场,080201,大渡河路与云岭东路交叉口南180米,121.395625,31.222325,,[],[],体育休闲,上海市,上海市,普陀区
B0L07H1GNK,都市罐头·24小时高尔夫·City Golf Tin,体育休闲服务;高尔夫相关;高尔夫球场,080201,延安西路与安西路交叉口东140米,121.427875,31.209775,,1.0,[],体育休闲,上海市,上海市,长宁区
B0L0772FAV,全民高尔夫(徐汇店),体育休闲服务;高尔夫相关;高尔夫球场,080201,中山南二路699号正大乐城,121.457975,31.186575,,1.7,[],体育休闲,上海市,上海市,徐汇区
B0FFH18ACU,FOUND158下沉式广场,体育休闲服务;娱乐场所;娱乐场所,080300,巨鹿路158号,121.466306,31.223069,021-33308666,4.6,[],体育休闲,上海市,上海市,黄浦区
B0FFH186B6,纯K(打浦桥店),体育休闲服务;娱乐场所;KTV,080302,徐家汇路618号日月光中心广场1楼直达电梯到3F,121.468262,31.207122,021-31155888,4.8,101.00,体育休闲,上海市,上海市,黄浦区
B00156O8DK,纯K(浙江路店),体育休闲服务;娱乐场所;KTV,080302,浙江南路68号(宁海东路路口),121.481900,31.229301,021-31155888,4.8,86.00,体育休闲,上海市,上海市,黄浦区
B00155AL82,街机烈火,体育休闲服务;娱乐场所;游戏厅,080305,江宁路77恒顺大楼4层(南京西路地铁站1号口步行430米),121.455580,31.229203,15000436869,4.6,54.00,体育休闲,上海市,上海市,静安区
B0FFJC7JRJ,瓦肆VAS ear(普陀沪西店),体育休闲服务;娱乐场所;酒吧,080304,万航渡后路19号3层(观众请走步梯通道),121.426625,31.229525,021-62560061;19921027697,4.8,203.00,体育休闲,上海市,上海市,普陀区
B0FFFBEBUQ,纯K(天山店),体育休闲服务;娱乐场所;KTV,080302,天山路341号1楼(缤谷广场西座、近地铁2号线威宁路站2号口),121.387773,31.214250,021-31155888,4.8,80.00,体育休闲,上海市,上海市,长宁区
B0FFH935SZ,天天玩X秋葉原日系动漫中心,体育休闲服务;娱乐场所;娱乐场所,080300,华山路2088号汇银广场南楼7M层,121.437160,31.196619,021-54652503,4.5,109.00,体育休闲,上海市,上海市,徐汇区
B0FFGW364H,温莎KTV(淮海中路店),体育休闲服务;娱乐场所;KTV,080302,淮海中路138号上海广场B1层,121.477624,31.225154,021-63207777,4.7,179.00,体育休闲,上海市,上海市,黄浦区
B0K1GH12UJ,瓦肆VAS est,体育休闲服务;娱乐场所;酒吧|购物服务;购物相关场所;购物相关场所,080304|060000,龙腾大道2266号GateM西岸梦中心3号楼3层306,121.465197,31.161753,19117373734,4.8,[],体育休闲,上海市,上海市,徐汇区
B0K3RGWVZB,坎KAN·嘻哈现场,体育休闲服务;娱乐场所;酒吧,080304,茂名南路56号(淮海中路地铁站3号口步行420米),121.460177,31.221298,18273092698,4.7,154.00,体育休闲,上海市,上海市,黄浦区
B0KDJB8SDH,COA,体育休闲服务;娱乐场所;酒吧,080304,复兴中路588弄之1-8复兴中路588弄小区,121.464852,31.214896,13310166773,4.7,208.00,体育休闲,上海市,上海市,黄浦区
B0KGU5Y44N,JZ Club(上海店),体育休闲服务;娱乐场所;酒吧,080304,衡山路8号水塔广场(衡山路地铁站3号口步行310米),121.446169,31.206762,18321718711,4.7,193.00,体育休闲,上海市,上海市,徐汇区
B00155LM11,The Captain 船长餐厅酒吧,体育休闲服务;娱乐场所;酒吧,080304,福州路37号6楼,121.489435,31.235321,13122411321;15901736115,4.8,160.00,体育休闲,上海市,上海市,黄浦区
B0FFFHPCK4,Speak Low彼楼,体育休闲服务;娱乐场所;酒吧,080304,复兴中路579号(近瑞金二路),121.465929,31.214790,021-64160133,4.7,192.00,体育休闲,上海市,上海市,黄浦区
B0L3KDBKNY,游牧Bistro小酒馆 by 耶里夏丽(静安丰盛里店),体育休闲服务;娱乐场所;酒吧,080304,茂名北路229弄丰盛里8号一楼(裕莲茶楼隔壁石库门巷内),121.459529,31.227427,18116353709,4.6,132.00,体育休闲,上海市,上海市,静安区
B00156F9IZ,MAO Livehouse上海,体育休闲服务;娱乐场所;酒吧,080304,重庆南路308号白玉兰剧场3层,121.472075,31.209942,021-64450086,4.7,184.00,体育休闲,上海市,上海市,黄浦区
B00155L352,上海四方新城,体育休闲服务;娱乐场所;夜总会,080301,巨鹿路568弄1-10号,121.455449,31.222108,021-62894835;18260403658;4008951703,[],[],体育休闲,上海市,上海市,静安区
B0FFIBT0JA,Perry's(新淮海二店),体育休闲服务;娱乐场所;酒吧,080304,淮海东路45-49号301-307室,121.482343,31.226310,,4.8,125.00,体育休闲,上海市,上海市,黄浦区
B0JA9RG29C,拾叁唐Live show(118广场店),体育休闲服务;娱乐场所;酒吧,080304,金沙江路1685号16号楼1层17X-F01-0717X-F01-52,121.376860,31.232018,17721061313;19921065300,4.7,184.00,体育休闲,上海市,上海市,普陀区
B0HAY503VW,7 HERTZ LIVE,体育休闲服务;娱乐场所;酒吧,080304,虹许路731号4号楼,121.389461,31.191237,13816752160,4.7,210.00,体育休闲,上海市,上海市,闵行区
B0FFF9ZDYN,网鱼网咖(黄浦南京东路店),体育休闲服务;娱乐场所;网吧,080308,南京东路588号丝绸商厦5F,121.479192,31.235808,15001899127,4.7,33.00,体育休闲,上海市,上海市,黄浦区
B0LRSD4FLB,半笑空间(南京东路店),体育休闲服务;娱乐场所;酒吧,080304,九江路501号一楼112号,121.482035,31.235362,,4.7,63.00,体育休闲,上海市,上海市,黄浦区
B0K6KHRECW,Pony Up,体育休闲服务;娱乐场所;酒吧,080304,进贤路230号,121.457804,31.221280,,4.8,165.00,体育休闲,上海市,上海市,黄浦区
B0FFF00EK6,网鱼网咖(徐汇陕西南路店),体育休闲服务;娱乐场所;网吧,080308,陕西南路238号中轻商务楼1层,121.458547,31.217583,021-64668831;16621121089,4.6,37.00,体育休闲,上海市,上海市,徐汇区
B00154DMP2,百乐门(上海静安区),体育休闲服务;娱乐场所;KTV,080302,上海市静安区愚园路218号(静安寺地铁站1号口步行150米),121.444277,31.223566,021-62498866,4.7,292.00,体育休闲,上海市,上海市,静安区
B0JU3UB81I,INS新乐园·HUSH·INSxPH,体育休闲服务;娱乐场所;酒吧,080304,雁荡路109号INS新乐园2楼,121.470175,31.217825,18917560097,4.6,137.00,体育休闲,上海市,上海市,黄浦区
B0J2Z59Y03,KZ Shanghai(INS新乐园店),体育休闲服务;娱乐场所;酒吧,080304,雁荡路109号INS新乐园3楼,121.470271,31.217861,13480513624,4.7,357.00,体育休闲,上海市,上海市,黄浦区
B0L0GM38M1,Bar Leone,体育休闲服务;娱乐场所;酒吧,080304,复兴中路525-527号,121.468642,31.215306,,4.7,237.00,体育休闲,上海市,上海市,黄浦区
B0K64ZOKEM,GARAGE NEVER SLEEPS,体育休闲服务;娱乐场所;酒吧,080304,淮海中路300号K11购物艺术中心6楼,121.473582,31.223433,13162162101,4.4,135.00,体育休闲,上海市,上海市,黄浦区
B0FFF6XGCO,风云再起(上海人民广场店),体育休闲服务;娱乐场所;游戏厅,080305,人民大道221号227-229号、265号-268商铺,121.473024,31.228048,021-63582343,4.6,105.00,体育休闲,上海市,上海市,黄浦区
B0J2JA3CHP,魅KTV·AI辅唱(南京西路·吴江路步行街店),体育休闲服务;娱乐场所;KTV,080302,南京西路819号吴江路二层(818广场对面),121.461024,31.230396,13122858268,4.8,88.00,体育休闲,上海市,上海市,静安区
B0JDKR3BP4,MOSSO·LiveHouse(M3香港广场店),体育休闲服务;娱乐场所;酒吧,080304,淮海中路283号香港广场购物中心F4层,121.475329,31.222540,15121101837;18301978011,4.7,99.00,体育休闲,上海市,上海市,黄浦区
B0L217TGKL,BROWN STONE布朗石西班牙餐厅酒吧(太平洋新天地),体育休闲服务;娱乐场所;酒吧,080304,吉安路111号新天地东台里F1层,121.480544,31.221636,021-80101387;13122925432,4.5,180.00,体育休闲,上海市,上海市,黄浦区
B0GRHPQETP,外滩8号WhiskyBar,体育休闲服务;娱乐场所;酒吧,080304,中山东二路8号金延大厦7楼露台,121.491857,31.232587,18019158888,4.7,154.00,体育休闲,上海市,上海市,黄浦区
B0I31S50GI,ORII酒吧,体育休闲服务;娱乐场所;酒吧,080304,淮海中路570号2层(淮海中路地铁站1号口步行380米),121.468072,31.220755,17112126464,4.8,385.00,体育休闲,上海市,上海市,黄浦区
B0LD1PH5JH,MixWorld无象之境MR数字未来体验中心,体育休闲服务;娱乐场所;娱乐场所,080300,友诚路149号上海SK大厦L101,121.474325,31.170895,,4.5,107.00,体育休闲,上海市,上海市,浦东新区
B0L2XLYYNB,幻境空间超级元宇宙(上海店),体育休闲服务;娱乐场所;娱乐场所,080300,南京东路829号世茂广场东区L6楼L607(萨利亚隔壁),121.475746,31.234408,18221200711,4.5,82.00,体育休闲,上海市,上海市,黄浦区
B0LGR5EG0M,C·PARK Haisu(海粟文化广场店),体育休闲服务;娱乐场所;娱乐场所,080300,昭化路618号638号658号666号,121.419098,31.210636,,4.4,[],体育休闲,上海市,上海市,长宁区
B0K1L5JBCP,DASH LAND(襄阳北路店),体育休闲服务;娱乐场所;酒吧,080304,襄阳北路1号,121.454332,31.220987,18717935177;19529957738,4.7,50.00,体育休闲,上海市,上海市,静安区
B0FFKYNL8H,LEGO乐高(上海世茂广场),购物服务;专卖店;儿童用品店|体育休闲服务;娱乐场所;娱乐场所,061207|080300,南京东路829号上海世贸广场G层G02商铺,121.475319,31.234361,,4.7,[],体育休闲,上海市,上海市,黄浦区
B0JRFRNAN0,它它派对·撸猫·吸狗·Rua羊驼(悦荟广场店),体育休闲服务;娱乐场所;酒吧,080304,南京东路353号悦荟广场F5层(南京东路地铁站3号口旁),121.483972,31.236731,13185050705,4.4,80.00,体育休闲,上海市,上海市,黄浦区
B0FFL4ADWS,Helens海伦司小酒馆(上海茂名北路店),体育休闲服务;娱乐场所;酒吧|餐饮服务;餐饮相关场所;餐饮相关,080304|050000,茂名北路148号(1楼半)近威海路海伦司小酒馆,121.460238,31.226285,021-62162366;18555380439,4.7,96.00,体育休闲,上海市,上海市,静安区
B0FFH16254,上海嘉庭俱乐部(东渡国际嘉庭广场店),体育休闲服务;娱乐场所;娱乐场所,080300,泸定路46号,121.387166,31.221522,021-80258666,4.5,287.00,体育休闲,上海市,上海市,普陀区
B0L2S75S7D,桂芭蕉GBJ bistro,体育休闲服务;娱乐场所;娱乐场所,080300,龙腾大道2266号GateM西岸梦中心12栋3楼,121.464785,31.158218,,4.6,154.00,体育休闲,上海市,上海市,徐汇区
B0FFIAYD39,MELAND CLUB(上海万象城吴中路店),体育休闲服务;休闲场所;游乐场|体育休闲服务;娱乐场所;娱乐场所,080501|080300,吴中路1599号上海万象城L3层L350号,121.367809,31.169750,021-54378863,4.6,168.00,体育休闲,上海市,上海市,闵行区
B0LGTXTVXZ,REBORN,体育休闲服务;娱乐场所;酒吧,080304,巨鹿路168号B1(淮海中路地铁站3号口步行330米),121.464003,31.223004,,4.5,[],体育休闲,上海市,上海市,黄浦区
B0J275GQTX,Blac+Blac(中海环宇荟店),体育休闲服务;娱乐场所;酒吧|餐饮服务;餐饮相关场所;餐饮相关,080304|050000,黄陂南路838弄环宇荟地面一层L120-121,121.477001,31.211987,17621089487,4.7,157.00,体育休闲,上海市,上海市,黄浦区
B0KURM5SEG,星聚会ktv(外滩南京路旗舰店),体育休闲服务;娱乐场所;KTV,080302,南京路步行街558号6层(TOPTOY楼上),121.479709,31.235878,18329521672,4.6,84.00,体育休闲,上海市,上海市,黄浦区
B0K6YH9OMO,西郊壹号,商务住宅;住宅区;住宅小区|体育休闲服务;娱乐场所;娱乐场所,120302|080300,虹桥路1950号,121.385756,31.196964,19145531950,4.5,355.00,体育休闲,上海市,上海市,长宁区
B0L2S55QWP,百乐迪量贩,体育休闲服务;娱乐场所;KTV,080302,龙州路995号四楼,121.422162,31.138953,021-54291777,4.3,71.00,体育休闲,上海市,上海市,徐汇区
B0FFHOCF5U,上海乐高探索中心,体育休闲服务;休闲场所;游乐场|科教文化服务;培训机构;培训机构|体育休闲服务;娱乐场所;娱乐场所,080501|141400|080300,大渡河路196号2层(长风公园地铁站3号口步行210米),121.395777,31.223033,4000988966,4.4,[],体育休闲,上海市,上海市,普陀区
B0KD5HRWR2,半笑酒馆·南京东路店·精酿啤酒·脱口秀演出·艺术空间,体育休闲服务;娱乐场所;酒吧,080304,汉口路442弄1层122号,121.482257,31.235111,19804070726,4.6,71.00,体育休闲,上海市,上海市,黄浦区
B0FFI7H56F,233商店精酿啤酒,体育休闲服务;娱乐场所;酒吧,080304,宣化路233号底楼,121.425441,31.217000,13061963863;13391163220,4.7,[],体育休闲,上海市,上海市,长宁区
B0LGTBTAPW,壹天聚乐部(仲盛世界商城),体育休闲服务;娱乐场所;KTV,080302,都市路5001号仲盛世界商城5F层,121.386225,31.107478,021-52270502,4.5,125.00,体育休闲,上海市,上海市,闵行区
B0KKBLVQRI,魅KTV(淮海中路上海广场店),体育休闲服务;娱乐场所;KTV,080302,淮海中路138号(靠近金陵中路龙门路)上海广场6F层,121.478237,31.225536,18516392999,4.6,68.00,体育休闲,上海市,上海市,黄浦区
B0HAU9UQOX,POTENT(TX淮海),体育休闲服务;娱乐场所;酒吧,080304,淮海中路523号TX淮海F3层,121.468878,31.220320,021-51150837,4.5,109.00,体育休闲,上海市,上海市,黄浦区
B0JUJHSMV5,Sober Company,体育休闲服务;娱乐场所;酒吧,080304,雁荡路109号1层F106F107室2层F201F202室,121.470163,31.217953,021-53530065,4.5,206.00,体育休闲,上海市,上海市,黄浦区
B00156YNAF,网鱼网咖(静安江宁路店),体育休闲服务;娱乐场所;网吧,080308,江宁路77号恒顺大厦5楼,121.455550,31.229352,021-62173321,4.7,39.00,体育休闲,上海市,上海市,静安区
B0H6S50GJ2,Root Down,体育休闲服务;娱乐场所;酒吧,080304,南昌路145乙(陕西南路地铁站4号口步行340米),121.463125,31.217175,021-64315374,4.5,175.00,体育休闲,上海市,上海市,黄浦区
B0IB3CBEEF,The Union Trading Company,体育休闲服务;娱乐场所;酒吧,080304,衡山路306号(衡山路地铁站1号口步行190米),121.444954,31.202848,,4.5,174.00,体育休闲,上海市,上海市,徐汇区
B0KR55R4BG,COMMUNE MAISON幻师(芮欧百货店),体育休闲服务;娱乐场所;娱乐场所|餐饮服务;餐饮相关场所;餐饮相关,080300|050000,南京西路1601号芮欧百货1层1E,121.447545,31.223366,13764650221,4.7,154.00,体育休闲,上海市,上海市,静安区
B0FFMBZK6X,Bar a Vin,体育休闲服务;娱乐场所;酒吧,080304,嘉善路87号(陕西南路地铁站7号口步行480米),121.459378,31.211454,13764405071;15921193983,4.5,250.00,体育休闲,上海市,上海市,徐汇区
B0JA7ZW07M,Opus Lounge,体育休闲服务;娱乐场所;酒吧,080304,西藏中路90号6楼(人民广场地铁站1号口步行250米),121.477800,31.230149,18217211303,4.5,145.00,体育休闲,上海市,上海市,黄浦区
B0K14H3UWP,OROR by FINE,体育休闲服务;娱乐场所;酒吧,080304,新乐路145号,121.454538,31.217375,19946124474,4.7,151.00,体育休闲,上海市,上海市,徐汇区
B00155ND9E,葡道(武康路店),体育休闲服务;娱乐场所;酒吧,080304,武康庭376号楼,121.439391,31.206617,021-60907075,4.4,197.00,体育休闲,上海市,上海市,徐汇区
B0KUDL6BK5,悟空电竞(合川路地铁站店),体育休闲服务;娱乐场所;网吧,080308,上海城区合川路2908号301-B室,121.382179,31.173123,13072165587,4.7,30.00,体育休闲,上海市,上海市,闵行区
B0HAZU6W4B,BISTRO LENBACH 兰巴赫(静安店),体育休闲服务;娱乐场所;酒吧|餐饮服务;外国餐厅;西餐厅(综合风味),080304|050201,富民路85号(静安寺地铁站8号口步行240米),121.450559,31.220415,021-52906339,4.7,257.00,体育休闲,上海市,上海市,静安区
B0FFIKQDEV,浅深(长宁店),生活服务;洗浴推拿场所;洗浴推拿场所|体育休闲服务;娱乐场所;娱乐场所|公司企业;公司企业;公司企业,071400|080300|170000,延安西路1146号,121.431185,31.210221,021-62806886,4.6,755.00,体育休闲,上海市,上海市,长宁区
B0J1DHTJNN,飞越上海(第一百货店),体育休闲服务;娱乐场所;娱乐场所,080300,南京东路步行街800号第一百货C座6楼,121.475205,31.235367,17367051861,4.6,119.00,体育休闲,上海市,上海市,黄浦区
B0J0H7VQY3,Deep Whisky Club(淮海东路店),体育休闲服务;娱乐场所;酒吧,080304,淮海东路99号3楼E1号(大世界地铁站6号口步行120米),121.480700,31.225609,13761095858,4.5,166.00,体育休闲,上海市,上海市,黄浦区
B00157G87K,EPIC,体育休闲服务;娱乐场所;酒吧,080304,高邮路17号(近复兴西路),121.438612,31.210227,021-54111189,4.5,160.00,体育休闲,上海市,上海市,徐汇区
B0FFIB3D4S,网鱼网咖(长宁定西路店),体育休闲服务;娱乐场所;网吧,080308,定西路1550号3楼(中山公园地铁站8号口步行200米),121.421918,31.217715,18918052961,4.7,29.00,体育休闲,上海市,上海市,长宁区
B0I1VKQLZA,植物收藏家Botanic Collector,体育休闲服务;娱乐场所;酒吧,080304,长乐路169弄,121.462061,31.220956,15050735022,4.6,151.00,体育休闲,上海市,上海市,黄浦区
B00156NY85,THESHED餐厅酒吧,体育休闲服务;娱乐场所;酒吧,080304,陕西北路698号,121.450326,31.234419,,4.5,138.00,体育休闲,上海市,上海市,静安区
B0I6CCNL6X,Paal,体育休闲服务;娱乐场所;酒吧,080304,南昌路94号,121.469051,31.219326,,4.5,169.00,体育休闲,上海市,上海市,黄浦区
B0LR0XP9EX,PART SPACE,体育休闲服务;娱乐场所;酒吧,080304,延庆路123弄-6号沿街(常熟路地铁站3号口步行260米),121.451489,31.215148,,4.6,[],体育休闲,上海市,上海市,徐汇区
B0HRURI4FB,魅KTV•AI辅唱(徐家汇店),体育休闲服务;娱乐场所;KTV|生活服务;摄影冲印店;摄影冲印,080302|071300,华山路1988号,121.436739,31.197628,13761873755;15000355363;4008318273,4.6,65.00,体育休闲,上海市,上海市,徐汇区
B0J3XDZ83Z,Blac+Blac(金地新华道店),体育休闲服务;娱乐场所;酒吧,080304,番禺路222弄55号一层F106号,121.426636,31.207506,17621215047,4.5,147.00,体育休闲,上海市,上海市,长宁区
B0K2SD92V7,星聚会KTV(上海嘉里合集店),体育休闲服务;娱乐场所;KTV,080302,天目西路218号裙房2层204室、205室单元,121.457007,31.244733,19121863568,4.6,71.00,体育休闲,上海市,上海市,静安区
B0FFISG2SI,网鱼网咖(上海南站店),体育休闲服务;娱乐场所;网吧,080308,石龙路971号2楼,121.430169,31.147936,18221744769,4.6,20.00,体育休闲,上海市,上海市,徐汇区
B00156RJYQ,汤姆熊欢乐世界(上海南方店),体育休闲服务;休闲场所;游乐场|体育休闲服务;娱乐场所;娱乐场所,080501|080300,沪闵路7388号百联南方购物中心5层52050,121.399901,31.132073,021-34121415;021-34126415,4.3,90.00,体育休闲,上海市,上海市,闵行区
B0LGLC6U3E,蓝胖电竞(徐汇日月光中心店),体育休闲服务;娱乐场所;网吧,080308,漕宝路33号徐汇日月光中心A座4层01部位L4-38-1号,121.432991,31.168752,17512113093,4.4,[],体育休闲,上海市,上海市,徐汇区
B0L3JPCSXE,壹天聚乐部(世博店),体育休闲服务;娱乐场所;KTV,080302,长清路92-3号(中邻·上钢里),121.488440,31.171384,021-68756887;18101838865;18117573358,4.5,151.00,体育休闲,上海市,上海市,浦东新区
B0HRHR59BV,星创棋牌,体育休闲服务;娱乐场所;棋牌室,080306,七宝镇漕宝路1625号8号楼1层,121.374031,31.159030,021-54719951,4.5,74.00,体育休闲,上海市,上海市,闵行区
B0L3LSPNKG,724Music Bar(信泰中心店),体育休闲服务;娱乐场所;酒吧,080304,上海信泰中心商场LG104(B1层),121.396282,31.244264,18621643120,4.5,99.00,体育休闲,上海市,上海市,普陀区
B0LA45997I,漾应的火塘(苏河湾万象天地店),体育休闲服务;娱乐场所;酒吧,080304,万象天地LG101(天潼路地铁站5号口步行480米),121.477701,31.242472,,4.5,100.00,体育休闲,上海市,上海市,静安区
B0FFIR5CXT,网鱼网咖(上海长宁茅台路店),体育休闲服务;娱乐场所;网吧,080308,茅台路480号B1层网鱼网咖,121.393157,31.210112,021-62597187,4.7,36.00,体育休闲,上海市,上海市,长宁区
B0KALMBXHH,网鱼电竞(宜山路地铁站店),体育休闲服务;娱乐场所;网吧,080308,宜山路455号光启城1层129-134商铺,121.429023,31.183807,13585559864,4.5,24.00,体育休闲,上海市,上海市,徐汇区
B0I66RAOF3,魅KTV•AI辅唱(CP静安店),体育休闲服务;娱乐场所;KTV,080302,愚园路68号CP静安4层L4-19-20,121.446181,31.225099,15221566988,4.8,83.00,体育休闲,上海市,上海市,静安区
B0FFJ52BCV,网鱼电竞(徐汇康健路店),体育休闲服务;娱乐场所;网吧,080308,康健路14号(漕宝路地铁站5号口步行370米),121.432610,31.165364,021-54482533,4.8,30.00,体育休闲,上海市,上海市,徐汇区
B0KR9S7X34,网鱼电竞(普陀巴黎春天店),体育休闲服务;娱乐场所;网吧,080308,长寿路155号巴黎春天5层(江宁路地铁站4号口步行330米),121.442105,31.242297,18017703106,4.6,29.00,体育休闲,上海市,上海市,普陀区
B00155MVAX,网鱼网咖(徐汇天钥桥店),体育休闲服务;娱乐场所;网吧,080308,天钥桥路458号B1楼,121.442082,31.187181,13402090257,4.6,41.00,体育休闲,上海市,上海市,徐汇区
B0L1AYIJCZ,KOI PLUS(苏河湾万象天地新式茶馆店),体育休闲服务;娱乐场所;娱乐场所,080300,福建北路100号上海苏河湾万象天地B1层,121.477775,31.242325,18916009784,3.9,[],体育休闲,上海市,上海市,静安区
B0L2VU8F84,EncoreSpace·意空间见,体育休闲服务;娱乐场所;娱乐场所,080300,漕宝路261号鑫耀光环二期南区三层EncoreSpace·意空间见,121.415112,31.166515,,4.5,490.00,体育休闲,上海市,上海市,徐汇区
B0HDCAKH2F,THE DRINKERY,体育休闲服务;娱乐场所;酒吧,080304,瑞金二路50号-1(淮海中路地铁站2号口步行350米),121.464528,31.216236,15901367343,4.4,82.00,体育休闲,上海市,上海市,黄浦区
B0KDOKNL3B,星聚会KTV(前滩公园巷店),体育休闲服务;娱乐场所;KTV,080302,耀体路18号,121.472835,31.154366,13062867271,4.5,80.00,体育休闲,上海市,上海市,浦东新区
B0L2AC2F1T,Fever Bar,体育休闲服务;娱乐场所;酒吧,080304,陕西北路600-11号临街,121.451591,31.232987,18001844659,4.5,140.00,体育休闲,上海市,上海市,静安区
B0FFIDML40,啤酒阿姨(八号桥艺术空间店),体育休闲服务;娱乐场所;酒吧,080304,南苏州路1247号(新闸路地铁站1号口步行160米),121.466415,31.239954,021-53863393,4.7,116.00,体育休闲,上海市,上海市,黄浦区
B0FFF9SAS4,网鱼电竞(上海徐汇百联店),体育休闲服务;娱乐场所;网吧,080308,华山路2038号南楼麦当劳旁电梯4F直达,121.437306,31.197095,021-54070502;13061817163,4.5,[],体育休闲,上海市,上海市,徐汇区
B0KDMR9922,MAX SHANGHAI酒吧,体育休闲服务;娱乐场所;酒吧,080304,淮海中路98号金钟广场二层(大世界地铁站6号口步行190米),121.479006,31.225449,,4.6,434.00,体育休闲,上海市,上海市,黄浦区
B0FFJ4BY4O,玩嘿电竞(星宫店),体育休闲服务;娱乐场所;网吧,080308,海宁路1399号3楼3-11,121.468306,31.244089,18049868487,4.7,30.00,体育休闲,上海市,上海市,静安区
B0LRVMJRI0,星上海PartyK,体育休闲服务;娱乐场所;KTV,080302,制造局路与高雄路交叉口北80米,121.486776,31.198200,,4.4,36.00,体育休闲,上海市,上海市,黄浦区
B0L3M1P7IM,酷秀KTV·派对(打浦桥店),体育休闲服务;娱乐场所;KTV,080302,大木桥路18号5层L5001-1,121.460787,31.201674,18732148888,4.6,55.00,体育休闲,上海市,上海市,徐汇区
B0HRJKK3AR,Perrys(中山公园店),体育休闲服务;娱乐场所;酒吧,080304,长宁路999号401室A区01-02室(长宁路公交车站对面入口电梯4楼),121.418594,31.217599,18930726186,4.4,109.00,体育休闲,上海市,上海市,长宁区
B0FFH15YIF,网鱼电竞(长宁延安西路店),体育休闲服务;娱乐场所;网吧,080308,延安西路1033号大众金融大厦B座一楼102室,121.429994,31.212436,18017032508,4.7,[],体育休闲,上海市,上海市,长宁区
B0JURCA0R3,泊未bowie,体育休闲服务;娱乐场所;酒吧,080304,小木桥路2-1号,121.455925,31.200762,13520133264;18687413950,4.5,43.00,体育休闲,上海市,上海市,徐汇区
B0LDKGAG65,PENICILLIN(暂停营业),体育休闲服务;娱乐场所;酒吧,080304,雁荡路55弄1-13号雁荡路55弄小区,121.470025,31.219475,15317080326,4.5,184.00,体育休闲,上海市,上海市,黄浦区
B0G30ZHRKV,网鱼网咖(打浦大楼店),体育休闲服务;娱乐场所;网吧,080308,肇嘉浜路10号二楼,121.466744,31.205204,18917539751,4.5,35.00,体育休闲,上海市,上海市,黄浦区
B0L1MCH0OI,网鱼电竞(静安CP店),体育休闲服务;娱乐场所;网吧,080308,愚园路8号CP静安4楼(静安寺地铁站10号口步行290米),121.446812,31.225463,18939771329,4.6,[],体育休闲,上海市,上海市,静安区
B0FFIBU5HK,唱吧麦颂KTV(上海徐汇绿地缤纷城店),体育休闲服务;娱乐场所;KTV,080302,龙华中路759号地下一层,121.456532,31.183488,021-33633033,4.5,54.00,体育休闲,上海市,上海市,徐汇区
B0HUUZS2TS,乐乐网咖(昌里店),体育休闲服务;娱乐场所;网吧,080308,昌里路店305号(长清路地铁站7号口步行460米),121.492449,31.174294,19116331293,4.6,43.00,体育休闲,上海市,上海市,浦东新区
B0K1GHXAXC,西岸梦中心·梦工场,体育休闲服务;娱乐场所;娱乐场所,080300,龙腾大道2266号Gate M西岸梦中心3F层,121.465520,31.160297,,4.5,94.00,体育休闲,上海市,上海市,徐汇区
B0FFLICATJ,网鱼网咖(徐汇双峰店),体育休闲服务;娱乐场所;网吧,080308,中山南二路933号一楼,121.448966,31.183604,17717427603,4.4,33.00,体育休闲,上海市,上海市,徐汇区
B0FFF6PDZ4,Mercato意大利餐厅,餐饮服务;外国餐厅;意式菜品餐厅|体育休闲服务;娱乐场所;酒吧,050205|080304,中山东一路3号外滩3号6层(近广东路),121.490707,31.234228,021-63219922,4.5,576.00,体育休闲,上海市,上海市,黄浦区
B0FFK6FFIY,The Odd Couple酒吧,体育休闲服务;娱乐场所;酒吧,080304,太仓路一八一弄新天地北里25号楼二层,121.474989,31.220102,021-63332363,4.5,162.00,体育休闲,上海市,上海市,黄浦区
B0J31UISB9,夕阳电竞(锦江乐园店),体育休闲服务;娱乐场所;网吧,080308,梅陇西路103号3楼,121.413467,31.136692,17749755854,4.6,26.00,体育休闲,上海市,上海市,闵行区
B0K2ZUXMY4,合盛棋牌,体育休闲服务;娱乐场所;棋牌室,080306,金汇路528号四层D002,121.374053,31.180772,19121096188,4.5,40.00,体育休闲,上海市,上海市,闵行区
B0FFKYNL8X,POP MART泡泡玛特(上海世茂旗舰店),体育休闲服务;娱乐场所;娱乐场所,080300,南京东路829号上海世茂广场1-2层G03+M03号商铺,121.475574,31.234308,,4.7,[],体育休闲,上海市,上海市,黄浦区
B0LDTH6GI4,夕阳电竞南京东路店,体育休闲服务;娱乐场所;网吧,080308,汉口路618号地下一层,121.478790,31.234098,19537606126,4.6,[],体育休闲,上海市,上海市,黄浦区
B0FFH5R88C,The Fellas Terrace(七楼露台餐厅店),餐饮服务;外国餐厅;意式菜品餐厅|体育休闲服务;娱乐场所;酒吧,050205|080304,延安东路7号7层,121.491287,31.232604,18916158480,4.4,384.00,体育休闲,上海市,上海市,黄浦区
B0J2HS69CH,魅KTV·AI辅唱(徐汇龙华会店),体育休闲服务;娱乐场所;KTV,080302,龙华路2618号1幢(下沉式广场B1出入口)地铁11号线/12号线2号口出步行50M,121.452769,31.172737,17321037381,4.6,82.00,体育休闲,上海市,上海市,徐汇区
B0KDFX8LGV,hoxa bistro现代新疆小酒馆(外滩沙美店),体育休闲服务;娱乐场所;酒吧,080304,北京东路194号沙美大楼二楼,121.486592,31.240828,18930939307,4.6,102.00,体育休闲,上海市,上海市,黄浦区
B0FFIC97G2,Z+KTV自由港PLUS(上海月星环球港店),体育休闲服务;娱乐场所;KTV,080302,中山北路3300号上海月星环球港B1层B1210,121.413750,31.235201,,4.7,85.00,体育休闲,上海市,上海市,普陀区
B0H1G7UX4G,LIEBEN,体育休闲服务;娱乐场所;酒吧,080304,上海市静安区巨鹿路758号1号楼2楼西侧(园区入口),121.451328,31.220355,15021070155,4.5,147.00,体育休闲,上海市,上海市,静安区
B0FFJ2OC9O,INLOVE(光启城店),体育休闲服务;娱乐场所;KTV|购物服务;购物相关场所;购物相关场所,080302|060000,宜山路455号光启城L4层518-525,121.427462,31.183361,021-60737272,4.4,88.00,体育休闲,上海市,上海市,徐汇区
B0KDMU6O6D,what if(南三小区店),体育休闲服务;娱乐场所;酒吧,080304,瑞金二路街道南昌路248号,121.464702,31.217766,13524212329,4.4,63.00,体育休闲,上海市,上海市,黄浦区
B0FFGJO0C1,Heyday Jazz Bar,体育休闲服务;娱乐场所;酒吧,080304,泰安路50号底层,121.437152,31.205863,021-62366075;18221267167,4.4,227.00,体育休闲,上海市,上海市,长宁区
B0KAJR8ST6,PLUTO(中海环宇荟店),体育休闲服务;娱乐场所;酒吧,080304,黄陂南路838弄环宇荟L128(PAPITO内),121.476956,31.211965,021-63121081,4.5,164.00,体育休闲,上海市,上海市,黄浦区
B0LRKXJX0R,青春无限音乐厅(上海广场店),体育休闲服务;娱乐场所;娱乐场所,080300,淮海中路138号上海广场2F层,121.477975,31.225175,,4.5,182.00,体育休闲,上海市,上海市,黄浦区
B0KGAYOLVK,PLUTO(龙华会店),体育休闲服务;娱乐场所;酒吧,080304,龙华路2778号龙华会商场C4幢地面一层L1S04,121.453396,31.172272,021-64160557,4.5,156.00,体育休闲,上海市,上海市,徐汇区
B0L39LT761,星聚会KTV(上海静安吉宝中心店),体育休闲服务;娱乐场所;KTV,080302,静安区常德路628号LG1层(阿丽兰朵餐厅旁商场2号门进入直梯至LG1层),121.445102,31.232166,18516223239,4.5,95.00,体育休闲,上海市,上海市,静安区
B0FFJNQJVT,网鱼电竞(闵行莘谭路店),体育休闲服务;娱乐场所;网吧,080308,莘东路348号2楼(莘谭路与交叉口交通银行),121.375987,31.110546,18121270881,4.7,22.00,体育休闲,上海市,上海市,闵行区
B0L69UMHE4,Castle古堡Shisha·Live·Bar(外滩源店),体育休闲服务;娱乐场所;酒吧|餐饮服务;餐饮相关场所;餐饮相关,080304|050000,北京东路77号益丰·外滩源5层L501B-2,121.488898,31.240434,18930566313,4.5,209.00,体育休闲,上海市,上海市,黄浦区
B0K1CR8WO3,P66,体育休闲服务;娱乐场所;酒吧,080304,襄阳北路27-1号,121.454858,31.219692,,4.5,126.00,体育休闲,上海市,上海市,静安区
B00155GOAN,嘉草网咖(丽园路店),体育休闲服务;娱乐场所;网吧,080308,丽园路818弄2号3层(马当路地铁站3号口步行320米),121.476343,31.206510,021-53016809,4.7,37.00,体育休闲,上海市,上海市,黄浦区
B0LA39GJCE,玩嘿电竞(田林路店),体育休闲服务;娱乐场所;网吧,080308,田林路132号四层,121.413575,31.169825,19117016198,4.6,[],体育休闲,上海市,上海市,徐汇区
B00155LB6I,Cotton's棉花花园西餐厅(上海新华路店),体育休闲服务;娱乐场所;酒吧|餐饮服务;餐饮相关场所;餐饮相关,080304|050000,新华路294弄1号,121.427003,31.203237,021-62826897;021-64738211;13761656240,4.5,196.00,体育休闲,上海市,上海市,长宁区
B0LG3OFOV7,十二海里编辑部精酿吧,体育休闲服务;娱乐场所;酒吧,080304,愚园路753号C栋101室(江苏路地铁站2号口步行170米),121.434718,31.220019,13048867095,4.5,81.00,体育休闲,上海市,上海市,长宁区
B0FFHZSG3K,卡通尼(莘庄维璟印象城店),体育休闲服务;休闲场所;游乐场|体育休闲服务;娱乐场所;娱乐场所,080501|080300,七莘路1507号维璟广场F3层L3-007,121.364146,31.130925,021-64885616,4.1,137.00,体育休闲,上海市,上海市,闵行区
B0FFK12GAM,Helens海伦司小酒馆(上海七宝宝龙城店),体育休闲服务;娱乐场所;酒吧|餐饮服务;餐饮相关场所;餐饮相关,080304|050000,漕宝路与号文路交叉口宝龙城市广场4楼,121.355387,31.157583,021-34510171,4.6,78.00,体育休闲,上海市,上海市,闵行区
B0FFJ42KS8,攻略电竞社(安远店),体育休闲服务;娱乐场所;网吧,080308,安远路807号(武宁路地铁站2号口步行310米),121.433287,31.235002,021-61535327,4.5,48.00,体育休闲,上海市,上海市,静安区
B0KRKUDAEI,邂逅火塘酒馆(静安店),体育休闲服务;娱乐场所;酒吧,080304,西康路850号M马利商业街B-102室,121.444093,31.238236,18286036877,4.6,114.00,体育休闲,上海市,上海市,静安区
B0LU6ZFQH8,DASH LAND(陕康里店),体育休闲服务;娱乐场所;酒吧,080304,陕西北路814号,121.448948,31.235678,18717937611,4.5,41.00,体育休闲,上海市,上海市,静安区
B0HK05CHVT,粤海棠.wineapp,体育休闲服务;娱乐场所;酒吧,080304,万金中心2号楼,121.355398,31.160584,13903597086,4.5,396.00,体育休闲,上海市,上海市,闵行区
B0FFK6F5TC,Perrys(闵行店),体育休闲服务;娱乐场所;酒吧|餐饮服务;中餐厅;中餐厅,080304|050100,古方路76号306、307、308、309室,121.401654,31.133538,18939723890,4.4,106.00,体育休闲,上海市,上海市,闵行区
B0FFKLDYSQ,Perrys(金沙江店),体育休闲服务;娱乐场所;酒吧,080304,金沙江路788号410室(大渡河路地铁站9号口步行240米),121.398900,31.232256,19117009116,4.5,99.00,体育休闲,上海市,上海市,普陀区
B0FFIV4NTO,网鱼网咖(闵行吴中路店),体育休闲服务;娱乐场所;网吧,080308,吴中路1099-1109号吴中商务大楼4楼,121.386071,31.176324,13482822547,4.5,27.00,体育休闲,上海市,上海市,闵行区
B0L1LKCX61,网鱼电竞(徐汇万科广场店),体育休闲服务;娱乐场所;网吧,080308,上海城区沪闵路9191号万科广场B1层-02-03,121.430748,31.157468,13072135182,4.7,[],体育休闲,上海市,上海市,徐汇区
B0K3FHPJ4T,蓝胖电竞(古北店),体育休闲服务;娱乐场所;网吧,080308,古北1699商业广场b1层b111-2b149,121.402992,31.188310,19101746651,4.4,39.00,体育休闲,上海市,上海市,闵行区
B0HD2CEEJF,杰拉电竞·网咖(静安余姚路店),体育休闲服务;娱乐场所;网吧,080308,余姚路332号B1层杰拉电竞馆,121.437454,31.235424,13761957037,4.4,13.00,体育休闲,上海市,上海市,静安区
B0JDC50XWV,星聚会ktv(世博源店),体育休闲服务;娱乐场所;娱乐场所,080300,世博大道1368号1区L2层G55-01,121.491448,31.187099,13817743554,4.4,109.00,体育休闲,上海市,上海市,浦东新区
B0H0VAYG3F,CARTER,体育休闲服务;娱乐场所;酒吧,080304,奉贤路50号(南京西路地铁站11号口步行220米),121.461952,31.231962,021-52905552;13301811769,4.5,165.00,体育休闲,上海市,上海市,静安区
B0J337WUTI,夕阳电竞田林店,体育休闲服务;娱乐场所;网吧,080308,田林路12号2层东半部.3层,121.423005,31.171651,19921135255,4.4,24.00,体育休闲,上海市,上海市,徐汇区
B0KAVCF8Y5,网鱼网咖(徐汇汇阳广场店),体育休闲服务;娱乐场所;网吧,080308,田林东路75号四层408B、408D,121.433396,31.174214,13122258633,4.7,28.00,体育休闲,上海市,上海市,徐汇区
B0L1F7YOXO,网鱼电竞(世博后滩地铁站店),体育休闲服务;娱乐场所;网吧,080308,济明路393弄12号,121.475791,31.170558,18221370117,4.5,[],体育休闲,上海市,上海市,浦东新区
B0KKTXROSV,两仪嗣象 KARMA BAR,体育休闲服务;娱乐场所;酒吧,080304,昌平路789号1层(昌平路地铁站5号口斜对面),121.441060,31.233672,16628411613,4.5,117.00,体育休闲,上海市,上海市,静安区
B00155KW5O,House of Blues&Jazz,体育休闲服务;娱乐场所;酒吧,080304,福州路60号(近外滩),121.489168,31.235443,021-64375280,4.4,221.00,体育休闲,上海市,上海市,黄浦区
B0I0AH809N,崃州吧,体育休闲服务;娱乐场所;酒吧,080304,富民路291号1楼A108室,121.452486,31.217168,13916939747;15021401758,4.5,159.00,体育休闲,上海市,上海市,徐汇区
B0FFIWT29Y,嘉草网咖(斜土东路店),体育休闲服务;娱乐场所;网吧,080308,斜土东路255号三楼(陆家浜路地铁站2号口步行410米),121.487021,31.207813,021-33766089,4.7,39.00,体育休闲,上海市,上海市,黄浦区
B0G3FHJCNZ,大乐堡The L Land,体育休闲服务;娱乐场所;娱乐场所,080300,前滩大道735号体育公园,121.464069,31.147156,021-20285577,4.3,129.00,体育休闲,上海市,上海市,浦东新区
B0JDFCWWR6,JOKER&JOKER,体育休闲服务;娱乐场所;酒吧,080304,武定路968号2楼,121.443159,31.230355,021-62092077,4.6,130.00,体育休闲,上海市,上海市,静安区
B0FFK6NXQ0,欢鹿土星电竞(绿洲中环店),体育休闲服务;娱乐场所;网吧,080308,金沙江路1628弄5号108室,121.379830,31.234536,18721827837,4.8,31.00,体育休闲,上海市,上海市,普陀区
B0GUJ9RM0S,J.BOROSKI,体育休闲服务;娱乐场所;酒吧,080304,富民路177号2楼(静安寺地铁站8号口步行370米),121.451132,31.219362,021-54565266,4.5,163.00,体育休闲,上海市,上海市,静安区
B0LD65F8UZ,温盈电竞(徐汇田林路店),体育休闲服务;娱乐场所;网吧,080308,田林路140号越界锦和尚城T6幢3F302室,121.411664,31.169616,13020192690,4.5,[],体育休闲,上海市,上海市,徐汇区
B0FFILFBAY,魅KTV·AI辅唱(长寿路店),体育休闲服务;娱乐场所;KTV,080302,长寿路189号189弄购物中心L3层L301、L316,121.440557,31.242287,19821776988,4.5,78.00,体育休闲,上海市,上海市,普陀区
B0J2X5SY1N,La Fin,体育休闲服务;娱乐场所;酒吧,080304,雁荡路109号6楼,121.470176,31.217816,18121014429,4.3,625.00,体育休闲,上海市,上海市,黄浦区
B0LU5SG4XB,星聚会KTV(普陀长寿路巴黎春天店),体育休闲服务;娱乐场所;KTV,080302,长寿路155号肆层L004F002号商铺,121.441629,31.242437,13301785952,4.6,64.00,体育休闲,上海市,上海市,普陀区
B0HK6U7LAN,魔兔网咖(海阳路店),体育休闲服务;娱乐场所;网吧,080308,海阳路437号,121.492466,31.154558,18717776522,4.5,24.00,体育休闲,上海市,上海市,浦东新区
B0FFMHHOLV,网鱼网咖(黄浦中华路店),体育休闲服务;娱乐场所;网吧,080308,中华路1003号底层,121.490606,31.214748,021-63185880,4.4,40.00,体育休闲,上海市,上海市,黄浦区
B0L6BREC4S,GTW钢头娃电玩餐吧,体育休闲服务;娱乐场所;网吧,080308,淮海中路755号新华联大厦F05层,121.464275,31.218725,17717659807;19121772802,4.4,84.00,体育休闲,上海市,上海市,黄浦区
B0LDDZGY1Y,CAVE ART VENUE,体育休闲服务;娱乐场所;娱乐场所,080300,IM Shanghai长宁国际南区LG层37,121.421875,31.198525,,4.5,151.00,体育休闲,上海市,上海市,长宁区
B0L16CRTLK,魅KTVPlus·AI辅唱(新天地东台里店),体育休闲服务;娱乐场所;KTV,080302,淮海街道吉安路111号新天地东台里商业中心D-LG170单元老墙根涮肉旁,121.480253,31.220798,,4.5,57.00,体育休闲,上海市,上海市,黄浦区
B0LRZU3AR4,Asian Flush,体育休闲服务;娱乐场所;酒吧,080304,瑞金二路街道复兴中路592号,121.464484,31.214772,17821209898,4.5,184.00,体育休闲,上海市,上海市,黄浦区
B0KAXUBEJI,SWIRL SHANGHAI,体育休闲服务;娱乐场所;酒吧,080304,复兴中路577号,121.465927,31.214938,021-63462875,4.5,215.00,体育休闲,上海市,上海市,黄浦区
B0KRMMRLLN,Hazel·Kitchen&Wine,体育休闲服务;娱乐场所;酒吧,080304,武定路1116号,121.439617,31.229297,15802151717,4.4,240.00,体育休闲,上海市,上海市,静安区
B0FFKTSQGS,Roof顶层酒吧(上海艾迪逊酒店),体育休闲服务;娱乐场所;酒吧,080304,"南京东路199号艾迪逊酒店29楼(酒店东门,江西中路271号)",121.485892,31.237705,021-53689537,4.5,187.00,体育休闲,上海市,上海市,黄浦区
B0FFIN0854,星聚会KTV(徐汇日月光店),体育休闲服务;娱乐场所;KTV,080302,漕宝路33号徐汇日月光中心L3层L3-03/05/06,121.432590,31.169016,021-34197988,4.5,80.00,体育休闲,上海市,上海市,徐汇区
B0LDPAZL3H,田林涧音乐酒馆,体育休闲服务;娱乐场所;酒吧,080304,田林路140号B1层B1-1-32,121.412008,31.170705,17702142539,4.5,79.00,体育休闲,上海市,上海市,徐汇区
B0FFH1ZEGY,Blue Frog蓝蛙(恒丰路店),餐饮服务;外国餐厅;西餐厅(综合风味)|体育休闲服务;娱乐场所;酒吧,050201|080304,恒丰路379号(上海火车站地铁站5号口步行370米),121.455541,31.244093,021-52992730,4.6,118.00,体育休闲,上海市,上海市,静安区
B0FFILOFRU,TZ House音乐现场(镇宁路店),体育休闲服务;娱乐场所;酒吧,080304,镇宁路525号新东纺大酒店1楼(近万航渡路),121.435243,31.224300,13262838156,4.4,170.00,体育休闲,上海市,上海市,长宁区
B0LR5Z8RIQ,REVO瑞沃鸡尾酒餐吧,体育休闲服务;娱乐场所;酒吧,080304,延平路98号98创意园B栋103,121.441788,31.228770,13482692233,4.6,141.00,体育休闲,上海市,上海市,静安区
B0J2H9I48E,naive理想国coffee•bar,体育休闲服务;娱乐场所;酒吧|餐饮服务;咖啡厅;咖啡厅,080304|050500,外滩街道洛克外滩源虎丘路78号洛克·安仁大楼-naive理想国,121.487643,31.242031,13262806963,4.6,56.00,体育休闲,上海市,上海市,黄浦区
B0FFJ7W4B0,网鱼网咖(万辉国际广场店),体育休闲服务;娱乐场所;网吧,080308,虹梅南路863号万辉国际广场1号楼3楼06-9室,121.422880,31.124469,13472790041,4.6,34.00,体育休闲,上海市,上海市,闵行区
B0J6C7OG9M,魅KTV·AI辅唱(徐汇正大乐城店),体育休闲服务;娱乐场所;KTV,080302,龙华中路602号正大乐城3楼301室(7号线/12号线/龙华中路站1号口出),121.457825,31.185852,18019376777,4.5,67.00,体育休闲,上海市,上海市,徐汇区
B0FFJRSAEU,Perrys(淮海百盛店),体育休闲服务;娱乐场所;酒吧,080304,淮海中路918号淮海百盛广场8F(陕西南路地铁站出入口旁)(8楼海底捞对面)乘陕西南路侧电梯8楼,121.459204,31.217555,18930506970,4.6,78.00,体育休闲,上海市,上海市,黄浦区
B00156EC88,晶浦会(虹桥店),体育休闲服务;娱乐场所;KTV|餐饮服务;中餐厅;中餐厅,080302|050100,虹桥路1970号,121.385294,31.196464,021-62625757,4.5,373.00,体育休闲,上海市,上海市,长宁区
B0K2M5V4FR,网鱼电竞(徐汇虹漕路地铁站店),体育休闲服务;娱乐场所;网吧,080308,漕宝路400号明申商务广场2楼H室,121.411500,31.163791,18930362433,4.7,31.00,体育休闲,上海市,上海市,徐汇区
B0K0JHB2ZP,满是福德HomeBar(打浦桥店),体育休闲服务;娱乐场所;酒吧,080304,瑞金南路海兴广场写字楼30E,121.467670,31.204389,17717349216;18855279449,4.7,189.00,体育休闲,上海市,上海市,黄浦区
B0FFFPORIP,网鱼网咖(仙霞路店),体育休闲服务;娱乐场所;网吧,080308,仙霞路606号2层,121.390052,31.205779,13391134932,4.6,35.00,体育休闲,上海市,上海市,长宁区
B0LUBUBUAI,网鱼电竞(上海闵行虹井路店),体育休闲服务;娱乐场所;网吧,080308,虹井路与延安西路辅路交叉口南40米,121.368504,31.186045,18917875275,4.5,[],体育休闲,上海市,上海市,闵行区
B0FFFPD3WF,Abbey Road 艾比之路(上海衡山路休闲街店),体育休闲服务;娱乐场所;酒吧,080304,桃江路3号(常熟路地铁站7号口步行490米),121.451136,31.209010,021-54662069,4.4,187.00,体育休闲,上海市,上海市,徐汇区
B0J6YU7L1D,机遇时空X-META·全感VR乐园·风起洛阳·苍兰诀,体育休闲服务;娱乐场所;娱乐场所,080300,南京西路389号明天广场裙楼·机遇星球3F,121.469688,31.230459,18616922099,4.4,162.00,体育休闲|科技体验,上海市,上海市,黄浦区
B0L3M1OSLZ,COSO PARTY酷秀(西岸梦中心店),体育休闲服务;娱乐场所;KTV,080302,龙腾大道2270号西岸梦中心1栋3层302,121.465549,31.162134,18321530933,4.5,77.00,体育休闲,上海市,上海市,徐汇区
B0LANDXHG4,第九维度电竞顺晨网咖(安远店),体育休闲服务;娱乐场所;网吧,080308,安远路435号(长寿路地铁站5号口步行410米),121.441808,31.238797,18721825961,4.7,[],体育休闲,上海市,上海市,静安区
B0LG3Z2QOP,逃离城市火塘音乐酒馆,体育休闲服务;娱乐场所;酒吧,080304,昭化路海粟文化广场B1层658号,121.419540,31.210527,15618100852,4.6,76.00,体育休闲,上海市,上海市,长宁区
B0G15MNF4A,Bar Renaissance,体育休闲服务;娱乐场所;酒吧,080304,南昌路150号(淮海中路地铁站1号口步行380米),121.467394,31.218696,18917704686,4.4,148.00,体育休闲,上海市,上海市,黄浦区
B0FFI7A2LY,Judy‘s spot,体育休闲服务;娱乐场所;酒吧,080304,铜仁路329号2楼(近北京西路),121.449426,31.227267,021-62473579;021-62893715,4.5,121.00,体育休闲,上海市,上海市,静安区
B0LASC4K1U,GALAXY COMEDY 银河喜剧(长风大悦城店),体育休闲服务;娱乐场所;娱乐场所,080300,大渡河路196号长风大悦城404-02室,121.395561,31.222694,,4.1,120.00,体育休闲,上海市,上海市,普陀区
B0LRHD8L76,网鱼电竞(黄浦人民广场店),体育休闲服务;娱乐场所;网吧,080308,西藏中路180号102室(人民广场地铁站3号口步行130米),121.476883,31.231229,15000254458;15221067099,4.4,[],体育休闲,上海市,上海市,黄浦区
B0K2AAYCWM,Lv-MAX蓝胖电竞(梅川路步行街店),体育休闲服务;娱乐场所;网吧,080308,梅川路1362号3层,121.380774,31.244120,15256331858,4.4,[],体育休闲,上海市,上海市,普陀区
B0KUG9VYO9,流杯酒肆·台州Bistro,体育休闲服务;娱乐场所;酒吧,080304,陕西南路90号4楼,121.456945,31.221441,19821840777,4.6,150.00,体育休闲,上海市,上海市,静安区
B0J3OAJDT3,Culture Club(INS 新乐园),体育休闲服务;娱乐场所;酒吧,080304,雁荡路109号INS新乐园4层,121.470217,31.217786,15317213159,4.4,205.00,体育休闲,上海市,上海市,黄浦区
B0JUL7TG3F,星聚会KTV(信泰中心店),体育休闲服务;娱乐场所;KTV,080302,大渡河路1428-1438号LG1层LG154-LG155B,121.396422,31.243806,17321486673,4.4,69.00,体育休闲,上海市,上海市,普陀区
B0I21RQHPK,L.S.D利潍坦,体育休闲服务;娱乐场所;酒吧,080304,南昌路334号(陕西南路地铁站4号口步行210米),121.461452,31.215992,18321957420,4.4,107.00,体育休闲,上海市,上海市,黄浦区
B00156O656,CAS BAR(武定路店),体育休闲服务;娱乐场所;酒吧,080304,武定路1089号,121.442049,31.229754,13194932952,4.4,120.00,体育休闲,上海市,上海市,静安区
B0KRFROXUK,Bar Choice茶酒馆,体育休闲服务;娱乐场所;酒吧,080304,华山路777号,121.439814,31.215419,,4.5,161.00,体育休闲,上海市,上海市,静安区
B0KKTRROMF,Nirvana PROJECT球星卡TCG卡牌(晶耀前滩店),体育休闲服务;娱乐场所;娱乐场所,080300,耀体路212号北区1层L110单元(星巴克旁边),121.476785,31.152736,15618549097,4.3,269.00,体育休闲,上海市,上海市,浦东新区
B0IBCZCSRS,星聚会ktv(西岸凤巢店),体育休闲服务;娱乐场所;KTV,080302,云锦路683号西岸凤巢AI PLAZA北区6F层001、022,121.459503,31.164005,18901791395,4.4,75.00,体育休闲,上海市,上海市,徐汇区
B0L2U5EBRY,网鱼电竞(长宁宋园路店),体育休闲服务;娱乐场所;网吧,080308,宋园路109号B1,121.413315,31.191499,13311818663,4.6,[],体育休闲,上海市,上海市,长宁区
B0FFKNQRXM,网鱼电竞·棋牌(闵行航东路店),体育休闲服务;娱乐场所;网吧,080308,航东路366号二楼,121.355821,31.173900,18917991552,4.7,45.00,体育休闲,上海市,上海市,闵行区
B0FFLFWT9T,网鱼电竞(闵行报春路店),体育休闲服务;娱乐场所;网吧,080308,报春路400号2层,121.387926,31.124302,18201887008,4.6,30.00,体育休闲,上海市,上海市,闵行区
B0FFF3STLO,网鱼网咖(徐汇大木桥店),体育休闲服务;娱乐场所;网吧,080308,大木桥路428号五层(大木桥路地铁站4号口步行270米),121.462134,31.196416,021-64325171;13482000292,4.5,41.00,体育休闲,上海市,上海市,徐汇区
B0FFFST5LF,Le Vin·Wine酒場 by MIG,体育休闲服务;娱乐场所;酒吧,080304,长乐路936号(近乌鲁木齐中路),121.445711,31.215768,13061740187;18616554177,4.5,193.00,体育休闲,上海市,上海市,静安区
B00154DQTP,上海市工人疗养院,体育休闲服务;度假疗养场所;疗养院,080402,延安西路2558号(红宝石路地铁站4号口步行320米),121.396123,31.198089,021-52629900;021-62088210,[],[],体育休闲,上海市,上海市,长宁区
B0G3OD8J0R,上海浦岸护理院,体育休闲服务;度假疗养场所;疗养院,080402,湖北路与广东路交叉口东南40米,121.481569,31.231943,15317639867,[],[],体育休闲,上海市,上海市,黄浦区
B0G0UUNCS5,太保家园上海普陀国际康养社区,体育休闲服务;度假疗养场所;疗养院,080402,泾阳路459号,121.357059,31.235695,021-52665152;021-52710988,[],[],体育休闲,上海市,上海市,普陀区
B0K26RVD77,上海鸿泰护理院,体育休闲服务;度假疗养场所;疗养院,080402,凯旋路558号(中山公园地铁站10号口步行420米),121.418150,31.213954,17521724818,[],[],体育休闲,上海市,上海市,长宁区
B0FFFZ9PER,上海市徐汇区第三老年福利院,体育休闲服务;度假疗养场所;疗养院,080402,华泾镇华发路210号,121.451304,31.127280,,[],[],体育休闲,上海市,上海市,徐汇区
B00156O7S1,上海文杰护理院,体育休闲服务;度假疗养场所;疗养院,080402,茅台路616号,121.388366,31.210576,021-62916355;021-62918055,[],[],体育休闲,上海市,上海市,长宁区
B0J0YDKH75,上海徐汇区乐龄汇养老院,体育休闲服务;度假疗养场所;疗养院,080402,孝民路109号,121.450809,31.105419,021-33689019,[],[],体育休闲,上海市,上海市,徐汇区
B0GUSZL5JT,上海黄浦区爱以德养老院(黄浦院),体育休闲服务;度假疗养场所;疗养院,080402,广东路495、525号,121.481727,31.231831,15316978725,4.8,[],体育休闲,上海市,上海市,黄浦区
B0L2RHM6JH,上海芠悦护理院有限公司,体育休闲服务;度假疗养场所;疗养院,080402,延安西路1303号2幢,121.426075,31.210525,13166206168,[],[],体育休闲,上海市,上海市,长宁区
B0FFKI6RN3,上海人寿堂颐养院,体育休闲服务;度假疗养场所;疗养院,080402,虹桥路2302号6幢B17-9层,121.372889,31.190266,15800616855,2.5,[],体育休闲,上海市,上海市,长宁区
B0G3FHJ5AW,上海普陀区康养中心,体育休闲服务;度假疗养场所;疗养院,080402,丹巴路586弄16号(真北路地铁站1号口步行490米),121.385109,31.231334,,3.9,[],体育休闲,上海市,上海市,普陀区
B0FFKF7SB1,鸿泰·乐璟会,体育休闲服务;度假疗养场所;疗养院|公司企业;公司;公司,080402|170200,凯旋路558(延安西路地铁站1号口步行420米),121.418145,31.213942,021-52386006;15800616855,[],[],体育休闲,上海市,上海市,长宁区
B0FFFSTG3N,上海静安区日月星养老院(静安院),体育休闲服务;度假疗养场所;疗养院,080402,余姚路338号,121.437130,31.235435,15316978725,4.7,[],体育休闲,上海市,上海市,静安区
B0FFJHTUG9,申养·望年荟(钦州路店),体育休闲服务;度假疗养场所;疗养院,080402,钦州路828号,121.427600,31.176699,4009009599,[],[],体育休闲,上海市,上海市,徐汇区
B0FFFHYKL9,悦苗残疾人寄养园,体育休闲服务;度假疗养场所;疗养院,080402,延川路71弄12号,121.372801,31.242281,,[],[],体育休闲,上海市,上海市,普陀区
B0JR2HB1VN,上海市浦东新区上钢养护院,体育休闲服务;度假疗养场所;疗养院,080402,成山路66号(长清路地铁站7号口步行450米),121.488422,31.169303,021-58832599,[],[],体育休闲,上海市,上海市,浦东新区
B0KA17R4ZZ,慧享福长寿颐养长者照护之家(长寿路店),体育休闲服务;度假疗养场所;疗养院,080402,常德路1393弄4号(镇坪路地铁站5号口步行480米),121.432424,31.242648,,[],[],体育休闲,上海市,上海市,普陀区
B0FFLEMV5B,上海安馨护理院,体育休闲服务;度假疗养场所;疗养院,080402,林泉路157号,121.373026,31.204826,021-51119990;13321991011,[],[],体育休闲,上海市,上海市,长宁区
B0I01AQZE3,城怡养护院,体育休闲服务;度假疗养场所;疗养院,080402,枣阳路251弄96号,121.399511,31.234254,021-56500522;4000057257,4.6,[],体育休闲,上海市,上海市,普陀区
B0JK6B1T78,慧享福·福荟养老院(淡水路店),体育休闲服务;度假疗养场所;疗养院,080402,淡水路325号(一大会址·新天地地铁站出入口步行270米),121.473886,31.213747,18016255926;18917418220,[],[],体育休闲,上海市,上海市,黄浦区
B001540E7E,闵行区虹桥镇敬老院,体育休闲服务;度假疗养场所;疗养院,080402,虹桥环镇南路120号,121.387624,31.174411,021-64063939,[],[],体育休闲,上海市,上海市,闵行区
B00155QI4Z,逸仙敬老院(安西路分院),体育休闲服务;度假疗养场所;疗养院,080402,安化路299号,121.425479,31.214469,021-32560001,3.4,[],体育休闲,上海市,上海市,长宁区
B0HR4UYUI1,全程玖玖馨逸养护院,体育休闲服务;度假疗养场所;疗养院,080402,徽宁路666号(陆家浜路地铁站2号口步行350米),121.486842,31.208358,13764320037,[],[],体育休闲,上海市,上海市,黄浦区
B00156O7OX,上海祥福颐养院,体育休闲服务;度假疗养场所;疗养院,080402,协和路99号金庭庄园酒店内1号楼,121.357033,31.203411,021-52175099,[],[],体育休闲,上海市,上海市,长宁区
B0FFJNM0JO,徐汇区龙华街道怡乐家园养护院,体育休闲服务;度假疗养场所;疗养院,080402,丰谷路180弄101号龙华机场对面,121.452030,31.167314,,[],[],体育休闲,上海市,上海市,徐汇区
B0JK2UWDX2,慧享福·益福荟养老院(顺昌路店),体育休闲服务;度假疗养场所;疗养院,080402,顺昌路612弄1号(马当路地铁站1号口步行270米),121.479139,31.210725,13661501793,[],[],体育休闲,上海市,上海市,黄浦区
B0FFJA501D,美源养老院,体育休闲服务;度假疗养场所;疗养院,080402,长征镇同普路977号,121.375388,31.229401,021-62163122,[],[],体育休闲,上海市,上海市,普陀区
B0I11U8OOQ,上海长宁万宏悦馨养老院,体育休闲服务;度假疗养场所;疗养院,080402,长宁路250号,121.427618,31.225155,021-52680268,[],[],体育休闲,上海市,上海市,长宁区
B0FFGOHRH2,快乐之家老年公寓,体育休闲服务;度假疗养场所;疗养院,080402,黄家路195号,121.494256,31.216129,15800616855,[],[],体育休闲,上海市,上海市,黄浦区
B0FFF2YFHH,上海虹桥离职干部休养所,体育休闲服务;度假疗养场所;疗养院,080402,虹桥路2293号(上海动物园地铁站1号口步行370米),121.372383,31.191126,,[],[],体育休闲,上海市,上海市,长宁区
B0LRM7XSHH,上海徐汇区田林社区悦颐长者照护之家,体育休闲服务;度假疗养场所;疗养院,080402,文定路223-225号,121.430510,31.180997,,4.4,[],体育休闲,上海市,上海市,徐汇区
B00156NZS8,上海徐汇区徐家汇街道敬老院,体育休闲服务;度假疗养场所;疗养院,080402,凯旋一村21号(南丹路番禺路),121.425354,31.193148,021-64475197,[],[],体育休闲,上海市,上海市,徐汇区
B0J2GUGROM,幸福里(协和路店),体育休闲服务;度假疗养场所;疗养院,080402,绿地金庭庄园内最南端,121.356879,31.202448,,[],[],体育休闲,上海市,上海市,长宁区
B0KAO4KKBT,嘉道·耆乐园(程家桥店),体育休闲服务;度假疗养场所;疗养院,080402,程家桥路238号,121.374702,31.185055,13524585087,[],[],体育休闲,上海市,上海市,闵行区
B0FFICLZRM,上海徐汇区悦颐养老院,体育休闲服务;度假疗养场所;疗养院,080402,茶陵路76号(大木桥路地铁站1号口步行390米),121.467806,31.194770,021-53555218,[],[],体育休闲,上海市,上海市,徐汇区
B0FFLHANN6,云集新曹杨颐养院,体育休闲服务;度假疗养场所;疗养院,080402,中江路1070弄69号1-5层,121.394066,31.237374,021-52651858,[],[],体育休闲,上海市,上海市,普陀区
B00155INUL,平阳敬老院,体育休闲服务;度假疗养场所;疗养院,080402,平阳路1225号,121.388569,31.135284,021-34174386;021-34174387,[],[],体育休闲,上海市,上海市,闵行区
B00155E34T,长桥街道敬老院(罗城路),体育休闲服务;度假疗养场所;疗养院,080402,罗城路651弄65号,121.436425,31.148648,021-54112932,[],[],体育休闲,上海市,上海市,徐汇区
B00155MLRL,上海徐汇区梅陇敬老院,体育休闲服务;度假疗养场所;疗养院,080402,虹梅南路126弄55号(近沪闵路),121.417012,31.139740,021-64768188,[],[],体育休闲,上海市,上海市,徐汇区
B00155AKHM,莲花老年公寓(莲花路),体育休闲服务;度假疗养场所;疗养院,080402,莲花路1115号,121.395804,31.154565,021-34226575,[],[],体育休闲,上海市,上海市,闵行区
B0FFFWUO0R,上海普陀区云集曹杨养老院,体育休闲服务;度假疗养场所;疗养院,080402,曹杨新村街道枫桥路50号(近梅岭北路)曹杨公园(东北角),121.409439,31.240579,021-62127311;021-66111968,[],[],体育休闲,上海市,上海市,普陀区
B00151114D,上海市静安区孙克仁老年福利院,体育休闲服务;度假疗养场所;疗养院,080402,延安西路399号,121.438798,31.217689,021-62487149,[],[],体育休闲,上海市,上海市,静安区
B0FFH36C0O,上海南张安老院,体育休闲服务;度假疗养场所;疗养院,080402,莘庄镇秀文路485弄50号,121.373455,31.126410,021-54136950;021-54136956,[],[],体育休闲,上海市,上海市,闵行区
B0FFGCI48A,上海徐汇区兰公馆老年公寓,体育休闲服务;度假疗养场所;疗养院,080402,天等路430弄39号,121.428790,31.137762,021-64969077;021-64969195;18001778990,[],[],体育休闲,上海市,上海市,徐汇区
B00155LYWA,普陀区长征镇百达敬老院,体育休闲服务;度假疗养场所;疗养院,080402,真北路1101弄-18号,121.382577,31.238103,021-52790090,[],[],体育休闲,上海市,上海市,普陀区
B00155LC98,上海徐汇区龙华街道敬老院,体育休闲服务;度假疗养场所;疗养院,080402,天钥桥南路1199弄38号,121.456680,31.153275,021-54095337,[],[],体育休闲,上海市,上海市,徐汇区
B00156O079,上海乐缘养老院,体育休闲服务;度假疗养场所;疗养院,080402,宾阳路36号,121.436557,31.164473,021-64151576,[],[],体育休闲,上海市,上海市,徐汇区
B0FFHLMHE4,向阳院长者公寓(圣耐维颐养院),体育休闲服务;度假疗养场所;疗养院,080402,柳州路374弄12号,121.423084,31.169399,021-54979988,[],[],体育休闲,上海市,上海市,徐汇区
B0FFG95S9W,百家乐养老院,体育休闲服务;度假疗养场所;疗养院,080402,鲁班路499-2号(鲁班路地铁站1号口步行330米),121.476201,31.201511,,[],[],体育休闲,上海市,上海市,黄浦区
B0LRX72GQR,银康养护院,体育休闲服务;度假疗养场所;疗养院,080402,龙吴路2577号,121.455561,31.114250,,[],[],体育休闲,上海市,上海市,徐汇区
B00156O6LS,上海市徐汇区枫林街道第二敬老院,体育休闲服务;度假疗养场所;疗养院,080402,龙华路3208弄32号,121.446918,31.168208,021-54121238,[],[],体育休闲,上海市,上海市,徐汇区
B0FFF36W3U,长桥街道第二敬老院,体育休闲服务;度假疗养场所;疗养院,080402,长桥四村54号,121.440699,31.133270,021-64103932,[],[],体育休闲,上海市,上海市,徐汇区
B0FFFA066Y,上海金福第二养老院(花园村雅苑南),体育休闲服务;度假疗养场所;疗养院,080402,愚园路1088弄110支弄22号,121.427994,31.221797,021-62125056,[],[],体育休闲,上海市,上海市,长宁区
B00155LYRU,曹安敬老院,体育休闲服务;度假疗养场所;疗养院,080402,怒江路600弄3号,121.398733,31.235848,021-62600023,[],[],体育休闲,上海市,上海市,普陀区
B0FFHA00ZR,上海颐养长者照护之家,体育休闲服务;度假疗养场所;疗养院,080402,延安西路2029弄9号,121.410720,31.205516,,[],[],体育休闲,上海市,上海市,长宁区
B00155NC9X,上海金福养老院(玉屏南路),体育休闲服务;度假疗养场所;疗养院,080402,玉屏南路571号(娄山关路地铁站7号口步行450米),121.401784,31.214200,021-62592208,[],[],体育休闲,上海市,上海市,长宁区
B00154DIHR,颐祥养老院,体育休闲服务;度假疗养场所;疗养院,080402,斜土路2590弄9号(上海体育场地铁站2号口步行220米),121.444223,31.187403,021-64381396,[],[],体育休闲,上海市,上海市,徐汇区
B00155GE3L,上海静安区曹家渡爱华养老院,体育休闲服务;度假疗养场所;疗养院,080402,胶州路485号(近康定路)(昌平路地铁站2号口步行340米),121.441692,31.231889,021-62157096,[],[],体育休闲,上海市,上海市,静安区
B0H0BRZQNC,上海金福第四养老院,体育休闲服务;度假疗养场所;疗养院,080402,长宁支路150号,121.426385,31.226682,021-52923626;13814778291;18217059598,4.5,[],体育休闲,上海市,上海市,长宁区
B0FFFOOBBV,安馨第三敬老院,体育休闲服务;度假疗养场所;疗养院,080402,新泾镇淞虹路660-662号,121.361105,31.212877,13585887013,[],[],体育休闲,上海市,上海市,长宁区
B00157I32D,上海闵行区陇南敬老院,体育休闲服务;度假疗养场所;疗养院,080402,虹梅南路768号,121.422472,31.126735,021-54573258,[],[],体育休闲,上海市,上海市,闵行区
B00152DF66,徐汇区阳光养老院,体育休闲服务;度假疗养场所;疗养院,080402,平福路19号,121.445753,31.141750,021-64556813,[],[],体育休闲,上海市,上海市,徐汇区
B00157I313,徐汇区永康养老院,体育休闲服务;度假疗养场所;疗养院,080402,华发路100弄20-21号,121.452073,31.128010,,[],[],体育休闲,上海市,上海市,徐汇区
B0G39SMHMX,爱照护(上海长征店),体育休闲服务;度假疗养场所;疗养院|生活服务;生活服务场所;生活服务场所,080402|070000,真光路798弄21号2楼,121.376410,31.236226,021-52350797,[],[],体育休闲,上海市,上海市,普陀区
B0FFFTKSFZ,源梦颐养院,体育休闲服务;度假疗养场所;疗养院,080402,龙吴路2577号,121.455561,31.114250,021-54413727,[],[],体育休闲,上海市,上海市,徐汇区
B00155NBR0,逸仙程桥敬老院(哈密路分院),体育休闲服务;度假疗养场所;疗养院,080402,哈密路2008号(上海动物园地铁站1号口步行430米),121.370057,31.192399,021-62629147,[],[],体育休闲,上海市,上海市,长宁区
B00156ZYJ5,上海闵行区虹桥镇龙柏敬老院,体育休闲服务;度假疗养场所;疗养院,080402,龙柏七村104号,121.362214,31.174217,021-34311886,[],[],体育休闲,上海市,上海市,闵行区
B00156O8FK,上海华松敬老院,体育休闲服务;度假疗养场所;疗养院,080402,仙霞西路700弄63号,121.358050,31.209991,021-62397552,[],[],体育休闲,上海市,上海市,长宁区
B0G2UP20BG,黄浦区五里桥街道萌志敬老院,体育休闲服务;度假疗养场所;疗养院,080402,蒙自路与中山南一路辅路交叉口西北20米,121.480782,31.198888,,[],[],体育休闲,上海市,上海市,黄浦区
B0FFFPM3MK,泰和源养老院,体育休闲服务;度假疗养场所;疗养院,080402,白兰路136号(曹杨路地铁站出入口步行350米),121.415033,31.236262,,[],[],体育休闲,上海市,上海市,普陀区
B0FFJJ571C,颐长敬老院,体育休闲服务;度假疗养场所;疗养院,080402,怒江路与金沙江路交叉口东北240米,121.399881,31.234002,,[],[],体育休闲,上海市,上海市,普陀区
B001534927,中三敬老院,体育休闲服务;度假疗养场所;疗养院,080402,瞿溪路1252弄1-2号(鲁班路地铁站3号口步行440米),121.470510,31.197680,021-63030584,[],[],体育休闲,上海市,上海市,黄浦区
B0FFF00ONY,长寿家园养老院,体育休闲服务;度假疗养场所;疗养院,080402,宜昌路555号4-5层(镇坪路地铁站5号口步行450米),121.434047,31.244461,021-31169927,[],[],体育休闲,上海市,上海市,普陀区
B00155GOHF,上海徐汇区康健敬老院,体育休闲服务;度假疗养场所;疗养院,080402,桂林西街30弄41号,121.418079,31.154131,021-54189117,[],[],体育休闲,上海市,上海市,徐汇区
B00156OBJW,上海市长宁区颐养敬老院,体育休闲服务;度假疗养场所;疗养院,080402,,121.394022,31.209299,021-62598488,[],[],体育休闲,上海市,上海市,长宁区
B00156EP37,上海神州敬老院,体育休闲服务;度假疗养场所;疗养院,080402,仙霞西路601-1号,121.361721,31.208772,,[],[],体育休闲,上海市,上海市,长宁区
B00155ICHD,徐汇区虹梅养老院,体育休闲服务;度假疗养场所;疗养院,080402,上海漕河泾新兴技术开发区漕宝路虹梅路1001号,121.401661,31.162087,021-54481263,[],[],体育休闲,上海市,上海市,徐汇区
B0FFGMBTMW,上海龙祥养老院,体育休闲服务;度假疗养场所;疗养院,080402,牌楼路(陆家浜路地铁站1号口步行350米),121.486525,31.214125,021-63451099,[],[],体育休闲,上海市,上海市,黄浦区
B0FFG11E51,白玉敬老院,体育休闲服务;度假疗养场所;疗养院,080402,白玉新村114号(金沙江路地铁站3号口步行370米),121.414038,31.232650,021-62225323,[],[],体育休闲,上海市,上海市,普陀区
B0015318D8,上海徐汇区斜土街道敬老院,体育休闲服务;度假疗养场所;疗养院,080402,大木桥路321-323号(大木桥路地铁站4号口步行350米),121.462458,31.197166,021-64168928,[],[],体育休闲,上海市,上海市,徐汇区
B0LUMH5GYH,上海莳花斋养老服务有限公司,体育休闲服务;度假疗养场所;疗养院|生活服务;生活服务场所;生活服务场所,080402|070000,蓬莱路288号二楼,121.489386,31.217153,021-63300390;021-63300693,4.5,[],体育休闲,上海市,上海市,黄浦区
B00155EIYY,金色港湾龙华颐养院,体育休闲服务;度假疗养场所;疗养院,080402,天钥桥南路龙南三村85号,121.456549,31.156704,021-54091067,[],[],体育休闲,上海市,上海市,徐汇区
B00155IA04,田林敬老院,体育休闲服务;度假疗养场所;疗养院,080402,宜山路655弄8号,121.426715,31.175185,021-64831224,[],[],体育休闲,上海市,上海市,徐汇区
B0FFFEVD71,耀华养老院,体育休闲服务;度假疗养场所;疗养院,080402,耀华路550弄2号,121.481116,31.170914,,[],[],体育休闲,上海市,上海市,浦东新区
B00156YO2Y,上海市浦东新区上钢新村街道德州养老院,体育休闲服务;度假疗养场所;疗养院,080402,德州路255弄56号(成山路地铁站3号口步行410米),121.491895,31.169261,021-33938908,[],[],体育休闲,上海市,上海市,浦东新区
B0G33AVQ7A,长风敬老院,体育休闲服务;度假疗养场所;疗养院,080402,长风二村145号(大渡河路地铁站9号口步行350米),121.397503,31.233590,021-62225826,[],[],体育休闲,上海市,上海市,普陀区
B00155DFZR,喜满楼敬老院,体育休闲服务;度假疗养场所;疗养院,080402,中春路5801号,121.362687,31.115702,021-54887821,[],[],体育休闲,上海市,上海市,闵行区
B00156EP99,仙霞社区逸仙敬老院,体育休闲服务;度假疗养场所;疗养院,080402,芙蓉江路100弄1号,121.394803,31.207378,021-62595905,[],[],体育休闲,上海市,上海市,长宁区
B0FFLG2DB7,鸿泰乐尔之家,体育休闲服务;度假疗养场所;疗养院,080402,程家桥路238号,121.374591,31.185090,021-64020768,4.0,[],体育休闲,上海市,上海市,闵行区
B0HGAL1NHI,上海华阳敬老院(秀水路),体育休闲服务;度假疗养场所;疗养院,080402,长宁路396弄79号,121.424593,31.223670,021-62125395;021-62258022,[],[],体育休闲,上海市,上海市,长宁区
B0FFHEFTOZ,恒裕养老,体育休闲服务;度假疗养场所;疗养院,080402,曹家渡街道万航渡路767弄43号,121.431637,31.228022,,[],[],体育休闲,上海市,上海市,静安区
B00156O7UU,南山敬老院(新泾路),体育休闲服务;度假疗养场所;疗养院,080402,新泾路118号,121.361375,31.204069,021-52198005,[],[],体育休闲,上海市,上海市,长宁区
B001558566,上海徐汇区久康养老院,体育休闲服务;度假疗养场所;疗养院,080402,华泾路190号西岸自然艺术公园内(东侧),121.454555,31.121194,,[],[],体育休闲,上海市,上海市,徐汇区
B0FFHJTK77,长寿安远长者照护之家,体育休闲服务;度假疗养场所;疗养院,080402,安远路676号(武宁路地铁站2号口步行480米),121.435034,31.235364,,[],[],体育休闲,上海市,上海市,普陀区
B00156NYLK,慧璟敬老院,体育休闲服务;度假疗养场所;疗养院,080402,武夷路709弄26号,121.416519,31.214155,,[],[],体育休闲,上海市,上海市,长宁区
B0FFG751PO,康平路老公寓,体育休闲服务;度假疗养场所;疗养院|商务住宅;商务住宅相关;商务住宅相关,080402|120000,康平路182号,121.439671,31.201645,,[],[],体育休闲,上海市,上海市,徐汇区
B0L0O9ITGT,尚情养老·高端居家养老·陪诊陪护,体育休闲服务;度假疗养场所;疗养院,080402,莘朱路与同乐路交叉口西南220米,121.419225,31.120825,,[],[],体育休闲,上海市,上海市,闵行区
B0JB3SAVCI,上海静安区静安寺社区长者照护之家,体育休闲服务;度假疗养场所;疗养院,080402,镇宁路458号,121.436063,31.223411,,[],[],体育休闲,上海市,上海市,静安区
B001559DXI,上海法华颐养院(暂停营业),体育休闲服务;度假疗养场所;疗养院,080402,法华镇路920号(延安西路地铁站2号口步行300米),121.418342,31.207623,021-62718625,[],[],体育休闲,上海市,上海市,长宁区
B00155M0IJ,蓬莱老年公寓,体育休闲服务;度假疗养场所;疗养院,080402,学前街66-68,121.489267,31.216125,,[],[],体育休闲,上海市,上海市,黄浦区
B0JUUSN8JL,记忆家园上海虹桥社区银龄阁长者照护中心,体育休闲服务;度假疗养场所;疗养院,080402,安东小区西北门旁,121.418350,31.201097,,[],[],体育休闲,上海市,上海市,长宁区
B0FFGHPIEG,逸仙第二敬老院,体育休闲服务;度假疗养场所;疗养院,080402,茅台路616号,121.388225,31.210575,021-62918779,[],[],体育休闲,上海市,上海市,长宁区
B0FFF004W1,蝴蝶湾敬老院,体育休闲服务;度假疗养场所;疗养院,080402,石门二路505-1号(汉中路地铁站10号口步行470米),121.458718,31.237499,,[],[],体育休闲,上海市,上海市,静安区
B0FFHA1260,上海长青藤颐养院,体育休闲服务;度假疗养场所;疗养院|生活服务;生活服务场所;生活服务场所,080402|070000,华容路85弄8号,121.450814,31.179365,021-65695558,[],[],体育休闲,上海市,上海市,徐汇区
B0LBC5DDU4,上海徐汇区康健街道长青坊长者照护之家,体育休闲服务;度假疗养场所;疗养院,080402,桂林西街30弄42号,121.418365,31.154351,,[],[],体育休闲,上海市,上海市,徐汇区
B0FFGC3BSM,古美敬老院,体育休闲服务;度假疗养场所;疗养院,080402,虹莘路与宝文路交叉口东160米,121.382637,31.143163,,[],[],体育休闲,上海市,上海市,闵行区
B0HG6AD0G0,上海长宁万宏悦馨第二养老院,体育休闲服务;度假疗养场所;疗养院,080402,虹桥路1024弄4号(虹桥路地铁站6号口步行450米),121.419356,31.194632,,[],[],体育休闲,上海市,上海市,长宁区
B0FFG69MYR,上海虹桥敬老院(云都·虹桥大厦东南),体育休闲服务;度假疗养场所;疗养院,080402,中山西路1030弄-10号(宋园路地铁站2号口步行490米),121.413021,31.198906,,[],[],体育休闲,上海市,上海市,长宁区
B0FFKFPO0N,新徐汇乐尔之家,体育休闲服务;度假疗养场所;疗养院|体育休闲服务;休闲场所;休闲场所,080402|080500,茶陵路76号新徐汇(大木桥路地铁站1号口步行370米),121.467789,31.194610,15800616855,[],[],体育休闲,上海市,上海市,徐汇区
B0FFI8BI6H,五里桥街道顾卞裘莉敬老院,体育休闲服务;度假疗养场所;疗养院,080402,瞿溪路1111弄之1-28号五岭小区附近,121.473332,31.200076,,[],[],体育休闲,上海市,上海市,黄浦区
B0FFJ5FIAD,上海颐养第三养老院,体育休闲服务;度假疗养场所;疗养院,080402,长顺路55号,121.416888,31.199026,021-52821819,[],[],体育休闲,上海市,上海市,长宁区
B0IUCL7K6X,虹南长者照护中心,体育休闲服务;度假疗养场所;疗养院,080402,中山西路1440号36号口附近,121.417669,31.191775,18521316881,[],[],体育休闲,上海市,上海市,长宁区
B0LBT72FQW,上海静安区和养麒乐颐养院,体育休闲服务;度假疗养场所;疗养院,080402,昌化路430弄5号楼,121.450772,31.239005,021-52993527,[],[],体育休闲,上海市,上海市,静安区
B0FFFZKY6D,上海市黄浦区残疾人阳光家园,政府机构及社会团体;社会团体;残联|体育休闲服务;度假疗养场所;度假疗养场所|体育休闲服务;休闲场所;休闲场所,130404|080400|080500,制造局路436、440号,121.483994,31.205457,,[],[],体育休闲,上海市,上海市,黄浦区
B0FFH1X6FN,逸仙天山养老院,体育休闲服务;度假疗养场所;疗养院,080402,玉屏南路373号(娄山关路地铁站出入口步行390米),121.406259,31.212862,021-62458500,[],[],体育休闲,上海市,上海市,长宁区
B0FFGHBG71,徐汇日晖养老院,体育休闲服务;度假疗养场所;疗养院,080402,零陵北路2号(大木桥路地铁站1号口步行390米),121.464405,31.196565,,[],[],体育休闲,上海市,上海市,徐汇区
B0FFI87BK3,敬老村,体育休闲服务;度假疗养场所;疗养院,080402,新华路693弄1-7号,121.419525,31.204793,,[],[],体育休闲,上海市,上海市,长宁区
B0KKSYOJ73,浦东新区普安养老院,体育休闲服务;度假疗养场所;疗养院,080402,德州路380弄30号,121.486659,31.165999,,[],[],体育休闲,上海市,上海市,浦东新区
B0G2U94229,上海康乐福养老院(公寓区),体育休闲服务;度假疗养场所;疗养院,080402,泾阳路与香樟路交叉口东北140米,121.360015,31.236471,,[],[],体育休闲,上海市,上海市,普陀区
B0H6S5YPRG,万宏养老,体育休闲服务;度假疗养场所;疗养院,080402,安龙路447弄4号,121.386550,31.204747,,[],[],体育休闲,上海市,上海市,长宁区
B0FFI74IP2,银色港湾养老院,体育休闲服务;度假疗养场所;疗养院,080402,瞿溪路700号,121.483042,31.201708,,[],[],体育休闲,上海市,上海市,黄浦区
B0FFLA3IIG,艾为康敬老院,体育休闲服务;度假疗养场所;疗养院,080402,平南一村98号(东兰路地铁站2号口步行450米),121.394338,31.154560,021-54163260,[],[],体育休闲,上海市,上海市,闵行区
B0FFL9JU3H,逸仙养老,体育休闲服务;度假疗养场所;疗养院,080402,虹桥路2302号6幢B17-9层上海人寿堂颐养院,121.373266,31.190229,021-52063333,[],[],体育休闲,上海市,上海市,长宁区
B0FFG8IQIN,古美休养所,体育休闲服务;度假疗养场所;疗养院,080402,古美路与平阳路交叉口西280米,121.403084,31.143056,,[],[],体育休闲,上海市,上海市,闵行区
B00155QL4H,上海虹桥敬老院(安顺路),体育休闲服务;度假疗养场所;疗养院,080402,安顺路181弄1-3号,121.418463,31.201159,,[],[],体育休闲,上海市,上海市,长宁区
B0FFFA088U,上海天使海滩度假村,体育休闲服务;度假疗养场所;度假村,080401,延安东路142号(豫园地铁站6号口步行300米),121.489182,31.232330,,3.9,[],体育休闲,上海市,上海市,黄浦区
B0LKAH9A4A,工人疗养院B座,体育休闲服务;度假疗养场所;疗养院,080402,延安西路2558号上海市工人疗养院,121.396075,31.198025,,[],[],体育休闲,上海市,上海市,长宁区
B0JRV4N1KG,快乐颐养老家庭照护床位服务中心,体育休闲服务;度假疗养场所;疗养院|生活服务;生活服务场所;生活服务场所,080402|070000,黄家路与凝和路交叉口东40米,121.494281,31.216077,,[],[],体育休闲,上海市,上海市,黄浦区
B0JKDC73NR,祥祯养老院,体育休闲服务;度假疗养场所;疗养院,080402,上中西路239-6号,121.425376,31.134155,13701632967;18521024006;18616838949,4.3,[],体育休闲,上海市,上海市,徐汇区
B0FFLM3ZUN,华康养老,体育休闲服务;度假疗养场所;疗养院,080402,万航渡路767弄小区西南2门旁,121.431059,31.227621,,[],[],体育休闲,上海市,上海市,静安区
B0IAJYQCAW,半淞园路街道长者照护之家,体育休闲服务;度假疗养场所;疗养院,080402,世博滨江大厦·北座大门旁(西藏南路地铁站2号口步行370米),121.492882,31.201988,021-63010075,[],[],体育休闲,上海市,上海市,黄浦区
B0FFHGN3W2,五里桥街道蒙自路敬老院,体育休闲服务;度假疗养场所;疗养院,080402,蒙自路与中山南一路辅路交叉口西北20米,121.480768,31.198899,,[],[],体育休闲,上海市,上海市,黄浦区
B0LG2H8HPA,河山荟居家养老,体育休闲服务;度假疗养场所;疗养院,080402,延安西路辅路与定西路交叉口东北60米,121.423944,31.210353,,[],[],体育休闲,上海市,上海市,长宁区
B0KA9ZNDT9,寿昌坊长者照护之家,体育休闲服务;度假疗养场所;疗养院,080402,寿昌坊东门东北80米,121.422041,31.151106,,[],[],体育休闲,上海市,上海市,徐汇区
B0FFGOFP8A,新乐养老院,体育休闲服务;度假疗养场所;疗养院,080402,江安路88号,121.414485,31.148205,021-54197284,[],[],体育休闲,上海市,上海市,徐汇区
B0KKVX3GS9,长者照护之家,体育休闲服务;度假疗养场所;疗养院,080402,淡水路与合肥路交叉口东南140米,121.474586,31.213080,,[],[],体育休闲,上海市,上海市,黄浦区
B0FFF00LAY,仙霞社区阳光之家,体育休闲服务;度假疗养场所;疗养院,080402,水城路453号,121.390465,31.207754,,[],[],体育休闲,上海市,上海市,长宁区
B0G3AOIOVI,逸仙长者照护之家,体育休闲服务;度假疗养场所;疗养院,080402,江苏路街道利西路307号,121.425499,31.214099,,[],[],体育休闲,上海市,上海市,长宁区
B00156O276,江宁乐龄家园,体育休闲服务;度假疗养场所;疗养院,080402,常德路545弄43号(昌平路地铁站2号口步行480米),121.445544,31.229885,,[],[],体育休闲,上海市,上海市,静安区
B0J3XS0PIM,上钢养护院,体育休闲服务;度假疗养场所;疗养院,080402,历城路与耀华路交叉口南200米,121.491989,31.176297,,[],[],体育休闲,上海市,上海市,浦东新区
B0L29BPXIG,瑞金二路街道家门口养老服务站·祥瑞里,体育休闲服务;度假疗养场所;疗养院,080402,陕西南路271弄25号2楼,121.462625,31.208125,,[],[],体育休闲,上海市,上海市,黄浦区
B0L2VD8SN6,淮海中路街道花园里家门口养老服务站,体育休闲服务;度假疗养场所;疗养院,080402,复兴中路455弄29号102室,121.473114,31.214958,,[],[],体育休闲,上海市,上海市,黄浦区
B0LGPU7OGT,上海秀英养老院,体育休闲服务;度假疗养场所;疗养院,080402,德州路380弄30号,121.486659,31.165999,,[],[],体育休闲,上海市,上海市,浦东新区
B0L217UA5Z,逸仙第三敬老院5号楼,体育休闲服务;度假疗养场所;疗养院,080402,安化路299号逸仙敬老院(安西路分院),121.425625,31.214525,,[],[],体育休闲,上海市,上海市,长宁区
B0FFG51HPE,德州敬老院(北门),体育休闲服务;度假疗养场所;疗养院,080402,德州路255弄56号(成山路地铁站3号口步行410米),121.491821,31.169417,021-33938908,[],[],体育休闲,上海市,上海市,浦东新区
B0LRBKMUD2,静老年,体育休闲服务;度假疗养场所;疗养院,080402,康定路与延平路交叉口西120米,121.438058,31.230916,,[],[],体育休闲,上海市,上海市,静安区
B0IBA5GCA5,神州老年人日间照料服务中心,体育休闲服务;度假疗养场所;疗养院,080402,仙霞西路与淞虹路交叉口西80米,121.361890,31.208760,,[],[],体育休闲,上海市,上海市,长宁区
B0LK41XQ3G,敬老院,体育休闲服务;度假疗养场所;疗养院,080402,莘浜路与莘东路交叉口西80米,121.377725,31.105825,,[],[],体育休闲,上海市,上海市,闵行区
B0L1MNFF9Y,上海徐汇区乐龄汇养老院2号楼,体育休闲服务;度假疗养场所;疗养院,080402,孝民路109号上海徐汇区乐龄汇养老院,121.451775,31.106075,,[],[],体育休闲,上海市,上海市,徐汇区
B0LRPXSEBC,华阳敬老院1号楼,体育休闲服务;度假疗养场所;疗养院,080402,长宁路396弄79号上海华阳敬老院,121.424625,31.223625,,[],[],体育休闲,上海市,上海市,长宁区
B0L1M6EZ52,上海徐汇区乐龄汇养老院1号楼,体育休闲服务;度假疗养场所;疗养院,080402,孝民路109号上海徐汇区乐龄汇养老院,121.451875,31.105725,,[],[],体育休闲,上海市,上海市,徐汇区
B0L1C9718R,上海华阳敬老院2号楼,体育休闲服务;度假疗养场所;疗养院,080402,长宁路396弄79号上海华阳敬老院(秀水路),121.424925,31.223475,,[],[],体育休闲,上海市,上海市,长宁区
B0LA3CBERZ,黄埔养护院,体育休闲服务;度假疗养场所;疗养院,080402,普育西路与徽宁路交叉口东南20米,121.494104,31.211314,,[],[],体育休闲,上海市,上海市,黄浦区
B0LG076FSR,国康养老,体育休闲服务;度假疗养场所;疗养院,080402,曹杨路与真华南路交叉口东60米,121.412225,31.241825,,[],[],体育休闲,上海市,上海市,普陀区
B0LRKYGMQR,虹桥敬老院1号楼,体育休闲服务;度假疗养场所;疗养院,080402,虹桥环镇南路120号闵行区虹桥镇敬老院,121.387625,31.174175,,[],[],体育休闲,上海市,上海市,闵行区
B0L11RLXMC,虹桥镇敬老院2号楼,体育休闲服务;度假疗养场所;疗养院,080402,虹桥环镇南路120号闵行区虹桥镇敬老院,121.387625,31.174425,,[],[],体育休闲,上海市,上海市,闵行区
B0HGTM8WM6,上海福苑养老服务有限公司,体育休闲服务;度假疗养场所;疗养院,080402,新闸路848号新福康里商务中心F2层,121.459275,31.235025,,[],[],体育休闲,上海市,上海市,静安区
B0LR0OPSLX,上海市工人疗养院1号楼,体育休闲服务;度假疗养场所;疗养院,080402,延安西路2558号上海市工人疗养院,121.396125,31.198025,,[],[],体育休闲,上海市,上海市,长宁区
B0J065HUFA,养涵老年人服务中心,体育休闲服务;度假疗养场所;疗养院,080402,中江路与金沙江路交叉口西北40米,121.391904,31.231915,,[],[],体育休闲,上海市,上海市,普陀区
B0LB3G3CXV,福寿康居家养老照护,体育休闲服务;度假疗养场所;疗养院,080402,大吉路与肇周路交叉口东北40米,121.481575,31.213225,,[],[],体育休闲,上海市,上海市,黄浦区
B0FFFDDCWA,长风新村街道阳光家园,体育休闲服务;度假疗养场所;疗养院,080402,长风一村43甲,121.404667,31.231200,,[],[],体育休闲,上海市,上海市,普陀区
B0L03RDRPO,上海圣耐维颐养院有限公司,体育休闲服务;度假疗养场所;疗养院,080402,柳州路与田林路交叉口南260米,121.423114,31.169570,,[],[],体育休闲,上海市,上海市,徐汇区
B0LDL9U8DZ,上海文杰护理院,体育休闲服务;度假疗养场所;疗养院,080402,程家桥路与虹桥路交叉口东40米,121.372419,31.190281,,[],[],体育休闲,上海市,上海市,长宁区
B0LKK5NJCV,上海劳务区静安第二离职干部休养所,体育休闲服务;度假疗养场所;疗养院,080402,北京西路与万航渡路交叉口西40米,121.442475,31.224575,,[],[],体育休闲,上海市,上海市,静安区
B0KRUB0NJ9,丹诺康养老服务公司,体育休闲服务;度假疗养场所;疗养院,080402,三林镇杨新路88号骊湾88文化创意园1号楼5楼,121.492175,31.164075,,[],[],体育休闲,上海市,上海市,浦东新区
B0L0B5UQPI,上海长宁万宏悦馨养老院8号楼,体育休闲服务;度假疗养场所;疗养院,080402,长宁路250号上海长宁万宏悦馨养老院,121.427625,31.225175,,[],[],体育休闲,上海市,上海市,长宁区
B0L3M5KIJK,上海普陀国际康养社区C,体育休闲服务;度假疗养场所;疗养院|商务住宅;商务住宅相关;商务住宅相关,080402|120000,泾阳路与同普路交叉口东80米,121.357075,31.235675,,[],[],体育休闲,上海市,上海市,普陀区
B0L1C970VL,上海祥福颐养院21号楼,体育休闲服务;度假疗养场所;疗养院,080402,协和路与新泾路交叉口西南160米,121.355825,31.203575,,[],[],体育休闲,上海市,上海市,长宁区
B0L3MRNTNH,华康恒裕养护院2号楼,体育休闲服务;度假疗养场所;疗养院,080402,徽宁路与普育西路交叉口东南40米,121.494375,31.211325,,[],[],体育休闲,上海市,上海市,黄浦区
B0L3ASRRG3,上海市工人疗养院2号楼,体育休闲服务;度假疗养场所;度假疗养场所,080400,延安西路2558号上海市工人疗养院,121.395975,31.198175,,3.5,[],体育休闲,上海市,上海市,长宁区
B0LR0OP005,上海市工人疗养院7号楼,体育休闲服务;度假疗养场所;疗养院,080402,延安西路2558号上海市工人疗养院,121.396125,31.198075,,[],[],体育休闲,上海市,上海市,长宁区
B0L2SP51RR,上海莳花斋养老服务有限公司,体育休闲服务;度假疗养场所;疗养院,080402,泰康路与思南路交叉口西200米,121.469293,31.207943,,[],[],体育休闲,上海市,上海市,黄浦区
B0LR0OP3SC,上海祥福颐养院3号楼,体育休闲服务;度假疗养场所;疗养院,080402,协和路与新泾路交叉口南120米,121.357025,31.203425,,[],[],体育休闲,上海市,上海市,长宁区
B0LR01OQIM,上海长宁万宏悦馨养老院1号楼,体育休闲服务;度假疗养场所;疗养院,080402,长宁路250号上海长宁万宏悦馨养老院,121.426875,31.225375,,[],[],体育休闲,上海市,上海市,长宁区
B0L3OMXHW3,晴安康养居家养老护理医院护工,医疗保健服务;医疗保健服务场所;医疗保健服务场所|体育休闲服务;度假疗养场所;疗养院,090000|080402,零陵路与宛平南路交叉口西100米,121.447775,31.188775,,[],[],体育休闲,上海市,上海市,徐汇区
B0K14YTU5Z,家门口养老服务站,体育休闲服务;度假疗养场所;疗养院,080402,大沽路与黄陂北路交叉口西南120米,121.471596,31.226221,,[],[],体育休闲,上海市,上海市,黄浦区
B0L0RO87SP,银兆银都社区老年家庭照护站,体育休闲服务;度假疗养场所;疗养院|生活服务;生活服务场所;生活服务场所,080402|070000,银都路与曹联路交叉口西北140米,121.439175,31.105875,,[],[],体育休闲,上海市,上海市,闵行区
B0L31RVFNI,逍遥小筑幸福中心,体育休闲服务;度假疗养场所;疗养院,080402,百色路与百色支路交叉口北220米,121.447225,31.145375,,[],[],体育休闲,上海市,上海市,徐汇区
B0K0DZIVLO,上海挚康养老服务中心,体育休闲服务;度假疗养场所;疗养院,080402,法华镇路与香花桥路交叉口东南100米,121.426285,31.204331,,[],[],体育休闲,上海市,上海市,长宁区
B0LDK1MSBO,一3养老院,体育休闲服务;度假疗养场所;疗养院,080402,凯旋路与安顺路交叉口西南80米,121.418575,31.201175,,[],[],体育休闲,上海市,上海市,长宁区
B0J0KU2T5E,芦恒路敬老院(建设中),体育休闲服务;度假疗养场所;疗养院,080402,浦锦路与江松路交叉口南360米,121.484621,31.115355,,[],[],体育休闲,上海市,上海市,闵行区
B0LR0XPVA3,上海长宁万宏悦馨养老院2号楼,体育休闲服务;度假疗养场所;疗养院,080402,长宁路250号上海长宁万宏悦馨养老院,121.426875,31.225375,,[],[],体育休闲,上海市,上海市,长宁区
B0LK4KVHSJ,挚护·医院护工·居家照护(六院店),体育休闲服务;度假疗养场所;疗养院|医疗保健服务;医疗保健服务场所;医疗保健服务场所,080402|090000,宜山路与钦州北路交叉口东北180米,121.425675,31.180525,,[],[],体育休闲,上海市,上海市,徐汇区
B00155HPWC,百联ZX创趣场,购物服务;商场;普通商场|体育休闲服务;休闲场所;休闲场所,060102|080500,南京东路340-372号,121.483254,31.237161,021-63516562,4.8,[],体育休闲,上海市,上海市,黄浦区
B0H0SR7BST,INS新乐园,体育休闲服务;休闲场所;游乐场,080501,雁荡路109号,121.470244,31.217809,13480513624;19121804905;4006166013,4.9,146.00,体育休闲,上海市,上海市,黄浦区
B0J1P52IP3,奈尔宝家庭中心·儿童乐园·亲子餐厅(豫园店),体育休闲服务;休闲场所;游乐场,080501,旧校场路69号悦宾楼,121.490963,31.226765,4008169988,4.7,189.00,体育休闲,上海市,上海市,黄浦区
B0JKF50IXP,奈尔宝儿童科技馆(上海馆),体育休闲服务;休闲场所;游乐场,080501,西岸凤巢(龙耀路地铁站1号口步行210米)西岸凤巢AI PLAZA北区1楼,121.460739,31.164297,4008169988,4.7,430.00,体育休闲|科技体验,上海市,上海市,徐汇区
B0J25HS4G5,奈尔宝家庭中心(上海爱琴海店),体育休闲服务;休闲场所;游乐场|购物服务;家居建材市场;家具城,080501|060602,吴中路1588号上海爱琴海购物中心1F(5号门进来左转向前200米),121.373378,31.175177,4008169988,4.6,175.00,体育休闲,上海市,上海市,闵行区
B0FFLBEZVR,奈尔宝家庭中心(前滩店),体育休闲服务;休闲场所;游乐场,080501,钱家滩路388号平家桥路口晶耀前滩南区2层,121.477474,31.151928,4008169988,4.6,238.00,体育休闲,上海市,上海市,浦东新区
B0I06URTSU,屋有岛(ARK新华宁店),体育休闲服务;休闲场所;休闲场所,080500,宣化路300号501室(中山公园地铁站8号口步行270米),121.422109,31.217473,15502198713,4.5,303.00,体育休闲,上海市,上海市,长宁区
B0LD5HXBPM,上美影泡泡米益智乐园,体育休闲服务;休闲场所;游乐场,080501,中山北路3300号星月环球港L2层2049-2062,121.412525,31.233275,021-52280765;19921535652,4.4,[],体育休闲,上海市,上海市,普陀区
B0JB9NQRQG,新歌空间,体育休闲服务;休闲场所;休闲场所,080500,愚园路1250号长宁区工人文化宫3楼,121.425791,31.219184,021-52378662,4.8,[],体育休闲,上海市,上海市,长宁区
B0J0SUG53L,山楂花儿童游乐场,体育休闲服务;休闲场所;游乐场,080501,龙腾大道459号,121.455451,31.140600,021-55958017,4.5,87.00,体育休闲,上海市,上海市,徐汇区
B0J2L53G4J,MELAND CLUB(百联西郊购物中心店),体育休闲服务;休闲场所;游乐场,080501,百联西郊购物中心3楼,121.369781,31.208979,021-60272919,4.6,219.00,体育休闲,上海市,上海市,长宁区
B0K3CRDYXC,阿嬷手作(兴业太古汇店),体育休闲服务;休闲场所;休闲场所,080500,南京西路789号兴业太古汇LG1层LG172-LG174商铺阿嬷手作,121.463585,31.227740,19121017698,4.7,32.00,体育休闲,上海市,上海市,静安区
B0L1PR7Q06,木星动物岛·室内萌宠互动乐园(龙之梦店),体育休闲服务;休闲场所;游乐场,080501,汇川路龙之梦城市生活中心蓝中庭L5层5061、5063、5065、5067、5069号,121.416859,31.219554,15317669819,4.1,122.00,体育休闲,上海市,上海市,长宁区
B0L3A1XLFL,阿嬷手作(上海豫园店),体育休闲服务;休闲场所;休闲场所,080500,旧校场路159号天裕楼1楼TYX1-1 (靠近7号门),121.491990,31.225374,17701676152,4.6,25.00,体育休闲,上海市,上海市,黄浦区
B0I0N56RT7,Topjoy花源里营地·团建·火锅·围炉煮茶,体育休闲服务;休闲场所;露营地,080504,芦恒路1398号上房园艺梦花源(东南角),121.472375,31.107875,13058975466;15921312128,4.3,167.00,体育休闲,上海市,上海市,闵行区
B0LBN1PUX1,白厢手作·陶艺·银饰·调香(打浦桥店),体育休闲服务;休闲场所;休闲场所,080500,瑞金南路1号海兴广场20层20D(中信银行旁边绿色旋转门进),121.467518,31.204565,15601662334,4.4,99.00,体育休闲,上海市,上海市,黄浦区
B0KBXXHIUP,上海山野camping·户外天幕烧烤·团建拓展营地,体育休闲服务;休闲场所;休闲场所,080500,前滩大道与桐晚路交叉口西北120米,121.466206,31.150877,15757120954,4.0,37.00,体育休闲,上海市,上海市,浦东新区
B0K2CLTWQD,卡乐比乐园,体育休闲服务;休闲场所;游乐场,080501,世博大道1368号世博源3区G层,121.492719,31.183416,13122635934,4.4,95.00,体育休闲,上海市,上海市,浦东新区
B0K13UU679,阿嬷手作(万象城店),体育休闲服务;休闲场所;休闲场所,080500,吴中路1599号L112b-113b(近商场北5门外街右侧),121.369551,31.170883,19121869716,4.6,33.00,体育休闲,上海市,上海市,闵行区
B0FFH10EKT,汤姆熊欢乐世界(新世界店),体育休闲服务;休闲场所;游乐场,080501,南京西路2-68号新世界城L8层,121.473939,31.235416,021-53020196,4.3,113.00,体育休闲,上海市,上海市,黄浦区
B0J2X7TT66,阿嬷手作(长宁来福士店),体育休闲服务;休闲场所;休闲场所,080500,长宁路1189号长宁来福士L1层,121.414360,31.216335,19102153909,4.6,30.00,体育休闲,上海市,上海市,长宁区
B0I3DU32CE,龙吟山房(苏河湾万象天地店),餐饮服务;中餐厅;江苏菜|体育休闲服务;休闲场所;休闲场所,050105|080500,福建北路100号苏河湾万象天地慎余里4号楼,121.477303,31.242539,021-62866308,4.4,374.00,体育休闲,上海市,上海市,静安区
B0JUDH1H40,九间泰·正宗泰式按摩SPA,体育休闲服务;休闲场所;休闲场所,080500,南京西路993号锦江向阳大厦1109-1112室,121.458791,31.228808,021-58341331;021-62185988,4.4,223.00,体育休闲,上海市,上海市,静安区
B0LGHLTZ3T,浮光间Glow Space·玻璃·银饰DIY工作室,体育休闲服务;休闲场所;休闲场所,080500,中山西路725号,121.411830,31.218623,15026905199,4.4,102.00,体育休闲,上海市,上海市,长宁区
B0LDR4401I,ChirpChirp手作,体育休闲服务;休闲场所;休闲场所,080500,华山路748-2,121.439387,31.214794,,4.2,50.00,体育休闲,上海市,上海市,静安区
B0FFKP5VO0,世博·航伽水上运动基地,体育休闲服务;休闲场所;水上活动中心,080505,三林镇耀龙路1500号上海惠灵顿外籍人员子女学校东北4门,121.475002,31.149789,17301703080,4.3,131.00,体育休闲,上海市,上海市,浦东新区
B0LR39FMJ8,Ayang手作铺,体育休闲服务;休闲场所;休闲场所,080500,茂名北路88号,121.460590,31.225346,19535899778,4.4,68.00,体育休闲,上海市,上海市,静安区
B0K2OU86UD,阿嬷手作(上海荟聚中心店),体育休闲服务;休闲场所;休闲场所|餐饮服务;冷饮店;冷饮店,080500|050700,金钟路788号荟聚L1层01B01号1(近商场3号口),121.355761,31.221629,17317179667,4.5,29.00,体育休闲,上海市,上海市,长宁区
B0JGJ960QN,指向轻艇会(古美公园店),体育休闲服务;休闲场所;休闲场所,080500,顾戴路与合川路交叉口东北240米,121.393260,31.141976,13524401775,4.1,129.00,体育休闲,上海市,上海市,闵行区
B0L697QCH3,bb boom亲子协作游戏·聚会·亲子·团建(徐家汇店),体育休闲服务;休闲场所;游乐场,080501,TPY中心4楼L3-03-06,121.439167,31.193012,18221864629,4.3,191.00,体育休闲,上海市,上海市,徐汇区
B0JGA9FJ1O,恐怖病院(M2香港名都店),体育休闲服务;休闲场所;游乐场,080501,香港名都三层x先生旁,121.489719,31.222444,18217512138,4.5,115.00,体育休闲,上海市,上海市,黄浦区
B0LR07O0OM,魔大星爆笑亲子魔术秀(静安店),体育休闲服务;休闲场所;休闲场所,080500,山海关路388号博华广场F2层(自然博物馆地铁站2号口旁),121.462023,31.235738,,4.2,193.00,体育休闲,上海市,上海市,静安区
B0L1YREV23,爪爪喵星球(徐汇日月光店),体育休闲服务;休闲场所;休闲场所|体育休闲服务;娱乐场所;娱乐场所,080500|080300,漕宝路33号徐汇日月光中心L2层L2-32,121.432779,31.169090,,4.2,92.00,体育休闲,上海市,上海市,徐汇区
B0LALLILAD,玩个毛线·Tufting手作坊(徐汇店),体育休闲服务;休闲场所;休闲场所,080500,田林街道宜山路515号环线广场,121.426075,31.180175,,4.2,197.00,体育休闲,上海市,上海市,徐汇区
B0K2OUYFR0,汤姆熊欢乐世界(上海宜家荟聚店),体育休闲服务;休闲场所;游乐场,080501,金钟路788号上海荟聚L3层03A02,121.357301,31.221736,021-62272318,4.2,73.00,体育休闲,上海市,上海市,长宁区
B0K6FCPIJU,恰好·银饰·Tufting·团建DIY(巨鹿路店),体育休闲服务;休闲场所;休闲场所,080500,巨鹿路741号一楼南2室(从739弄进来黑色门右转),121.452439,31.220386,18317115770,4.2,[],体育休闲,上海市,上海市,静安区
B0JK6C67TK,昆仑汇,体育休闲服务;娱乐场所;KTV|公司企业;公司;公司|体育休闲服务;休闲场所;休闲场所|购物服务;购物相关场所;购物相关场所|生活服务;生活服务场所;生活服务场所|商务住宅;商务住宅相关;商务住宅相关,080302|170200|080500|060000|070000|120000,长寿路432号V6时尚广场F4层(长寿路地铁站7号口旁),121.437413,31.239902,021-60749720,4.5,396.00,体育休闲,上海市,上海市,普陀区
B0LBN1STLW,心转手作所首饰DIY珠宝定制,体育休闲服务;休闲场所;休闲场所,080500,长乐路1131号临街,121.443175,31.215175,,4.3,201.00,体育休闲,上海市,上海市,徐汇区
B0FFFSXSSQ,汤姆熊欢乐世界(上海龙之梦店),体育休闲服务;休闲场所;游乐场,080501,长宁路1018号龙之梦购物中心6楼(中山公园地铁站出入口旁),121.416611,31.219049,021-61157562,4.2,86.00,体育休闲,上海市,上海市,长宁区
B0KK7XGH2D,如一工社(团建DIY银饰陶艺Tufting烧玻璃),体育休闲服务;休闲场所;休闲场所,080500,恒基名人购物中心4楼L411室,121.484070,31.237810,13225375377,4.4,116.00,体育休闲,上海市,上海市,黄浦区
B0KUK6XFA7,环球大冒险(上海悦荟广场店),体育休闲服务;休闲场所;游乐场,080501,南京东路353号悦荟广场(南京东路地铁站3号口步行50米),121.483807,31.236637,,4.3,61.00,体育休闲,上海市,上海市,黄浦区
B0FFJCSH7C,丰尚跑跑车(虹桥南丰城北区),体育休闲服务;休闲场所;游乐场,080501,遵义路100号虹桥南丰城北区L2层,121.407538,31.207692,021-61138720,3.5,[],体育休闲,上海市,上海市,长宁区
B0J1UH6GNO,Nine o Nine(中山公园店),体育休闲服务;休闲场所;休闲场所,080500,万航渡路中山公园3号门内80米,121.415968,31.222975,15618691509,4.4,96.00,体育休闲,上海市,上海市,长宁区
B0K60H6G6L,1号卡丁(上海百联西郊店),体育休闲服务;休闲场所;游乐场,080501,仙霞西路88号百联西郊购物中心F3层,121.370578,31.209308,13544330162,3.9,115.00,体育休闲,上海市,上海市,长宁区
B0KUP40OYA,半马苏河公园二期儿童乐园,体育休闲服务;休闲场所;游乐场,080501,光复西路与真光路辅路交叉口西北40米,121.368085,31.225284,,4.4,17.00,体育休闲,上海市,上海市,普陀区
