id,name,type,typecode,address,lng,lat,tel,rating,cost,group,pname,cityname,adname
B0L6F1HH9C,栗汀予梦(静安大悦城南座店),购物服务;综合市场;果品市场,060704,西藏北路166号上海静安大悦城南座L5层,121.472302,31.243133,,4.3,[],购物菜场|文化地标|独处品质空间,上海市,上海市,静安区
B00156NXQH,石门二路社区文化活动中心,生活服务;生活服务场所;生活服务场所,070000,康定东路85号,121.456063,31.237330,021-52138886,[],[],生活服务|文化地标,上海市,上海市,静安区
B001544F54,老西门社区文化活动中心,科教文化服务;文化宫;文化宫,140800,中华路990号,121.491143,31.214290,021-63666144,[],[],生活服务|文化地标,上海市,上海市,黄浦区
B00156NVZG,上海自然博物馆,科教文化服务;博物馆;博物馆,140100,北京西路510号,121.462672,31.235021,021-62620116;021-68622000,4.8,[],文化地标|科技体验,上海市,上海市,静安区
B001535BBC,上海博物馆(人民广场馆),科教文化服务;博物馆;博物馆,140100,人民大道201号,121.475497,31.228234,021-63723500,4.7,[],文化地标,上海市,上海市,黄浦区
B00155L9WI,上海美术馆(中华艺术宫),科教文化服务;博物馆;博物馆,140100,上南路205号,121.494740,31.184338,021-20202010;021-20252018;4009219021,4.8,[],文化地标|独处品质空间,上海市,上海市,浦东新区
B001575WDA,上海世博会博物馆,科教文化服务;博物馆;博物馆,140100,蒙自路818号(世博会博物馆地铁站2号口步行210米),121.482161,31.194391,021-23132818,4.8,[],文化地标,上海市,上海市,黄浦区
B00155F9RW,上海邮政博物馆,科教文化服务;博物馆;博物馆,140100,天潼路395号(天潼路地铁站3号口步行290米),121.484749,31.244286,,4.7,[],文化地标|风景名胜,上海市,上海市,虹口区
B0FFI2885X,上海市历史博物馆,科教文化服务;博物馆;博物馆,140100,南京西路325号(人民广场地铁站11号口步行200米),121.470891,31.230594,021-23299999,4.7,[],文化地标,上海市,上海市,黄浦区
B0FFK6SGQJ,闵行博物馆,科教文化服务;博物馆;博物馆,140100,新镇路1538号,121.359371,31.160636,021-64880567,4.7,[],文化地标,上海市,上海市,闵行区
B0JAXS5ONF,上海潜艇展览馆(中国航海博物馆黄浦分馆),科教文化服务;博物馆;博物馆,140100,龙华东路50弄1号,121.488654,31.194212,021-63338575,4.7,[],文化地标,上海市,上海市,黄浦区
B001575OGK,上海电影博物馆,科教文化服务;博物馆;博物馆,140100,漕溪北路595号A座(上海体育馆地铁站1号口步行450米),121.438473,31.186294,021-64268666,4.7,[],文化地标,上海市,上海市,徐汇区
B00154502C,上海儿童博物馆,科教文化服务;博物馆;博物馆,140100,宋园路61号,121.412937,31.193773,021-62783130,4.6,[],文化地标,上海市,上海市,长宁区
B0FFK2KA0K,中国证券博物馆,科教文化服务;博物馆;博物馆,140100,黄浦路15号,121.490941,31.244246,021-63246332,4.7,[],文化地标|风景名胜,上海市,上海市,虹口区
B00154DR4O,上海航宇科普中心,科教文化服务;博物馆;博物馆,140100,沪闵路7900号,121.406043,31.136452,021-64806759;021-54809490,4.7,[],文化地标|科技体验,上海市,上海市,闵行区
B0FFIW090Q,国际乒联博物馆,科教文化服务;博物馆;博物馆,140100,局门路796号,121.481237,31.193284,021-65506650,4.7,[],文化地标,上海市,上海市,黄浦区
B00156EGYU,钱学森图书馆,科教文化服务;博物馆;博物馆,140100,华山路1800号,121.435504,31.201055,021-62932068,4.6,[],文化地标|风景名胜|科技体验,上海市,上海市,徐汇区
B0I1VSUTMI,苏州河工业文明展示馆,科教文化服务;博物馆;博物馆,140100,光复西路2690号,121.379427,31.220673,021-52675556,4.5,[],文化地标,上海市,上海市,普陀区
B00156EJCZ,上海消防博物馆,科教文化服务;博物馆;博物馆,140100,中山西路229号,121.411362,31.218170,021-28955295;021-28955751,4.5,[],文化地标,上海市,上海市,长宁区
B00156F5K7,上海艺术品博物馆,科教文化服务;博物馆;博物馆,140100,延安西路1731号(延安西路地铁站1号口步行360米),121.41459,31.210917,021-52067259,4.1,[],文化地标,上海市,上海市,长宁区
B00155HO84,中国科学院上海昆虫博物馆,科教文化服务;博物馆;博物馆,140100,枫林路300号,121.455224,31.193578,021-54924201;021-54924191,4.4,[],文化地标,上海市,上海市,徐汇区
B00155LL5X,上海工艺美术博物馆,科教文化服务;博物馆;博物馆,140100,汾阳路79号,121.454495,31.210087,021-64314074;021-64372509,4.4,[],文化地标|风景名胜,上海市,上海市,徐汇区
B0I6DAMLLO,巧克力博物馆,科教文化服务;博物馆;博物馆,140100,豫园旧校场路69号YB1-102,121.490857,31.226746,18989483533;4007161577,4.5,[],文化地标,上海市,上海市,黄浦区
B0I0NM6P0T,上海气象博物馆,科教文化服务;博物馆;博物馆,140100,蒲西路166号(徐家汇地铁站出入口步行150米),121.436219,31.190156,021-64389338,4.3,[],文化地标,上海市,上海市,徐汇区
B00155QL13,上海琉璃艺术博物馆,科教文化服务;博物馆;博物馆,140100,泰康路25号,121.470292,31.207795,021-64672268,4.3,[],文化地标,上海市,上海市,黄浦区
B0KRXMYJCQ,中国音数协游戏博物馆,科教文化服务;博物馆;博物馆,140100,桂箐路65号新研大厦B座3层,121.404865,31.172699,021-60197682;18621269625,4.6,[],文化地标,上海市,上海市,徐汇区
B0HRMZI3IU,上海体育博物馆,科教文化服务;博物馆;博物馆,140100,南京西路150号(人民广场地铁站10号口步行170米),121.471965,31.233853,021-63275330,4.3,[],文化地标,上海市,上海市,黄浦区
B00155QHTA,上海土山湾博物馆,科教文化服务;博物馆;博物馆,140100,蒲汇塘路55号,121.435149,31.186616,021-54249688;021-54249968,4.2,[],文化地标,上海市,上海市,徐汇区
B00155LW7J,张乐平故居,科教文化服务;博物馆;博物馆,140100,五原路288弄3号,121.443329,31.212563,021-64183811,4.2,[],文化地标|风景名胜,上海市,上海市,徐汇区
B0FFGLW6WA,上海市银行博物馆,科教文化服务;博物馆;博物馆,140100,复兴中路301号(一大会址·新天地地铁站2号口步行90米),121.476332,31.216427,,4.2,[],文化地标,上海市,上海市,黄浦区
B00157GBT6,上海凝聚力工程博物馆,科教文化服务;博物馆;博物馆,140100,长宁路878号(中山公园地铁站7号口步行120米),121.419438,31.220264,021-63807780,4.2,[],文化地标,上海市,上海市,长宁区
B0FFILVJD4,上海音乐学院东方乐器博物馆,科教文化服务;博物馆;博物馆,140100,淮海中路1189号(常熟路地铁站2号口步行150米),121.453317,31.214011,,4.2,[],文化地标,上海市,上海市,徐汇区
B00155QGZS,上海电信博物馆,科教文化服务;博物馆;博物馆,140100,延安东路34号,121.490800,31.233330,021-33311122,4.2,[],文化地标,上海市,上海市,黄浦区
B0015211AD,中国蓝印花布馆,科教文化服务;展览馆;展览馆|科教文化服务;博物馆;博物馆,140200|140100,长乐路637弄1-24号(近华亭路),121.450339,31.216682,021-54037947,4.3,[],文化地标|科技体验,上海市,上海市,徐汇区
B0HRCULYRO,宋庆龄生平事迹陈列馆,科教文化服务;博物馆;博物馆,140100,宋园路21号,121.410522,31.195022,021-62754034;021-62758080,4.4,[],文化地标,上海市,上海市,长宁区
B0G2AODU45,URBANCROSS Gallery城市交集,科教文化服务;展览馆;展览馆|科教文化服务;博物馆;博物馆,140200|140100,淮海中路1846号(交通大学地铁站7号口步行420米),121.438336,31.204323,,4.2,[],文化地标|科技体验,上海市,上海市,徐汇区
B0L1LCF4SP,中国乳业博物馆,科教文化服务;博物馆;博物馆,140100,万源路2729号,121.384588,31.178455,,4.2,[],文化地标,上海市,上海市,闵行区
B00154QFXR,中国劳动组合书记部旧址陈列馆,科教文化服务;博物馆;博物馆,140100,成都北路893弄1-11号,121.464112,31.237878,021-62157732,4.4,[],文化地标,上海市,上海市,静安区
B0FFIKGIEI,上海无线电博物馆,科教文化服务;博物馆;博物馆,140100,田林路200号B幢1层,121.406938,31.170048,021-54650828,4.1,[],文化地标,上海市,上海市,徐汇区
B00156YO69,上海博物馆文物保护科技中心,科教文化服务;博物馆;博物馆,140100,龙吴路1114-1118号,121.451251,31.144859,,4.2,[],文化地标|风景名胜,上海市,上海市,徐汇区
B00155LY0A,上海交通大学董浩云航运博物馆,科教文化服务;博物馆;博物馆,140100,华山路1954号,121.435326,31.200222,021-62932363;021-62932403,4.0,[],文化地标,上海市,上海市,徐汇区
B0FFJOPOSK,上海棋牌文化博物馆,科教文化服务;博物馆;博物馆,140100,南京西路595号上海棋院大楼一楼,121.465505,31.230405,15216840494,4.0,[],文化地标,上海市,上海市,静安区
B00155LAZP,上海纺织服饰博物馆,科教文化服务;博物馆;博物馆,140100,延安西路1882号,121.413704,31.202922,021-62373509;021-62373919,4.0,[],文化地标,上海市,上海市,长宁区
B0LGGL439B,上海工业博物馆,科教文化服务;博物馆;博物馆,140100,龙华东路与经六路交叉口南160米,121.489176,31.194750,,4.0,[],文化地标,上海市,上海市,黄浦区
B00155KKMB,上海笔墨博物馆,科教文化服务;博物馆;博物馆,140100,福州路429号,121.482418,31.233625,021-63281558,3.9,[],文化地标,上海市,上海市,黄浦区
B0FFL0081S,上海观止矿晶博物馆(阿拉城),科教文化服务;博物馆;博物馆,140100,先锋街66号阿拉城3号楼1-2层,121.373164,31.177494,13918201425,4.0,[],文化地标,上海市,上海市,闵行区
B0FFLKISQJ,中国慰安妇历史博物馆,科教文化服务;博物馆;博物馆,140100,桂林路81号上海师范大学文苑楼,121.421218,31.162520,,4.0,[],文化地标,上海市,上海市,徐汇区
B0G3JB33FE,上海印刷字体展示馆,科教文化服务;博物馆;博物馆,140100,新闸路1209弄60号,121.452970,31.232252,021-62713292,3.9,[],文化地标,上海市,上海市,静安区
B00152FE4B,上海翰林匾额博物馆,科教文化服务;博物馆;博物馆,140100,虹许路731号8号楼1层,121.388532,31.190801,021-59231428,3.8,[],文化地标,上海市,上海市,闵行区
B0FFF46DD8,上海电影广场海上五号棚,科教文化服务;博物馆;博物馆,140100,漕溪北路595号上海电影博物馆,121.438603,31.185917,021-64267777,4.2,133.00,文化地标,上海市,上海市,徐汇区
B0L3KLBXAV,地球文明博物馆,科教文化服务;博物馆;博物馆,140100,长宁路999号兆丰广场1F地球文明博物馆,121.418503,31.217650,18217290974,4.2,[],文化地标,上海市,上海市,长宁区
B0KUPM97YK,生境博物馆,科教文化服务;博物馆;博物馆,140100,协和路239弄新泾镇绿八居民区宁聚里(XIN邻驿家)4层,121.355380,31.212413,,3.8,[],文化地标,上海市,上海市,长宁区
B0FFKJZ4DH,草婴书房,科教文化服务;博物馆;博物馆,140100,乌鲁木齐南路178号3号楼(衡山路地铁站1号口步行420米),121.448870,31.203077,19946177295,4.0,[],文化地标|独处品质空间,上海市,上海市,徐汇区
B0K60A1SL9,上海制扇至美博物馆,科教文化服务;博物馆;博物馆,140100,文昌路56号,121.492230,31.225662,13052327818;18017720389,3.9,[],文化地标,上海市,上海市,黄浦区
B0L0XSKCL7,童涵春堂中药博物馆,科教文化服务;博物馆;博物馆,140100,豫园新路20号(豫园地铁站7号口步行360米),121.491013,31.227045,,3.7,[],文化地标,上海市,上海市,黄浦区
B001556XTO,上海革命历史博物馆筹备处,科教文化服务;博物馆;博物馆,140100,太仓路181弄1-25号上海新天地北里,121.475484,31.220129,,3.9,[],文化地标,上海市,上海市,黄浦区
B0IGZDYZPW,上海植物园盆景博物馆,科教文化服务;博物馆;博物馆,140100,上海植物园,121.445177,31.148115,,3.6,[],文化地标,上海市,上海市,徐汇区
B0J0BZJSGY,上海科技金融博物馆,科教文化服务;博物馆;博物馆,140100,云岭东路586号,121.384429,31.224421,021-62080221,3.8,[],文化地标,上海市,上海市,普陀区
B0FFF49RY5,上海市黄浦区黄金珠宝博物馆,科教文化服务;博物馆;博物馆,140100,丽水路58号(豫园地铁站7号口步行200米),121.490336,31.228589,,3.7,[],文化地标,上海市,上海市,黄浦区
B0I1YA6RDV,上海对外经贸大学博物馆,科教文化服务;博物馆;博物馆,140100,古北路620号上海对外经贸大学古北校区综合楼,121.399444,31.207874,,3.6,[],文化地标,上海市,上海市,长宁区
B0G1RR0ME5,上海师范大学博物馆,科教文化服务;博物馆;博物馆,140100,桂林路81号艺苑楼1层,121.421103,31.160456,,3.8,[],文化地标,上海市,上海市,徐汇区
B0JDFMWT99,上海广播博物馆,科教文化服务;博物馆;博物馆,140100,虹桥路1376号,121.407494,31.196568,,3.6,[],文化地标,上海市,上海市,长宁区
B0FFIQZGDT,华东师范大学历史文物博物馆和古钱币博物馆,科教文化服务;博物馆;博物馆,140100,中山北路3663号图书馆10层,121.406677,31.228450,021-62233800,3.6,[],文化地标,上海市,上海市,普陀区
B0KGGRZ3QS,上海恋爱博物馆,科教文化服务;博物馆;博物馆,140100,南京路步行街800号C馆8楼,121.475285,31.235629,,3.7,[],文化地标,上海市,上海市,黄浦区
B0LR0HMRKM,虹·1286展厅,科教文化服务;博物馆;博物馆,140100,虹桥路1286号(宋园路地铁站2号口旁),121.412747,31.195800,,4.0,[],文化地标,上海市,上海市,长宁区
B0L0G94Z5L,上海工业博物馆,科教文化服务;博物馆;博物馆,140100,四川中路与元芳弄交叉口西40米,121.488643,31.234590,,3.6,[],文化地标,上海市,上海市,黄浦区
B00155FUUU,上海工艺美术博物馆办公室,科教文化服务;博物馆;博物馆,140100,汾阳路79号上海市工艺美术博物馆2层,121.454475,31.210075,021-64314074;021-64372509,3.7,[],文化地标,上海市,上海市,徐汇区
B0M6XUQAOQ,中超百年利永紫砂博物馆,科教文化服务;博物馆;博物馆,140100,钦州路与康健路交叉口南120米,121.431275,31.164575,,3.2,[],文化地标,上海市,上海市,徐汇区
B0M65RJW8J,神奇动物博物馆,科教文化服务;博物馆;博物馆,140100,鑫耀·光环2期2楼S5-L2-01,121.415198,31.166622,,3.4,[],文化地标,上海市,上海市,徐汇区
B0LKNLRB45,摩登博物馆,科教文化服务;博物馆;博物馆,140100,南京西路1601号芮欧百货(静安寺地铁站4号口旁),121.447475,31.223275,,3.5,[],文化地标,上海市,上海市,静安区
B0KAYU215P,之白露嗅觉博物馆,科教文化服务;博物馆;博物馆,140100,武夷路153弄6号(1923小洋房),121.427824,31.214620,13817168737,3.6,[],文化地标,上海市,上海市,长宁区
B00155FUUV,上海市工艺美术博物馆-多功能厅,科教文化服务;博物馆;博物馆,140100,汾阳路79号上海市工艺美术博物馆,121.454495,31.210363,,3.5,[],文化地标,上海市,上海市,徐汇区
B0H35Z1VWE,营业执照博物馆,科教文化服务;博物馆;博物馆,140100,上海宜山路700号上海普天信息产业园B2栋25层,121.417547,31.176162,,3.5,[],文化地标,上海市,上海市,徐汇区
B0IUFAXB5E,西班牙伊比利亚火腿博物馆,科教文化服务;博物馆;博物馆,140100,延安西路与安西路交叉口东120米,121.427725,31.209825,,2.6,[],文化地标,上海市,上海市,长宁区
B00155GP5J,依东外国原创美术博物馆(长宁路),科教文化服务;博物馆;博物馆,140100,长宁路780号中山公园(中山公园地铁站7号口步行260米),121.420322,31.220946,,3.1,[],文化地标,上海市,上海市,长宁区
B0M61AGS2T,一口博物馆,科教文化服务;博物馆;博物馆,140100,瑞金一路与长乐路交叉口东南40米(淮海中路地铁站3号口旁),121.463721,31.221034,,2.9,[],文化地标,上海市,上海市,黄浦区
B0FFLHN34V,上海迪迪画廊艺术空间,科教文化服务;博物馆;博物馆,140100,龙吴路1717-97号,121.451415,31.133566,13370051988,3.2,[],文化地标,上海市,上海市,徐汇区
B0LRVZJTAR,西班牙伊比利亚火腿博物馆(5J店),科教文化服务;博物馆;博物馆,140100,金钟路与福泉路交叉口东120米,121.359775,31.220075,,2.8,[],文化地标,上海市,上海市,长宁区
B0FFFPO2Z2,依东原创美术博物馆,科教文化服务;博物馆;博物馆,140100,万航渡路1560-4临附近,121.415212,31.223430,,3.2,[],文化地标,上海市,上海市,长宁区
B0FFGM9YDM,山丘茶餐厅(龙之梦长宁店),餐饮服务;快餐厅;茶餐厅|科教文化服务;博物馆;博物馆,050305|140100,长宁路1018号龙之梦购物中心L8层8145-8157,121.417193,31.219598,,3.3,88.00,文化地标,上海市,上海市,长宁区
B0015118DB,上海公安博物馆(暂停开放),科教文化服务;博物馆;博物馆,140100,瑞金南路518号,121.468314,31.198348,021-22025185;021-64720256,4.7,[],文化地标,上海市,上海市,徐汇区
B0FFFSROMM,上海地铁博物馆(暂停开放),科教文化服务;博物馆;博物馆,140100,吴中路1779号(紫藤路地铁站2号口步行210米),121.366446,31.169686,021-60717958;021-60717968,4.4,[],文化地标,上海市,上海市,闵行区
B0KG4NCG5C,Paradox Museum悖论博物馆(暂停开放),科教文化服务;博物馆;博物馆,140100,瑞金二路街道淮海中路688号华狮广场B1层,121.465282,31.219777,,4.3,[],文化地标,上海市,上海市,黄浦区
B00155E2PL,上海蔡元培故居陈列馆,科教文化服务;博物馆;博物馆,140100,华山路303弄16号(静安寺地铁站12号口步行310米),121.447808,31.218916,021-62484996,4.0,[],文化地标|风景名胜,上海市,上海市,静安区
B00156NV3G,中共淞浦特委机关旧址陈列馆,科教文化服务;博物馆;博物馆|风景名胜;风景名胜;风景名胜,140100|110200,山海关路339号(自然博物馆地铁站1号口步行230米),121.463593,31.235919,021-62094660,4.2,[],文化地标|风景名胜,上海市,上海市,静安区
B0FFIBLIHR,西王花园弄堂博物馆,科教文化服务;博物馆;博物馆,140100,石门二路街道石门二路街道石门二路街道石门二路街道奉贤路68弄西王小区,121.461396,31.231857,,3.9,[],文化地标|风景名胜,上海市,上海市,静安区
B001570ML5,上海交通大学校史博物馆,科教文化服务;博物馆;博物馆,140100,华山路1954号(徐家汇地铁站16号口步行450米),121.435896,31.198877,021-62933035,3.9,[],文化地标,上海市,上海市,徐汇区
B0JU2759YL,殡葬博物馆(装修中),科教文化服务;博物馆;博物馆,140100,龙华殡仪馆综合楼5层(漕宝路地铁站2号口步行420米),121.434177,31.172081,,4.0,[],文化地标,上海市,上海市,徐汇区
B0G0PZCD0M,上海博物馆中国古代陶瓷馆(暂停开放),科教文化服务;博物馆;博物馆,140100,上海博物馆2层(人民广场地铁站1号口步行260米),121.475697,31.228303,021-63723500,3.6,[],文化地标,上海市,上海市,黄浦区
B001542F38,上海展览中心,科教文化服务;展览馆;展览馆,140200,延安中路1000号(静安寺地铁站8号口步行340米),121.452760,31.224701,021-22162216,4.9,[],文化地标|科技体验,上海市,上海市,静安区
B0K1LLB089,GM巨人展,科教文化服务;展览馆;展览馆,140200,淮海中路HAUS NOWHERE门店2层,121.462771,31.218518,,4.9,[],文化地标|科技体验,上海市,上海市,黄浦区
B00156E4HB,东浩兰生上海世博展览馆,科教文化服务;展览馆;展览馆,140200,上海市上钢新村街道国展路1099号上海世博展览馆内,121.489956,31.182650,021-20225188;021-20893555;021-20893600,4.8,[],文化地标|科技体验,上海市,上海市,浦东新区
B0LUZ7YXUM,LV路易威登非凡之旅,科教文化服务;展览馆;展览馆,140200,南京西路789号兴业太古汇N129(南京西路地铁站5号口旁),121.462262,31.229963,4006588555,4.8,[],文化地标|科技体验,上海市,上海市,静安区
B001546728,上海城市规划展示馆,科教文化服务;展览馆;展览馆,140200,人民大道100号,121.475551,31.231444,021-63184477,4.8,[],文化地标|科技体验,上海市,上海市,黄浦区
B00156F687,上海跨国采购会展中心,科教文化服务;会展中心;会展中心|科教文化服务;展览馆;展览馆,140300|140200,光复西路2739号,121.392164,31.221351,021-60290070,4.4,[],文化地标|科技体验,上海市,上海市,普陀区
B0015358EB,上海世贸展馆,科教文化服务;展览馆;展览馆,140200,兴义路99号(红宝石路地铁站4号口步行490米),121.400624,31.202270,021-62366888,4.7,[],文化地标|科技体验,上海市,上海市,长宁区
B0LU7SXO0F,路易威登非凡之旅展览,科教文化服务;展览馆;展览馆,140200,南京西路789号兴业太古汇N129(南京西路地铁站5号口旁),121.462334,31.229976,4006588555,4.8,[],文化地标|科技体验,上海市,上海市,静安区
B0FFI0Z6U1,八号桥艺术空间,科教文化服务;展览馆;展览馆,140200,上海市南京东路街道南苏州路1247号2楼,121.466472,31.240041,13482723131,4.6,[],文化地标|科技体验,上海市,上海市,黄浦区
B0015513HA,上海杜莎夫人蜡像馆,科教文化服务;展览馆;展览馆,140200,南京西路2-68号新世界城L10层,121.473346,31.234660,4000988966,4.7,[],文化地标|科技体验,上海市,上海市,黄浦区
B0GKX1HH5Z,虹桥古玩花卉城,购物服务;花鸟鱼虫市场;花卉市场|购物服务;专卖店;古玩字画店|科教文化服务;展览馆;展览馆,060501|061201|140200,金汇路528号,121.374891,31.182261,13816643545;13916000328,4.7,[],文化地标|科技体验,上海市,上海市,闵行区
B0K2OC4JMY,东浩兰生上海世博展览馆H1馆,科教文化服务;展览馆;展览馆,140200,国展路1099号(中华艺术宫地铁站3号口步行440米),121.489949,31.182351,021-20893600,4.6,[],文化地标|科技体验,上海市,上海市,浦东新区
B0FFLF8U4V,上海工匠馆,科教文化服务;展览馆;展览馆,140200,北海路上海市工人文化宫(人民广场地铁站1号口步行220米),121.477846,31.230437,021-63520361,4.6,[],文化地标|科技体验,上海市,上海市,黄浦区
B00155KH6J,上海农业展览馆,科教文化服务;展览馆;展览馆,140200,虹桥路2268号,121.375905,31.191305,021-62376448,4.6,[],文化地标|科技体验,上海市,上海市,长宁区
B0FFK5UAUI,上海展览中心友谊会堂,科教文化服务;展览馆;展览馆,140200,延安中路1000号上海展览中心,121.452263,31.225743,,4.5,[],文化地标|科技体验,上海市,上海市,静安区
B0FFK9GV63,沪港银行历史展览馆,科教文化服务;展览馆;展览馆,140200,四川中路299号(近九江路口),121.488130,31.237207,021-23273670,4.4,[],文化地标|科技体验,上海市,上海市,黄浦区
B0HDC7L861,百空间香港路,科教文化服务;展览馆;展览馆,140200,香港路117号,121.485570,31.242348,15021604371,4.4,[],文化地标|科技体验,上海市,上海市,黄浦区
B00155HPYW,百空间卜内门洋行,科教文化服务;展览馆;展览馆,140200,四川中路133号,121.488900,31.234667,021-33359295,4.5,[],文化地标|科技体验,上海市,上海市,黄浦区
B0G297R27E,贝浩登PERROTIN,科教文化服务;展览馆;展览馆,140200,虎丘路27号3层(南京东路地铁站6号口步行430米),121.487049,31.241267,021-63211234,4.3,[],文化地标|科技体验,上海市,上海市,黄浦区
B0FFHUJR0I,上海钟表文化科普馆,科教文化服务;展览馆;展览馆,140200,中山南二路520号,121.460699,31.189354,021-54106727,4.3,[],文化地标|科技体验,上海市,上海市,徐汇区
B0FFFEEHZT,上海世博展览馆4号馆,科教文化服务;展览馆;展览馆,140200,国展路1099号B1层,121.489804,31.182296,021-20893600,4.5,[],文化地标|科技体验,上海市,上海市,浦东新区
B0FFKWQ77V,阿尔敏·莱希(Almine Rech)画廊,科教文化服务;展览馆;展览馆,140200,虎丘路27号202(南京东路地铁站6号口步行440米),121.487241,31.241296,021-63120260,4.2,[],文化地标|科技体验|独处品质空间,上海市,上海市,黄浦区
B00154DJ77,上海市长宁区革命文物陈列馆,科教文化服务;展览馆;展览馆,140200,愚园路1376弄34号,121.422985,31.219764,021-62511415,4.3,[],文化地标|科技体验,上海市,上海市,长宁区
B0I23HZ93O,愚见观池空间,科教文化服务;展览馆;展览馆,140200,愚园路1088弄48号C1(江苏路地铁站8号口步行350米),121.428228,31.219624,021-62269068,4.5,[],文化地标|科技体验,上海市,上海市,长宁区
B0LDACGJWQ,上海劳动模范风采馆,科教文化服务;展览馆;展览馆,140200,中山东一路14号,121.489956,31.237128,021-63613953,4.3,[],文化地标|科技体验,上海市,上海市,黄浦区
B00156O8V0,虹桥古玩城鲜花市场,购物服务;专卖店;古玩字画店|购物服务;花鸟鱼虫市场;花卉市场|科教文化服务;展览馆;展览馆,061201|060501|140200,金汇路528号B1层G101(近红松路),121.374888,31.181595,13916000328,4.2,[],文化地标|科技体验,上海市,上海市,闵行区
B0FFFRMPOF,上海展览中心西一馆W1,科教文化服务;展览馆;展览馆,140200,延安中路1000号上海展览中心,121.452857,31.223656,021-22162216,4.4,[],文化地标|科技体验,上海市,上海市,静安区
B0K2ASRTEJ,中国国家地理探索极致发现科学艺术影像展,科教文化服务;展览馆;展览馆,140200,苏河湾万象天地(天潼路地铁站5号口步行290米),121.479775,31.242925,,[],[],文化地标|科技体验,上海市,上海市,静安区
B0J30SA162,虹桥历史文化陈列馆,科教文化服务;展览馆;展览馆,140200,合川路3051号D幢1层,121.378503,31.180644,,4.3,[],文化地标|科技体验,上海市,上海市,闵行区
B0JDGMQVW8,大田秀则画廊,科教文化服务;展览馆;展览馆,140200,虎丘路78号1层QL106单元洛克·外滩源,121.487640,31.242228,021-33681321,4.3,[],文化地标|科技体验|独处品质空间,上海市,上海市,黄浦区
B0JUP5Z5TZ,上海蜂巢当代艺术中心,科教文化服务;展览馆;展览馆,140200,北京东路270号(南京东路地铁站6号口步行260米),121.484859,31.240650,,4.4,[],文化地标|科技体验,上海市,上海市,黄浦区
B0JUVLCR4L,零艺术馆红厅(LU·ONE凯德晶萃广场),科教文化服务;展览馆;展览馆|科教文化服务;美术馆;美术馆,140200|140400,徐家汇路268号LU·ONE凯德晶萃广场F2层02-24,121.477183,31.210337,021-63129126,4.0,[],文化地标|科技体验|独处品质空间,上海市,上海市,黄浦区
B0GKYHHXXS,宋庆龄文化空间,科教文化服务;展览馆;展览馆,140200,徐汇区五原路300号一层,121.442941,31.212088,,4.3,[],文化地标|科技体验,上海市,上海市,徐汇区
B0FFFK31RD,田子坊艺术中心,科教文化服务;展览馆;展览馆,140200,打浦桥街道泰康路210弄2号乙二楼(田子坊前行50米),121.469151,31.208221,,4.2,[],文化地标|科技体验,上海市,上海市,黄浦区
B0K1GHWVKK,BAPE Gallery(Gate M西岸梦中心),科教文化服务;展览馆;展览馆,140200,龙腾大道2266号Gate M西岸梦中心1F层,121.466079,31.161004,,[],[],文化地标|科技体验,上海市,上海市,徐汇区
B00156GLUU,国际饭店文史馆,科教文化服务;展览馆;展览馆,140200,南京西路170号国际饭店1层回廊,121.471630,31.233583,021-63580522,4.0,[],文化地标|科技体验,上海市,上海市,黄浦区
B0K2GBFZRX,上海苏河湾万象天地东里LG2展厅,科教文化服务;展览馆;展览馆,140200,苏河湾万象天地,121.479345,31.242604,,4.5,[],文化地标|科技体验,上海市,上海市,静安区
B0FFG0HQQ7,中国历史文化名街陕西北路展示咨询中心,科教文化服务;展览馆;展览馆,140200,陕西北路604号,121.451970,31.232548,,4.1,[],文化地标|科技体验,上海市,上海市,静安区
B0LGFOUNYG,中国艺术品收藏展览中心,科教文化服务;展览馆;展览馆,140200,凯旋路1020号(近延安西路),121.417316,31.207342,18017221976,4.3,[],文化地标|科技体验,上海市,上海市,长宁区
B0J15NV6YZ,馆空间(不存在艺术中心环球港店),科教文化服务;展览馆;展览馆|体育休闲服务;体育休闲服务场所;体育休闲服务场所,140200|080000,中山北路3300号上海月星环球港5层世界港口小镇(环球港B座瑞幸咖啡旁电梯五层直达),121.412574,31.232753,15394453214,3.9,[],文化地标|科技体验,上海市,上海市,普陀区
B0HBYUI8GK,YELLOWKORNER(兴业太古汇),科教文化服务;展览馆;展览馆,140200,石门一路288号兴业太古汇L2层,121.462616,31.229031,021-52556625,4.1,[],文化地标|科技体验,上海市,上海市,静安区
B00150A1D8,上海国际农展中心,科教文化服务;展览馆;展览馆,140200,虹桥路2268号,121.376143,31.191092,021-62376018;021-62376448,4.4,[],文化地标|科技体验,上海市,上海市,长宁区
B0FFGYMWE6,云艺术中心,科教文化服务;展览馆;展览馆,140200,宜山路407号喜盈门国际建材品牌中心3楼,121.429034,31.186403,021-54503282,3.3,[],文化地标|科技体验,上海市,上海市,徐汇区
B0MBFD551R,2025影像上海艺术博览会,科教文化服务;展览馆;展览馆,140200,西环道与延安中路交叉口北100米,121.452275,31.223875,,1.4,[],文化地标|科技体验,上海市,上海市,静安区
B00156R4Q0,瑞金医院院史陈列馆,科教文化服务;展览馆;展览馆,140200,瑞金二路197号瑞金医院16号楼,121.467487,31.212132,,4.3,[],文化地标|科技体验,上海市,上海市,黄浦区
B0M6M7VO38,第三届上海诺亚设计展,科教文化服务;展览馆;展览馆,140200,南京西路2号-88号新世界城,121.473588,31.235102,,3.7,[],文化地标|科技体验,上海市,上海市,黄浦区
B0G3LCJC09,嘉禧国际艺术中心(JIAXI),科教文化服务;展览馆;展览馆,140200,北京东路99号2楼L202室,121.488573,31.240572,,4.0,[],文化地标|科技体验,上海市,上海市,黄浦区
B0FFFSOXOI,上海展览中心东一馆E1,科教文化服务;展览馆;展览馆,140200,延安中路1000号上海展览中心,121.453777,31.224482,,4.3,[],文化地标|科技体验,上海市,上海市,静安区
B0FFHR43YG,Hi艺术中心hiart space,科教文化服务;展览馆;展览馆,140200,龙腾大道3398号龙美术馆西配楼,121.464729,31.184009,,3.4,[],文化地标|科技体验,上海市,上海市,徐汇区
B0FFG6APTL,上海展览中心-东二馆E2,科教文化服务;展览馆;展览馆,140200,延安中路1000号上海展览中心,121.453432,31.225356,021-22162216,4.3,[],文化地标|科技体验,上海市,上海市,静安区
B0FFGOE6K7,羊羊红木艺术馆(古北大成公馆店),购物服务;家居建材市场;建材五金市场|购物服务;家居建材市场;家具城|科教文化服务;展览馆;展览馆,060603|060602|140200,古北大成公馆东北门西60米,121.404813,31.188739,,4.3,[],文化地标|科技体验,上海市,上海市,闵行区
B00155HZDG,上海市工人文化宫展览中心,科教文化服务;展览馆;展览馆,140200,西藏中路120号上海市工人文化宫3层,121.477673,31.23051,,4.0,[],文化地标|科技体验,上海市,上海市,黄浦区
B00155LXAO,旌盛艺术馆,科教文化服务;展览馆;展览馆,140200,北苏州路20号,121.48964,31.244319,,4.1,[],文化地标|科技体验,上海市,上海市,虹口区
B0JRTZVWTO,XIN ART SPACE新艺空间,科教文化服务;展览馆;展览馆,140200,北京东路270号中一大楼2楼,121.484860,31.240669,,3.4,[],文化地标|科技体验,上海市,上海市,黄浦区
B00157GIDE,TOPS上海它博会-上海世博展览馆,科教文化服务;展览馆;展览馆,140200,国展路1099号上海世博展览馆内,121.489947,31.182657,,4.2,[],文化地标|科技体验,上海市,上海市,浦东新区
B0L04SX30Q,三生万序·非遗数字共生艺术展(前滩太古里店),科教文化服务;展览馆;展览馆,140200,浦东新区东育路500弄1-9号前滩太古里石区L1层S-L1-28 SPECTRUM堂砾,121.482809,31.152276,,4.0,[],文化地标|科技体验,上海市,上海市,浦东新区
B0I1UCZRBT,吴昌硕海派艺术空间,科教文化服务;展览馆;展览馆,140200,海文大楼4层,121.467308,31.244909,,3.6,[],文化地标|科技体验,上海市,上海市,静安区
B00157I2HF,马德里案例馆,科教文化服务;展览馆;展览馆,140200,南车站路600弄1号,121.494586,31.203332,,4.3,[],文化地标|科技体验,上海市,上海市,黄浦区
B0JK5Z3F0N,阆风艺术LEVANT ART,科教文化服务;展览馆;展览馆,140200,高青西路777号2层02-01单元,121.484462,31.150221,,4.1,[],文化地标|科技体验|独处品质空间,上海市,上海市,浦东新区
B00155KRWM,沪西革命史陈列馆,风景名胜;风景名胜;红色景区|科教文化服务;展览馆;展览馆,110210|140200,曹杨路520号(沪西工人文化宫内),121.420322,31.238477,021-62442218;021-62449799,4.2,[],文化地标|风景名胜|科技体验,上海市,上海市,普陀区
B0FFF2F7AH,上海展览中心-小黄楼,科教文化服务;展览馆;展览馆,140200,延安中路1000号,121.452071,31.225022,,3.9,[],文化地标|科技体验,上海市,上海市,静安区
B0K1JH3ADM,上海手表博物馆,科教文化服务;展览馆;展览馆,140200,南京西路591弄138号一楼前门,121.466107,31.228673,13641905778,4.2,[],文化地标|科技体验,上海市,上海市,静安区
B0H3J75KFM,复兴·雅(徐汇店),科教文化服务;展览馆;展览馆,140200,复兴中路118号B楼(老西门地铁站4号口步行290米),121.479975,31.218232,,4.3,[],文化地标|科技体验,上海市,上海市,黄浦区
B00157I13A,上海欧豪年艺术馆,科教文化服务;展览馆;展览馆,140200,宋园路32号,121.413715,31.194213,13621694669,3.9,[],文化地标|科技体验,上海市,上海市,长宁区
B0FFG8QL2X,上海展览中心-中央大厅,科教文化服务;展览馆;展览馆,140200,延安中路1000号上海展览中心附近,121.452516,31.224638,021-22162216,4.2,[],文化地标|科技体验,上海市,上海市,静安区
B0FFG8HOFS,上海世博展览馆制证中心,科教文化服务;展览馆;展览馆,140200,东浩兰生上海世博展览馆,121.490151,31.181233,,4.3,[],文化地标|科技体验,上海市,上海市,浦东新区
B00155L9RG,上海工人第三次武装起义发布命令地点,风景名胜;风景名胜;风景名胜|科教文化服务;展览馆;展览馆,110200|140200,自忠路361号(一大会址·新天地地铁站6号口步行290米),121.473885,31.218108,,3.8,[],文化地标|风景名胜|科技体验,上海市,上海市,黄浦区
B0KD5ZPRV0,IFS China上海国际紧固件展-上海世博展览馆,科教文化服务;展览馆;展览馆,140200,国展路1099号上海世博展览馆内,121.490477,31.181482,,4.0,[],文化地标|科技体验,上海市,上海市,浦东新区
B0LA6ZB7HP,中国共产党无线电密码通信工作诞生地历史陈列展,科教文化服务;展览馆;展览馆,140200,延安西路396-2号,121.437869,31.218424,,4.1,[],文化地标|科技体验,上海市,上海市,静安区
B0I3FHO38E,Art Labor,科教文化服务;展览馆;展览馆,140200,乌鲁木齐中路19弄2号,121.444583,31.216091,021-62456963,4.1,[],文化地标|科技体验,上海市,上海市,静安区
B0M6967HX9,爱马仕之家,科教文化服务;展览馆;展览馆,140200,瑞金一路与淮海中路交叉口北140米,121.464175,31.220075,,[],[],文化地标|科技体验,上海市,上海市,黄浦区
B0KRAMAIAG,北鱼艺术馆,科教文化服务;展览馆;展览馆,140200,南宁路710号,121.438069,31.161673,15694521282,3.9,[],文化地标|科技体验,上海市,上海市,徐汇区
B0L0LXBMU3,2025上海国际情趣生活及健康产业博览会(成人展),科教文化服务;展览馆;展览馆,140200,中江路与光复西路交叉口西北200米,121.392125,31.221375,,[],[],文化地标|科技体验,上海市,上海市,普陀区
B0I6JU38TF,积庆堂,风景名胜;风景名胜;风景名胜|科教文化服务;展览馆;展览馆,110200|140200,武康路372号,121.439612,31.206817,,4.1,[],文化地标|科技体验,上海市,上海市,徐汇区
B0JUPSV7I2,蜂巢·生成上海空间,科教文化服务;展览馆;展览馆|公司企业;公司;公司,140200|170200,北京东路211号(南京东路地铁站6号口步行250米),121.486027,31.240500,,4.4,[],文化地标|科技体验,上海市,上海市,黄浦区
B0FFFCOK3Y,沪上·生态家,科教文化服务;展览馆;展览馆,140200,南车站路600弄18号,121.493989,31.202975,,4.0,[],文化地标|科技体验,上海市,上海市,黄浦区
B0L26UFAO4,YUANLINK,科教文化服务;展览馆;展览馆,140200,茂名北路258号张园L1层,121.460450,31.227557,,3.9,[],文化地标|科技体验,上海市,上海市,静安区
B00156GM0V,上海体育博物馆陈列室,科教文化服务;展览馆;展览馆,140200,南京西路150号体育大厦2层(近国际饭店),121.471874,31.233828,,3.8,[],文化地标|科技体验,上海市,上海市,黄浦区
BY0001P5EQ,中华艺术宫下沉广场,科教文化服务;展览馆;展览馆,140200,上南路205号中华艺术宫,121.494725,31.184375,,3.3,[],文化地标|科技体验,上海市,上海市,浦东新区
B0FFK2NXZ4,弘越中国艺术收藏品展览中心,购物服务;家电电子卖场;数码电子|科教文化服务;展览馆;展览馆,060306|140200,凯旋路1020号静安寺锐欧百货大厦(近延安西路),121.417351,31.207234,18017221976,4.2,[],文化地标|科技体验,上海市,上海市,长宁区
B0L3MHK36A,2025可持续全球领导者大会,科教文化服务;展览馆;展览馆,140200,世博园区局门路689号,121.486627,31.194574,,[],[],文化地标|科技体验,上海市,上海市,黄浦区
B0JUKC45RK,上海星际之旅航天艺术展,科教文化服务;展览馆;展览馆,140200,南京东路830号第一百货商业中心A馆F4层,121.474810,31.235930,,3.9,[],文化地标|科技体验,上海市,上海市,黄浦区
B0FFJHVRI1,芊荷艺术空间,科教文化服务;展览馆;展览馆,140200,愚园路716号101室(江苏路地铁站2号口步行260米),121.435379,31.221089,021-52231736,4.1,[],文化地标|科技体验,上海市,上海市,长宁区
B0L2C5HC5Q,半马苏河艺术空间,科教文化服务;展览馆;展览馆,140200,云岭东路985弄2号楼,121.377646,31.224571,,4.2,[],文化地标|科技体验,上海市,上海市,普陀区
B0KBFRVY91,走进大秦展览馆(上海店),科教文化服务;展览馆;展览馆,140200,中山南一路788号博荟广场地下二层大米先生旁,121.479625,31.196685,,3.9,[],文化地标|科技体验,上海市,上海市,黄浦区
B0L2CMHH3O,CHERUBY HOUSE,科教文化服务;展览馆;展览馆,140200,长乐路758号,121.451252,31.217245,021-63539059,4.1,[],文化地标|科技体验,上海市,上海市,静安区
B00157469X,中国船舶馆(建设中),科教文化服务;展览馆;展览馆,140200,苗江路800号对面,121.493132,31.196067,18137757927,4.5,[],文化地标|科技体验,上海市,上海市,黄浦区
B0FFLH7D4C,华侨城当代艺术中心上海馆(暂停开放),科教文化服务;展览馆;展览馆,140200,曲阜路9弄B1层(曲阜路地铁站5号口步行350米),121.475708,31.242291,021-66085119;021-66085180,4.2,[],文化地标|科技体验,上海市,上海市,静安区
B0FFJDK5PK,Fiu Gallery(暂停开放),科教文化服务;展览馆;展览馆|购物服务;服装鞋帽皮具店;服装鞋帽皮具店,140200|061100,愚园路1175号,121.426550,31.218705,13620226435,4.3,[],文化地标|科技体验,上海市,上海市,长宁区
B0FFFWULBU,ALIGHT ROOM拉法耶文化艺术中心(暂停开放),科教文化服务;展览馆;展览馆,140200,复兴中路323号(一大会址·新天地地铁站2号口旁),121.476027,31.216404,021-63150965,4.6,[],文化地标|科技体验,上海市,上海市,黄浦区
B00155KK3J,上海国际展览中心(暂停开放),科教文化服务;展览馆;展览馆,140200,兴义路77号,121.403990,31.203167,021-62755800,4.4,[],文化地标|科技体验,上海市,上海市,长宁区
B00156F5DZ,上海意大利中心(暂停开放),科教文化服务;展览馆;展览馆,140200,世博大道2095号(近塘子泾路),121.475806,31.183757,15000905462,4.3,[],文化地标|科技体验,上海市,上海市,浦东新区
B0L2CSGVN7,WDCC2025世界设计之都大会(暂停开放),科教文化服务;展览馆;展览馆,140200,局门路689号,121.486501,31.194439,,4.6,[],文化地标|科技体验,上海市,上海市,黄浦区
B0H1U902G9,沪西工人半日学校史料陈列馆,科教文化服务;展览馆;展览馆,140200,西苏州路1037号(江宁路地铁站2号口步行370米),121.448356,31.243601,,4.3,[],文化地标|科技体验,上海市,上海市,普陀区
B0H12S90QQ,复兴颂,科教文化服务;展览馆;展览馆,140200,复兴中路118号(老西门地铁站4号口步行330米),121.479789,31.218060,,4.2,[],文化地标|科技体验,上海市,上海市,黄浦区
B001574RM5,国家电网馆(装修中),科教文化服务;展览馆;展览馆,140200,五里桥街道五里桥街道五里桥街道五里桥街道卢湾区浦西世博园D片区局门路,121.485488,31.195541,,4.4,[],文化地标|科技体验,上海市,上海市,黄浦区
B0I1VGUPBF,陈伯吹国际儿童文学奖原创插画展五周年特展,科教文化服务;展览馆;展览馆,140200,天钥桥路与龙华西路交叉口西北200米,121.446975,31.174275,,0.3,[],文化地标|科技体验,上海市,上海市,徐汇区
B0FFG94UUJ,源臻艺术馆,科教文化服务;展览馆;展览馆,140200,剑河路679号,121.369689,31.204275,13818415968,4.3,[],文化地标|科技体验,上海市,上海市,长宁区
B0FFHLMGDW,军史陈列馆,风景名胜;风景名胜;纪念馆|科教文化服务;展览馆;展览馆,110204|140200,常德路与新闸路交叉口南100米,121.446240,31.228563,,4.1,[],文化地标|风景名胜|科技体验,上海市,上海市,静安区
B00156NVHT,国宝鲁庵印泥制作技艺传习所,科教文化服务;培训机构;培训机构|科教文化服务;展览馆;展览馆,141400|140200,石门一路11-15、15之1-2,121.463024,31.224295,,3.4,[],文化地标|科技体验,上海市,上海市,静安区
B0FFGJ9EF8,金城艺术画廊,科教文化服务;展览馆;展览馆,140200,文定路218号C栋C127承接大型壁画酒店家居配画个性化私人定制,121.431353,31.186146,18317032098,3.9,[],文化地标|科技体验|独处品质空间,上海市,上海市,徐汇区
B0JKL75SK7,上海涌禄·极合展厅,科教文化服务;展览馆;展览馆,140200,文定路258号,121.430795,31.185245,15618631949,4.1,[],文化地标|科技体验,上海市,上海市,徐汇区
B0JRC5C1YJ,太空漫步航天艺术展,科教文化服务;展览馆;展览馆,140200,南京东路830号第一百货商业中心A馆F4层,121.474772,31.235955,,2.9,[],文化地标|科技体验,上海市,上海市,黄浦区
B0LUXZL6XM,进博市集Expo.club,科教文化服务;展览馆;展览馆,140200,上海环球港五楼L549-550,121.412908,31.232877,,4.0,[],文化地标|科技体验,上海市,上海市,普陀区
B0KRYU1PZP,国家地理百年魅力·天生出彩经典影像大展上海站,科教文化服务;展览馆;展览馆,140200,淮海中路939号巴黎春天6楼(陕西南路地铁站1号口旁),121.459594,31.216210,13559234131,3.7,[],文化地标|科技体验,上海市,上海市,黄浦区
B0H27SV5OF,新泾镇民间文化艺术展示馆(装修中),科教文化服务;展览馆;展览馆,140200,哈密路1358号2层,121.367091,31.200731,021-33030665;021-62393670,3.9,[],文化地标|科技体验,上海市,上海市,长宁区
B0LKSCIY41,外滩建筑与金融展示馆,科教文化服务;展览馆;展览馆,140200,广学大楼西门旁,121.487675,31.242975,,3.2,[],文化地标|科技体验,上海市,上海市,黄浦区
B0FFFPW3G3,IN ART WE LIVE(上海k11购物艺术中心),科教文化服务;展览馆;展览馆,140200,淮海中路300号上海k11购物艺术中心B1层,121.473577,31.223445,,3.2,[],文化地标|科技体验,上海市,上海市,黄浦区
B0FFKSLQOC,上海展览中心·展览馆,科教文化服务;展览馆;展览馆,140200,延安中路1000号,121.451975,31.224675,,4.2,[],文化地标|科技体验,上海市,上海市,静安区
B0L35SDW0X,再现大师-世界名画感映艺术大展,科教文化服务;展览馆;展览馆,140200,南京东路第一人民百货C馆8F,121.475294,31.235488,17717865847,[],[],文化地标|科技体验,上海市,上海市,黄浦区
B0IU9DU64U,Dest Gallery,科教文化服务;展览馆;展览馆,140200,陕西北路808号陕康里8号楼,121.450086,31.235071,,3.6,[],文化地标|科技体验,上海市,上海市,静安区
B0L0JXGG48,路易·艾黎微展厅,科教文化服务;展览馆;展览馆,140200,愚园路与安西路交叉口西120米,121.424226,31.218797,,3.3,[],文化地标|科技体验,上海市,上海市,长宁区
B0KUR99VG4,鎏婳书香文化展厅,科教文化服务;展览馆;展览馆,140200,九江路501号一楼112室(南京东路地铁站4号口步行60米),121.482057,31.235527,15555549962,2.9,[],文化地标|科技体验,上海市,上海市,黄浦区
B00155R14H,中国省区市联合馆,科教文化服务;展览馆;展览馆,140200,上南路205号上海美术馆(中华艺术宫),121.494780,31.184657,,3.2,[],文化地标|科技体验,上海市,上海市,浦东新区
B0FFJ0AN17,上海婚姻文化展示馆,科教文化服务;展览馆;展览馆,140200,曹杨路510号(曹杨路地铁站2号口步行190米),121.418614,31.237587,,3.5,[],文化地标|科技体验,上海市,上海市,普陀区
B00155G8QE,上海市房地资源展示厅,科教文化服务;展览馆;展览馆,140200,北京西路95号房地大厦(新闸路地铁站6号口步行330米),121.471294,31.236363,,3.1,[],文化地标|科技体验,上海市,上海市,黄浦区
B00154016D,汉光陶瓷艺术馆(上海旅游品商厦店),购物服务;专卖店;礼品饰品店|科教文化服务;展览馆;展览馆|科教文化服务;美术馆;美术馆,061209|140200|140400,南京东路558号上海旅游品商厦,121.479729,31.235869,021-54033880,[],[],文化地标|科技体验,上海市,上海市,黄浦区
B0LRXSYDDV,大水花艺术展(装修中),科教文化服务;展览馆;展览馆,140200,陕西北路600号,121.451903,31.232793,,3.6,[],文化地标|科技体验,上海市,上海市,静安区
B0L3ACVKO9,星火农场基地农展厅,科教文化服务;展览馆;展览馆,140200,可乐路与福泉路交叉口东80米,121.360527,31.206216,,2.3,[],文化地标|科技体验,上海市,上海市,长宁区
B0LUA7HWLQ,上海世博会全球环境基金馆,科教文化服务;展览馆;展览馆,140200,蒙自路与局门路交叉口西北140米,121.482354,31.194293,,2.7,[],文化地标|科技体验,上海市,上海市,黄浦区
B0LU2CUWTF,上海体育博物馆-冬奥主题临展,科教文化服务;展览馆;展览馆,140200,南京西路150号上海体育博物馆,121.471993,31.233764,,3.4,[],文化地标|科技体验,上海市,上海市,黄浦区
B0FFGE6BYT,上海师范大学徐汇校区西部校史馆,科教文化服务;展览馆;展览馆,140200,桂林路100号上海师范大学徐汇校区西部内,121.419360,31.160419,,3.8,[],文化地标|科技体验,上海市,上海市,徐汇区
B00155QIKT,韵艺艺术馆,科教文化服务;展览馆;展览馆,140200,淮海中路1131号(常熟路地铁站2号口步行270米),121.454396,31.214499,,3.1,[],文化地标|科技体验,上海市,上海市,徐汇区
B0K6ADOXPI,苏东坡新媒体数字艺术展,科教文化服务;展览馆;展览馆,140200,龙华东路325号博荟广场ONE EAST,121.479945,31.196795,,2.6,[],文化地标|科技体验,上海市,上海市,黄浦区
B0FFK693OK,大师非遗馆,科教文化服务;展览馆;展览馆,140200,安平街与福佑路交叉口北80米(豫园地铁站7号口步行280米),121.492080,31.228468,,2.4,[],文化地标|科技体验,上海市,上海市,黄浦区
B0LGOG5EEL,库比森画廊Cub ism_Artspace,科教文化服务;展览馆;展览馆,140200,四川中路与延安东路交叉口西北80米,121.489425,31.233075,,[],[],文化地标|科技体验,上海市,上海市,黄浦区
B0LKJG1629,上海柏涛建筑规划设计有限公司,科教文化服务;展览馆;展览馆,140200,梅富路与兴梅路交叉口西北100米,121.416142,31.108323,,[],[],文化地标|科技体验,上海市,上海市,闵行区
B001579JFS,天下一家会馆,科教文化服务;展览馆;展览馆,140200,思南路49号,121.468169,31.214823,,4.1,[],文化地标|科技体验,上海市,上海市,黄浦区
B0JARZZR99,Gallery Func,科教文化服务;展览馆;展览馆,140200,新乐路19号3层30室(新乐路17号小区内),121.457365,31.218136,021-63330612,3.9,[],文化地标|科技体验,上海市,上海市,徐汇区
B0JU1SM0F5,齐泉钱币展览馆,科教文化服务;展览馆;展览馆,140200,漕宝路1625号12栋,121.373381,31.159230,13901815556,2.9,[],文化地标|科技体验,上海市,上海市,闵行区
B0H1MAWSAX,Fibre艺术空间,科教文化服务;展览馆;展览馆,140200,胶州路273弄60号104室,121.442304,31.228592,,3.4,[],文化地标|科技体验,上海市,上海市,静安区
B0LKZPEFQT,上海设计周,科教文化服务;展览馆;展览馆,140200,武定路与胶州路交叉口西南100米,121.441979,31.229273,,3.1,[],文化地标|科技体验,上海市,上海市,静安区
B0LDDH473Q,上海长宁区东方收藏艺术馆,科教文化服务;展览馆;展览馆,140200,仙霞路579弄38号305室,121.388700,31.208651,,3.6,[],文化地标|科技体验,上海市,上海市,长宁区
B0LKLP88HM,上海伍司景观设计有限公司,科教文化服务;展览馆;展览馆,140200,丽园路与蒙自路交叉口东40米,121.477775,31.206775,,[],[],文化地标|科技体验,上海市,上海市,黄浦区
B0L267F4FU,外滩111艺术空间,科教文化服务;展览馆;展览馆,140200,九江路111号上投大厦(南京东路地铁站2号口步行380米),121.487845,31.237105,,4.1,[],文化地标|科技体验,上海市,上海市,黄浦区
B0M60GLJ29,ARCHIVISM SHOWROOM,科教文化服务;展览馆;展览馆,140200,胶州路与新闸路交叉口西北80米,121.442814,31.228598,,3.1,[],文化地标|科技体验,上海市,上海市,静安区
B0L2B5K6ZU,东浩兰生上海世博展览馆制证中心缴费处,科教文化服务;展览馆;展览馆,140200,三林镇上海浦东新区博成路850号(东门)上海世博展览馆购物中心,121.490162,31.181521,,[],[],文化地标|科技体验,上海市,上海市,浦东新区
B0M6DX827J,弄堂和弄堂文化摄影艺术展,科教文化服务;展览馆;展览馆,140200,世博大道1368号世博源3区(中华艺术宫地铁站出入口旁),121.492475,31.183925,,[],[],文化地标|科技体验,上海市,上海市,浦东新区
B0KKRLSRX7,亚洲插画年度大赏10周年特展,科教文化服务;展览馆;展览馆,140200,延安西路2299号上海世贸商城,121.402025,31.201975,,1.6,[],文化地标|科技体验,上海市,上海市,长宁区
B0LK7Z2IS5,绿色产业与可持续消费博览会,科教文化服务;展览馆;展览馆,140200,局门路与龙华东路交叉口东南220米,121.486043,31.194352,,2.0,[],文化地标|科技体验,上海市,上海市,黄浦区
B0M6M7VM0F,上海寤园建筑景观设计有限公司,科教文化服务;展览馆;展览馆,140200,中江路与云岭东路交叉口西南140米,121.391925,31.222175,,[],[],文化地标|科技体验,上海市,上海市,普陀区
B0MB4KXQ8J,上海博初建筑景观设计有限公司,科教文化服务;展览馆;展览馆,140200,云岭东路与中江路交叉口西南140米,121.391922,31.222169,,[],[],文化地标|科技体验,上海市,上海市,普陀区
B0MB4KY32V,城方·租住生活展馆,科教文化服务;展览馆;展览馆,140200,耀龙路与德恒路交叉口北80米,121.474693,31.167390,,2.2,[],文化地标|科技体验,上海市,上海市,浦东新区
B0LU6LHHKO,SANTU GALLERY,科教文化服务;展览馆;展览馆,140200,瑞金二路与泰康路交叉口西北80米,121.466550,31.207829,,2.2,[],文化地标|科技体验,上海市,上海市,黄浦区
B0L0PC0TAE,眼镜蛇画廊,科教文化服务;展览馆;展览馆,140200,沙美大楼(南京东路地铁站7号口步行490米),121.486542,31.240807,,3.4,[],文化地标|科技体验|独处品质空间,上海市,上海市,黄浦区
B0L3A1Y4PU,博雅方略旅游景观规划设计院(上海分院),科教文化服务;展览馆;展览馆,140200,中山北路辅路与华夏路交叉口西北160米,121.409362,31.229346,,2.0,[],文化地标|科技体验,上海市,上海市,普陀区
B0MGN9R8IZ,奈美兔KISSPOWER张戈个人艺术展,科教文化服务;展览馆;展览馆,140200,广西北路与汕头路交叉口北40米,121.478697,31.232041,,0.3,[],文化地标|科技体验,上海市,上海市,黄浦区
B0LKVC5N9N,中国物产展,科教文化服务;展览馆;展览馆,140200,玛瑙路与红宝石路交叉口西北120米,121.403043,31.197802,,1.8,[],文化地标|科技体验,上海市,上海市,长宁区
B0L13S6GOE,梵雅堂(鎏金佛像馆)虹桥古玩城,科教文化服务;展览馆;展览馆,140200,金汇路与红松东路交叉口东南180米,121.374927,31.181434,,3.3,[],文化地标|科技体验,上海市,上海市,闵行区
B00155NEWG,上海光大会展中心(东馆),科教文化服务;会展中心;会展中心,140300,漕宝路78号光大会展中心东馆1楼,121.428891,31.167110,021-64753288;021-64842500,4.0,[],文化地标,上海市,上海市,徐汇区
B0HB3U9GTJ,世界会客厅,科教文化服务;会展中心;会展中心,140300,北外滩路8号,121.493844,31.244787,15317926753,4.8,[],文化地标,上海市,上海市,虹口区
B00155R0GY,世博中心,科教文化服务;会展中心;会展中心,140300,世博大道1500号(中华艺术宫地铁站4号口步行340米),121.488676,31.186549,021-20206060,[],[],文化地标,上海市,上海市,浦东新区
B0LRNMKBDV,西岸国际会展中心(上海),科教文化服务;会展中心;会展中心,140300,龙耀路7号,121.463315,31.162193,,[],[],文化地标,上海市,上海市,徐汇区
B00154DQWC,上海光大会展中心(西馆),科教文化服务;会展中心;会展中心,140300,漕宝路88号,121.427049,31.167177,021-64753288;021-64842500,[],[],文化地标,上海市,上海市,徐汇区
B00155L36V,科学会堂(雁荡路),科教文化服务;会展中心;会展中心,140300,雁荡路84号,121.469303,31.218563,021-53822040,[],[],文化地标|科技体验,上海市,上海市,黄浦区
B00157I114,绿地会议中心,科教文化服务;会展中心;会展中心,140300,协和路111号,121.355694,31.206252,021-62382277,5.0,[],文化地标,上海市,上海市,长宁区
B0IK0RUDOO,荟立方(人广旗舰店),科教文化服务;会展中心;会展中心|生活服务;生活服务场所;生活服务场所,140300|070000,南京西路388号仙乐斯广场L2层,121.468967,31.231347,17621606822,4.3,[],文化地标,上海市,上海市,黄浦区
B00155R18J,世博中心大会堂(红厅),科教文化服务;会展中心;会展中心,140300,世博大道1500号世博中心,121.489201,31.186862,021-20206060,[],[],文化地标,上海市,上海市,浦东新区
B0FFG4JUE4,ibp国际会议中心,科教文化服务;会展中心;会展中心,140300,新泾镇通协路258号,121.356323,31.226343,021-32559100,[],[],文化地标,上海市,上海市,长宁区
B0FFGK1HNI,朵云轩艺术中心,科教文化服务;会展中心;会展中心|科教文化服务;美术馆;美术馆,140300|140400,天钥桥路1180号,121.447380,31.174122,021-64681020,4.6,[],文化地标|科技体验|独处品质空间,上海市,上海市,徐汇区
B00155GER6,科学会堂国际会议厅,科教文化服务;会展中心;会展中心,140300,瑞金二路街道南昌路57号(淮海中路地铁站1号口步行370米),121.467308,31.218154,021-53822040,4.5,[],文化地标|科技体验,上海市,上海市,黄浦区
B0FFHDM8D1,文艺会堂,科教文化服务;会展中心;会展中心,140300,延安西路200号(静安寺地铁站13A出口步行360米),121.441930,31.219836,,[],[],文化地标,上海市,上海市,静安区
B00155IUC2,玉嘉大厦,科教文化服务;会展中心;会展中心|商务住宅;楼宇;商务写字楼,140300|120201,平武路168号,121.432503,31.208777,,[],[],文化地标,上海市,上海市,长宁区
B00156CPNJ,上海教育会堂,科教文化服务;会展中心;会展中心,140300,岳阳路1号,121.452187,31.208622,,4.2,[],文化地标,上海市,上海市,徐汇区
B00155LZTU,锦江小礼堂,科教文化服务;会展中心;会展中心,140300,茂名南路59号,121.461261,31.220012,021-32189888;021-62582582,[],[],文化地标,上海市,上海市,黄浦区
B0FFG2R47W,百乐门精品酒店会议中心,科教文化服务;会展中心;会展中心,140300,南京西路1728号10层(静安寺地铁站1号口步行110米),121.444562,31.222603,,[],[],文化地标,上海市,上海市,静安区
B001515E5C,上海社会科学会堂,科教文化服务;会展中心;会展中心,140300,漕溪北路41号汇嘉大厦4层,121.43951,31.192219,,[],[],文化地标|科技体验,上海市,上海市,徐汇区
B0JBPL5PDX,悦来集·会议中心(汉中路店),科教文化服务;会展中心;会展中心,140300,汉中路243号泰禾大厦17楼,121.456337,31.241885,18721939655,[],[],文化地标,上海市,上海市,静安区
B00155LJ8C,上海师范大学徐汇校区东部礼堂,科教文化服务;会展中心;会展中心,140300,桂林路81上海师范大学东部,121.420618,31.161539,,[],[],文化地标,上海市,上海市,徐汇区
B00155KH7K,西郊会议中心,科教文化服务;会展中心;会展中心,140300,虹桥路1921号,121.378037,31.203205,021-62198800,[],[],文化地标,上海市,上海市,长宁区
B00156TISD,上海悦·清水湾会议中心,科教文化服务;会展中心;会展中心,140300,凯旋北路1305号清水湾大酒店商务楼,121.412948,31.230253,,[],[],文化地标,上海市,上海市,普陀区
B00153206C,友谊会堂(北环道),科教文化服务;会展中心;会展中心,140300,南京西路1333号,121.452135,31.225708,021-62472751,[],[],文化地标,上海市,上海市,静安区
B0LA1H3W1T,洛克公园SSR光大会展中心馆,科教文化服务;会展中心;会展中心,140300,漕宝路80号光大会展中心(西馆)三楼,121.427487,31.167472,13816630220,[],[],文化地标,上海市,上海市,徐汇区
B00155IL22,上海投资咨询公司会议中心,科教文化服务;会展中心;会展中心,140300,延安东路1200号电信世界F14层,121.472673,31.226184,,[],[],文化地标,上海市,上海市,黄浦区
B00155A07M,上海多媒体产业园会展中心,科教文化服务;会展中心;会展中心,140300,长宁路1027兆丰广场6层(中山公园地铁站10号口旁),121.417969,31.217832,,[],[],文化地标,上海市,上海市,长宁区
B00156MMVV,西郊宾馆四季厅,科教文化服务;会展中心;会展中心,140300,虹桥路1921号西郊宾馆内,121.377828,31.202985,021-62198800,[],[],文化地标,上海市,上海市,长宁区
B0HAOUKE8Q,36space,科教文化服务;会展中心;会展中心,140300,漕宝路36号E座(漕宝路地铁站7号口步行160米),121.431950,31.167645,,[],[],文化地标,上海市,上海市,徐汇区
B00156EMZL,华纳国际会议中心,科教文化服务;会展中心;会展中心,140300,莲花路1733号华纳风格酒店,121.389147,31.169735,021-61205666,[],[],文化地标,上海市,上海市,闵行区
B00155LZQC,兴国宾馆8号楼会议中心,科教文化服务;会展中心;会展中心,140300,兴国路78号兴国宾馆,121.434572,31.209796,021-62129998,[],[],文化地标,上海市,上海市,长宁区
B00156NT05,华东师范大学普陀校区科学会堂,科教文化服务;会展中心;会展中心,140300,中山北路3663号华华东师范大学普陀校区,121.406615,31.226774,,[],[],文化地标|科技体验,上海市,上海市,普陀区
B0K1Y7A41N,半马苏河国际会议中心,住宿服务;宾馆酒店;宾馆酒店|科教文化服务;会展中心;会展中心,100100|140300,中江路121号,121.392444,31.221676,,4.7,[],文化地标|金融住宿政府,上海市,上海市,普陀区
B0FFF00OQ8,扬子江国际会议中心,科教文化服务;会展中心;会展中心,140300,延安西路2111扬子中心3层,121.405543,31.202688,021-62750750,[],[],文化地标,上海市,上海市,长宁区
B0FFFZJSA4,上海师范大学徐汇校区西部会议中心,科教文化服务;会展中心;会展中心,140300,桂林路100号上海师范大学西部,121.419414,31.160355,021-64328879,[],[],文化地标,上海市,上海市,徐汇区
B00155I1IJ,华盛大厦会议中心,科教文化服务;会展中心;会展中心,140300,汉口路398-400号上海华盛大厦602-604,121.482567,31.23565,15601712625,[],[],文化地标,上海市,上海市,黄浦区
B0FFH016CR,世博园H1展厅,科教文化服务;会展中心;会展中心,140300,世博园A片区国展路(云台路口),121.489524,31.182357,,4.4,[],文化地标,上海市,上海市,浦东新区
B0FFHBVUGI,上海市儿童医院大礼堂,科教文化服务;会展中心;会展中心,140300,新闸路与常德路交叉口东北180米,121.448175,31.230174,,[],[],文化地标,上海市,上海市,静安区
B0H2H1KDKX,上海图书馆会展中心,科教文化服务;会展中心;会展中心,140300,淮海中路1555号(上海图书馆地铁站2号口步行70米),121.444832,31.207696,,[],[],文化地标,上海市,上海市,徐汇区
B0FFFBEC0U,静安香格里拉宴会中心(静安嘉里中心店),餐饮服务;中餐厅;中餐厅|科教文化服务;会展中心;会展中心,050100|140300,延安中路1218号(静安寺地铁站8号口步行340米),121.450350,31.223083,021-22036585;021-22038889;18221851443,4.4,259.00,文化地标,上海市,上海市,静安区
B0FFF00KF8,思南公馆会展中心,科教文化服务;会展中心;会展中心,140300,思南公馆2号楼(一大会址·新天地地铁站5号口步行430米),121.47007,31.215401,,[],[],文化地标,上海市,上海市,黄浦区
B0J25USD01,产业会客厅(思南公馆店),科教文化服务;会展中心;会展中心,140300,思南路56号,121.467747,31.214242,,[],[],文化地标,上海市,上海市,黄浦区
B0KA9CKMA8,悦来集·会议中心(延安西路店),科教文化服务;会展中心;会展中心,140300,昭化路699号(延安西路地铁站1号口步行250米),121.419036,31.211963,15221936224,[],[],文化地标,上海市,上海市,长宁区
B00156O4EU,静安体育馆会议中心,科教文化服务;会展中心;会展中心,140300,西康路99静安体育馆3层,121.451794,31.227621,,[],[],文化地标,上海市,上海市,静安区
B00155K8NY,斯格威铂尔曼大酒店绿洲厅,科教文化服务;会展中心;会展中心,140300,打浦路15号上海斯格威铂尔曼大酒店50层,121.470718,31.204025,021-33189988,[],[],文化地标,上海市,上海市,黄浦区
B0FFG2VVH5,上海衡山路十二号华邑酒店-至尊厅,科教文化服务;会展中心;会展中心,140300,衡山路12号华邑酒店1层(衡山路地铁站3号口步行100米),121.446377,31.204880,021-33383888,[],[],文化地标,上海市,上海市,徐汇区
B00155QXWN,华东师范大学中山北路校区会展中心,科教文化服务;会展中心;会展中心,140300,中山北路3663号华东师范大学中山北路校区,121.406643,31.226748,,[],[],文化地标,上海市,上海市,普陀区
B0KAOZ25AC,悦来集·会议中心(南京东路店),科教文化服务;会展中心;会展中心,140300,应氏大厦180号楼(南京东路地铁站1号口步行140米),121.482597,31.238238,19821586899,3.4,[],文化地标,上海市,上海市,黄浦区
B0FFIB5BW6,马勒别墅饭店·宴会厅,科教文化服务;会展中心;会展中心,140300,陕西南路与延安中路辅路交叉口西南100米,121.456425,31.222975,,[],[],文化地标,上海市,上海市,静安区
B00156R4PX,天禧嘉福·璞缇酒店-会议中心,科教文化服务;会展中心;会展中心,140300,虹许路358号天禧嘉福·璞缇酒店12层,121.395723,31.181732,021-34059898,[],[],文化地标,上海市,上海市,闵行区
B00155R18N,世博中心中央大厅(绿厅),科教文化服务;会展中心;会展中心,140300,世博大道1500号世博中心,121.489201,31.186862,021-20206060,[],[],文化地标,上海市,上海市,浦东新区
B0JRHDE2GL,华东师大科技园会议中心,科教文化服务;会展中心;会展中心,140300,金沙江路1006号(大渡河路地铁站4号口步行140米),121.393322,31.232171,13651702821,[],[],文化地标,上海市,上海市,普陀区
B0FFHCUYLI,瑞琳婚舍(华联创意广场店),科教文化服务;会展中心;会展中心|生活服务;摄影冲印店;摄影冲印,140300|071300,江苏北路125号华联创意广场A座306-310,121.424633,31.226726,13916085661,4.4,[],文化地标,上海市,上海市,长宁区
B0HRTA52J9,格盟上海市闵行区虹梅路酒店-会议中心,科教文化服务;会展中心;会展中心,140300,虹梅路2975号虹梅嘉廷酒店11层,121.391772,31.181001,,[],[],文化地标,上海市,上海市,闵行区
B00155KLWR,美国商务处会议中心,科教文化服务;会展中心;会展中心,140300,南京西路1376号上海商城7层731室,121.451936,31.22676,,[],[],文化地标,上海市,上海市,静安区
B00155GD3L,上海市建设和交通委员会科学技术委员会会议中心,科教文化服务;会展中心;会展中心,140300,宛平南路75建科大厦13层,121.445945,31.195536,,[],[],文化地标,上海市,上海市,徐汇区
B00155IWDS,上海社会科学院-大礼堂,科教文化服务;会展中心;会展中心,140300,淮海中路622弄7号(淮海中路地铁站1号口步行440米),121.465364,31.221105,021-53060606,[],[],文化地标,上海市,上海市,黄浦区
B0FFHA1XC7,上海市胸科医院会议中心,科教文化服务;会展中心;会展中心,140300,淮海西路241号上海市胸科医院3号楼,121.426666,31.197787,,[],[],文化地标,上海市,上海市,徐汇区
B00154DRQF,话剧大厦-会议中心,科教文化服务;会展中心;会展中心,140300,安福路288号话剧大厦18层,121.441198,31.213536,,[],[],文化地标,上海市,上海市,徐汇区
B00155KMOV,远雄会议中心,科教文化服务;会展中心;会展中心,140300,仙霞路319远东国际广场A栋3层,121.400735,31.206509,,[],[],文化地标,上海市,上海市,长宁区
B00155HVPF,奥利厅&奥普拉厅,科教文化服务;会展中心;会展中心,140300,南京东路505号海仑宾馆3层,121.480884,31.235680,,[],[],文化地标,上海市,上海市,黄浦区
B00155KLZK,阿斯利康中国会议中心,科教文化服务;会展中心;会展中心,140300,南京西路1168号中信泰富广场4202-4204号,121.455680,31.228616,,[],[],文化地标,上海市,上海市,静安区
B0FFF04T5B,上海虹桥万丽酒店-商务中心,科教文化服务;会展中心;会展中心,140300,虹桥路2270号上海虹桥万丽酒店1层,121.376790,31.191490,021-60106000;021-62376000,[],[],文化地标,上海市,上海市,长宁区
B00155IS7N,美罗会议中心,科教文化服务;会展中心;会展中心,140300,天钥桥路30美罗大厦B1层,121.440651,31.193021,,[],[],文化地标,上海市,上海市,徐汇区
B00155GFIO,丽智会展,科教文化服务;会展中心;会展中心,140300,剑河路613-615号长宁新泾镇开业园区129,121.369132,31.206874,,[],[],文化地标,上海市,上海市,长宁区
B00155QXWU,东华大学延安路校区会展中心,科教文化服务;会展中心;会展中心,140300,中山西路849东华大学延安路校区,121.414606,31.203399,,[],[],文化地标,上海市,上海市,长宁区
B00155IPQL,大恒科技展示厅,科教文化服务;会展中心;会展中心,140300,新华路543新华大厦商务中心1号楼4层A2-3,121.422314,31.204092,,2.8,[],文化地标,上海市,上海市,长宁区
B00155I02V,海榭厅-海吟厅-海仑厅,科教文化服务;会展中心;会展中心,140300,南京东路505号海仑宾馆4层,121.480834,31.235650,,[],[],文化地标,上海市,上海市,黄浦区
B0LRCKE0QQ,光明商业集团7楼大会堂,科教文化服务;会展中心;会展中心,140300,金沙江路1685号118广场(金沙江路店),121.377725,31.231375,,[],[],文化地标,上海市,上海市,普陀区
B00155HWG3,波尔多厅-海潮厅,科教文化服务;会展中心;会展中心,140300,南京东路505号海仑宾馆4层,121.480834,31.235650,,[],[],文化地标,上海市,上海市,黄浦区
B00155FUHH,上海宾馆会议厅(浦江厅),科教文化服务;会展中心;会展中心,140300,乌鲁木齐北路503-505号上海宾馆商务楼7层,121.444042,31.218217,,[],[],文化地标,上海市,上海市,静安区
B0IBKBEKBH,报告厅,科教文化服务;会展中心;会展中心,140300,水清路与疏影路交叉口东北160米,121.378725,31.124125,,[],[],文化地标,上海市,上海市,闵行区
B001535D42,思创会议中心,科教文化服务;会展中心;会展中心,140300,天山路600弄3-4号思创大厦4层B座,121.396745,31.213893,,[],[],文化地标,上海市,上海市,长宁区
B00155MNIJ,徐汇苑大厦-会务中心,科教文化服务;会展中心;会展中心|商务住宅;楼宇;商务写字楼,140300|120201,中山南二路与天钥桥路交叉口西南220米,121.443258,31.178842,,[],[],文化地标,上海市,上海市,徐汇区
B0FFF00I7G,瑞金社区服务综合楼会议室,科教文化服务;会展中心;会展中心,140300,南昌路44号瑞金社区服务综合楼3层,121.470626,31.219768,,[],[],文化地标,上海市,上海市,黄浦区
B00156GMYI,爱尔兰中心,科教文化服务;会展中心;会展中心,140300,黄陂北路227中区广场203室,121.470474,31.229229,,[],[],文化地标,上海市,上海市,黄浦区
B00156NUSR,新城大厦会议中心,科教文化服务;会展中心;会展中心,140300,江宁路167号新城大厦26层,121.454602,31.230613,021-62551850,[],[],文化地标,上海市,上海市,静安区
B0FFF40N4B,上海漕河泾万丽酒店-商务中心,科教文化服务;会展中心;会展中心,140300,田林路397号上海漕河泾万丽酒店3层,121.396948,31.165230,021-33258888,[],[],文化地标,上海市,上海市,徐汇区
B00155NF3L,延安饭店兴会厅,餐饮服务;快餐厅;茶餐厅|科教文化服务;会展中心;会展中心,050305|140300,延安西路1111号2层(静安寺地铁站11号口步行270米),121.448275,31.220475,021-61331188,3.9,[],文化地标,上海市,上海市,静安区
B0LD19FPJF,含元会议中心,科教文化服务;会展中心;会展中心,140300,吴美路与虹梅路交叉口西260米,121.389112,31.183215,,[],[],文化地标,上海市,上海市,闵行区
B0K62N6G6I,上海金普顿前滩酒店·金岩厅,科教文化服务;会展中心;会展中心,140300,前滩大道199弄9号金普顿酒店1楼,121.472430,31.153128,,4.2,[],文化地标,上海市,上海市,浦东新区
B0FFH2CUKT,上海体育运动技术学院会议中心,科教文化服务;会展中心;会展中心,140300,莘凌路上海开放大学闵行一分校,121.370972,31.115278,,[],[],文化地标,上海市,上海市,闵行区
B0FFLE6DE0,上海半岛酒店-会议厅,科教文化服务;会展中心;会展中心,140300,北京东路与圆明园路交叉口东北120米,121.489125,31.241425,,[],[],文化地标,上海市,上海市,黄浦区
B001570OHD,经纬(集团)有限公司会议中心,科教文化服务;会展中心;会展中心,140300,皋兰路16号(淮海中路地铁站1号口步行490米),121.466031,31.217133,,[],[],文化地标,上海市,上海市,黄浦区
B0FFHC5GLW,锦江都城展示厅,科教文化服务;会展中心;会展中心,140300,汇锦商务大厦8号楼锦馨公寓(吴中路地铁站1号口步行400米),121.415025,31.186125,,3.4,[],文化地标,上海市,上海市,闵行区
B00155IB1E,悉尼多功能厅,科教文化服务;会展中心;会展中心,140300,延安西路396号上海美丽园大酒店,121.437813,31.218417,,[],[],文化地标,上海市,上海市,静安区
B00155IAZ3,西部大厦报告厅,科教文化服务;会展中心;会展中心,140300,长寿路767西部大厦2层214,121.432635,31.236690,,[],[],文化地标,上海市,上海市,普陀区
B00155KTDJ,上海市总工会沪西工人文化宫会议中心(装修中),科教文化服务;会展中心;会展中心,140300,曹杨路520号上海市总工会沪西工人文化宫,121.419519,31.238812,,[],[],文化地标,上海市,上海市,普陀区
B00154YT2D,海华厅,科教文化服务;会展中心;会展中心,140300,南京东路505号海仑宾馆5层,121.480834,31.235650,021-63515888,[],[],文化地标,上海市,上海市,黄浦区
B00155IQRU,衡山花园酒店商务会议室,科教文化服务;会展中心;会展中心,140300,衡山路534号衡山花园酒店3层(衡山路地铁站1号口步行430米),121.443159,31.200917,,[],[],文化地标,上海市,上海市,徐汇区
B0FFJGOAFY,西岸美术馆,科教文化服务;美术馆;美术馆,140400,龙腾大道2600号,121.463841,31.167682,021-31011015,4.7,[],文化地标|科技体验|独处品质空间,上海市,上海市,徐汇区
B0FFF2YL75,龙美术馆(西岸馆),科教文化服务;美术馆;美术馆,140400,龙腾大道3398号,121.464761,31.183954,021-64227636,4.8,[],文化地标|科技体验|独处品质空间,上海市,上海市,徐汇区
B0FFF9ZXZW,刘海粟美术馆,科教文化服务;美术馆;美术馆,140400,延安西路1609号(延安西路地铁站2号口步行400米),121.419424,31.209504,021-62701018,4.8,[],文化地标|科技体验|独处品质空间,上海市,上海市,长宁区
B0FFH82JEM,上海宝龙美术馆,科教文化服务;美术馆;美术馆,140400,漕宝路3055号,121.357859,31.158382,021-62219111,4.7,[],文化地标|科技体验|独处品质空间,上海市,上海市,闵行区
B00155QH3P,上海外滩美术馆,科教文化服务;美术馆;美术馆,140400,虎丘路20号,121.487612,31.241209,021-33109985;021-63213352,4.6,[],文化地标|科技体验|独处品质空间,上海市,上海市,黄浦区
B00155932C,长宁文化艺术中心,科教文化服务;美术馆;美术馆,140400,仙霞路650号,121.387774,31.205901,021-62612818,4.6,[],文化地标|科技体验|独处品质空间,上海市,上海市,长宁区
B0FFLJMRIQ,梵高星空艺术馆,科教文化服务;美术馆;美术馆,140400,南京东路第一百货c馆8层,121.475289,31.235487,17717865847,4.4,[],文化地标|科技体验|独处品质空间,上海市,上海市,黄浦区
B0KDUD7IDH,罗丹艺术中心,科教文化服务;美术馆;美术馆,140400,上海市上钢新村街道世博大道1929号,121.479032,31.184665,13162558160,4.7,[],文化地标|科技体验,上海市,上海市,浦东新区
B00155LXQP,上海虹桥当代艺术馆,科教文化服务;美术馆;美术馆,140400,仙霞路650号,121.387754,31.205925,021-62618834,4.3,[],文化地标|科技体验|独处品质空间,上海市,上海市,长宁区
B0H0USLCSP,START星美术馆,科教文化服务;美术馆;美术馆,140400,瑞宁路111号,121.470273,31.187793,021-33632872,4.7,[],文化地标|科技体验|独处品质空间,上海市,上海市,徐汇区
B00153E97D,上海市徐汇区艺术馆,科教文化服务;美术馆;美术馆,140400,淮海中路1413号(常熟路地铁站7号口步行330米),121.448216,31.210155,021-64336516;021-64313738,4.4,[],文化地标|科技体验|独处品质空间,上海市,上海市,徐汇区
B00155KHGE,上海中国画院美术馆,科教文化服务;美术馆;美术馆,140400,岳阳路197号,121.452796,31.204502,021-64749977,4.6,[],文化地标|科技体验|独处品质空间,上海市,上海市,徐汇区
B001574S4B,chi K11 art museum美术馆(上海K11购物艺术中心),科教文化服务;美术馆;美术馆,140400,淮海中路300号上海K11购物艺术中心B3层,121.473459,31.223705,021-23103132,4.3,[],文化地标|科技体验|独处品质空间,上海市,上海市,黄浦区
B00157I5HO,上海市闵行区群众艺术馆,科教文化服务;美术馆;美术馆,140400,莘松路350号,121.372165,31.106342,021-60292300;021-64880324,4.5,[],文化地标|科技体验|独处品质空间,上海市,上海市,闵行区
B0FFF092LB,美博艺术中心,科教文化服务;美术馆;美术馆|科教文化服务;培训机构;培训机构,140400|141400,黎明路88号,121.379800,31.129560,13381608928,4.4,[],文化地标|科技体验|独处品质空间,上海市,上海市,闵行区
B0FFJMROU8,外滩18号久事艺术空间,科教文化服务;美术馆;美术馆,140400,中山东一路18号2层,121.489683,31.238393,13611730930,4.4,[],文化地标|科技体验|独处品质空间,上海市,上海市,黄浦区
B0IATZNFYM,上海久事美术馆,科教文化服务;美术馆;美术馆,140400,外滩一号(原亚细亚大楼),121.491265,31.233372,13774471354,4.5,[],文化地标|科技体验|独处品质空间,上海市,上海市,黄浦区
B0FFFTCSPN,上海明圆美术馆,科教文化服务;美术馆;美术馆,140400,复兴中路1199号明园商务中心A座地下一层,121.458872,31.212709,,4.3,[],文化地标|科技体验|独处品质空间,上海市,上海市,徐汇区
B0FFF9ZV3V,敬华艺术空间,科教文化服务;美术馆;美术馆,140400,铜仁路92号(静安寺地铁站6号口步行360米),121.450812,31.224533,021-62716969,4.4,[],文化地标|科技体验|独处品质空间,上海市,上海市,静安区
B0FFLHT2P1,上海市闵行区蔡兵美术馆,科教文化服务;美术馆;美术馆,140400,伟业路881号,121.400620,31.116792,,4.4,[],文化地标|科技体验|独处品质空间,上海市,上海市,闵行区
B0HKDZX2F2,上海春美术馆,科教文化服务;美术馆;美术馆,140400,福州路655号2层(人民广场地铁站15号口步行290米),121.478545,31.232250,,4.6,[],文化地标|科技体验|独处品质空间,上海市,上海市,黄浦区
B0FFHGOWN5,Capsule,科教文化服务;美术馆;美术馆,140400,安福路275弄16号1层,121.441872,31.212759,021-64170700,4.2,[],文化地标|科技体验|独处品质空间,上海市,上海市,徐汇区
B0FFFDILEQ,上海皓古文化艺术馆,科教文化服务;美术馆;美术馆,140400,黄家阙路111号(陆家浜路地铁站1号口步行330米),121.487925,31.214648,,4.2,[],文化地标|科技体验|独处品质空间,上海市,上海市,黄浦区
B0HAP5TTY6,上海杨培明宣传画收藏艺术馆,科教文化服务;美术馆;美术馆,140400,延安西路726号7楼K座,121.433762,31.215361,021-62111845,4.4,[],文化地标|科技体验|独处品质空间,上海市,上海市,长宁区
B0FFI3R6BR,上海苏宁艺术馆,科教文化服务;美术馆;美术馆,140400,丹巴路99号C3座,121.379036,31.222870,021-31013151,4.1,[],文化地标|科技体验|独处品质空间,上海市,上海市,普陀区
B0LAXRZ02B,山也美术馆,科教文化服务;美术馆;美术馆,140400,番禺路222弄上生新所(东南角),121.428287,31.207632,,4.4,[],文化地标|科技体验|独处品质空间,上海市,上海市,长宁区
B0FFKQOPRF,秋海堂艺术馆,科教文化服务;美术馆;美术馆|科教文化服务;培训机构;培训机构,140400|141400,衡山路525号凯文公寓副楼2层,121.443970,31.200601,13585668808,4.3,[],文化地标|科技体验|独处品质空间,上海市,上海市,徐汇区
B0J3DKBGLQ,柒艺术馆,科教文化服务;美术馆;美术馆,140400,江宁路与淮安路交叉口南60米,121.448371,31.238211,,3.6,[],文化地标|科技体验|独处品质空间,上海市,上海市,静安区
B0FFH71HIC,外滩艺术馆,科教文化服务;美术馆;美术馆,140400,汉口路201号(南京东路地铁站3号口步行320米),121.486197,31.235699,,4.4,[],文化地标|科技体验|独处品质空间,上海市,上海市,黄浦区
B0H35748L2,上海长宁华萃当代美术馆,科教文化服务;美术馆;美术馆,140400,长宁路1978号,121.401277,31.218727,021-52726307,4.3,[],文化地标|科技体验|独处品质空间,上海市,上海市,长宁区
B0IGSH3LYI,上海久事艺术沙龙,科教文化服务;美术馆;美术馆|生活服务;美容美发店;美容美发店,140400|071100,北京东路230号1层(南京东路地铁站6号口步行330米),121.486023,31.240734,,4.4,[],文化地标|科技体验|独处品质空间,上海市,上海市,黄浦区
B0FFG3BMJ4,上海博源美术馆(世博源5区),科教文化服务;美术馆;美术馆,140400,世博大道1368号世博源5区B层,121.493528,31.180491,13301638226,4.2,[],文化地标|科技体验|独处品质空间,上海市,上海市,浦东新区
B0KADCTUR8,上海正好美术馆,科教文化服务;美术馆;美术馆,140400,番禺路300弄7号B幢,121.428370,31.204495,13918927754,4.4,[],文化地标|科技体验|独处品质空间,上海市,上海市,长宁区
B0G0KSRN55,艺文轩,科教文化服务;美术馆;美术馆,140400,上海油画雕塑院东南门西南60米,121.400044,31.198434,,[],[],文化地标|科技体验,上海市,上海市,长宁区
B0LGPUN8LZ,沪申美术馆,科教文化服务;美术馆;美术馆,140400,中山东一路3号3楼(近广东路),121.490765,31.234156,021-62493137,4.3,[],文化地标|科技体验|独处品质空间,上海市,上海市,黄浦区
B0KUSC3NYC,曜星艺术馆,科教文化服务;美术馆;美术馆,140400,虹许路482号,121.396512,31.189187,13611713474,4.4,[],文化地标|科技体验|独处品质空间,上海市,上海市,闵行区
B0K2VCA4J2,Gallery OM,科教文化服务;美术馆;美术馆,140400,四川中路33号创业大楼815室(8楼左转到底)(豫园地铁站6号口步行460米),121.489455,31.232992,,3.9,[],文化地标|科技体验|独处品质空间,上海市,上海市,黄浦区
B0FFFY63FU,田子坊美术馆,科教文化服务;美术馆;美术馆,140400,210弄9号站(打浦桥地铁站1号口步行160米),121.469027,31.208676,15915555598,4.2,[],文化地标|科技体验|独处品质空间,上海市,上海市,黄浦区
B00155KN1X,上海虹庙艺术,科教文化服务;美术馆;美术馆,140400,南京东路496号,121.480706,31.236278,,[],[],文化地标|科技体验,上海市,上海市,黄浦区
B0J02SP3J5,DOSE画廊,科教文化服务;美术馆;美术馆,140400,五原路212弄7号底楼花园(常熟路地铁站8号口步行430米),121.445396,31.212973,19121363485,4.1,[],文化地标|科技体验|独处品质空间,上海市,上海市,徐汇区
B0FFG84LAI,翠湖天地生活艺术馆,科教文化服务;美术馆;美术馆,140400,湖滨路150号企业天地5号楼F31层,121.478775,31.221425,,3.8,[],文化地标|科技体验|独处品质空间,上海市,上海市,黄浦区
B0J10ZELMN,九点水美术馆树屋馆,科教文化服务;美术馆;美术馆,140400,桂林路406号华鑫中心F1层,121.416592,31.172965,,4.2,[],文化地标|科技体验|独处品质空间,上海市,上海市,徐汇区
B0JBXURPY1,海派美术馆,科教文化服务;美术馆;美术馆,140400,七浦路607号2楼(曲阜路地铁站5号口步行240米),121.473562,31.243857,021-61701311,4.0,[],文化地标|科技体验|独处品质空间,上海市,上海市,静安区
B0IR5Z0GHV,上海油罐艺术中心美术馆,科教文化服务;美术馆;美术馆,140400,龙腾大道2380号,121.464475,31.164505,,4.2,[],文化地标|科技体验|独处品质空间,上海市,上海市,徐汇区
B0KGDUU827,J7 Art(青云七号美术馆),科教文化服务;美术馆;美术馆,140400,瑞金二路街道茂名南路7号,121.460691,31.222312,19945660025,4.4,[],文化地标|科技体验|独处品质空间,上海市,上海市,黄浦区
B0FFK9TN8C,墨琛画廊,科教文化服务;美术馆;美术馆,140400,新华路430号,121.424170,31.204082,13247760255,4.0,[],文化地标|科技体验|独处品质空间,上海市,上海市,长宁区
B0LKJH1MCU,原野上美术馆·KONG-Art Gallery,科教文化服务;美术馆;美术馆,140400,法华镇路525号二楼,121.425548,31.205145,,3.8,[],文化地标|科技体验|独处品质空间,上海市,上海市,长宁区
B0FFHDC5L8,莫索新艺术,科教文化服务;美术馆;美术馆,140400,七莘路50号乾锦创业园9号楼1008-1009号室,121.379240,31.110529,021-34712332,3.6,[],文化地标|科技体验|独处品质空间,上海市,上海市,闵行区
B0KU2SZ8DG,上海海派书画艺术馆,科教文化服务;美术馆;美术馆,140400,北渔路95号(北新泾地铁站3号口旁),121.372356,31.216472,,3.7,[],文化地标|科技体验|独处品质空间,上海市,上海市,长宁区
B0FFH114GW,折扇艺术馆,科教文化服务;美术馆;美术馆,140400,陕西北路454号,121.453008,31.230491,13611897936,3.8,[],文化地标|科技体验|独处品质空间,上海市,上海市,静安区
B00155IL0O,上海学生美术馆,科教文化服务;美术馆;美术馆,140400,愚园路1136弄4-61号(江苏路地铁站6号口步行500米),121.427155,31.219682,,3.7,[],文化地标|科技体验|独处品质空间,上海市,上海市,长宁区
B00155M0PV,华东师范大学普陀校区美术馆,科教文化服务;美术馆;美术馆,140400,中山北路3663号华东师范大学中山北路校区,121.405989,31.230578,,3.3,[],文化地标|科技体验|独处品质空间,上海市,上海市,普陀区
B0JKSO57G0,金雀华人美术馆,科教文化服务;美术馆;美术馆,140400,龙文路69号1-M2(龙耀路地铁站2号口步行340米),121.463043,31.159800,,3.6,[],文化地标|科技体验|独处品质空间,上海市,上海市,徐汇区
B0L0U1WPD2,ANTENNA-TENNA画廊,科教文化服务;美术馆;美术馆,140400,曲阜路与浙江北路交叉口西南80米,121.475496,31.242546,,3.3,[],文化地标|科技体验|独处品质空间,上海市,上海市,静安区
B0MBM57K3S,宋洋美术馆,科教文化服务;美术馆;美术馆,140400,淮海中路523号TX淮海F2层,121.469311,31.220687,,2.2,[],文化地标|科技体验|独处品质空间,上海市,上海市,黄浦区
B0MG6NH8BS,上海市徐汇区兆明工艺美术品经营部,科教文化服务;美术馆;美术馆,140400,大木桥路与医学院路交叉口西北80米,121.461038,31.201076,,1.7,[],文化地标|科技体验,上海市,上海市,徐汇区
B0FFHUD4BQ,上海油罐艺术中心,科教文化服务;美术馆;美术馆,140400,龙腾大道2380号,121.464321,31.164519,,4.8,[],文化地标|科技体验|独处品质空间,上海市,上海市,徐汇区
B00155LMIA,上海当代艺术馆,科教文化服务;美术馆;美术馆,140400,南京西路231号(人民广场地铁站10号口步行240米),121.472804,31.231407,021-63279900,4.4,[],文化地标|科技体验,上海市,上海市,黄浦区
B0FFFFROYU,西岸艺术中心,科教文化服务;美术馆;美术馆,140400,龙腾大道2555号(近丰谷路),121.461939,31.167719,,4.8,[],文化地标|科技体验|独处品质空间,上海市,上海市,徐汇区
B0KA3ARP4N,上海民生现代美术馆,科教文化服务;美术馆;美术馆,140400,威海路48号5-6层,121.470334,31.228449,021-60256700,4.6,[],文化地标|科技体验|独处品质空间,上海市,上海市,黄浦区
B0JA9MFYWG,西岸艺术中心N馆,科教文化服务;美术馆;美术馆,140400,龙腾大道2763号,121.462019,31.170546,,4.6,[],文化地标|科技体验|独处品质空间,上海市,上海市,徐汇区
B0G1B1AYZK,上海黄浦区东一美术馆,科教文化服务;美术馆;美术馆,140400,中山东一路1号1-3层,121.491257,31.233458,021-63306716,4.4,[],文化地标|科技体验|独处品质空间,上海市,上海市,黄浦区
B0HBBD3UW5,上海静安尤伦斯美术馆(暂停开放),科教文化服务;美术馆;美术馆,140400,西藏北路88号盈凯文创广场2层,121.472034,31.242110,021-66286861,4.6,[],文化地标|科技体验|独处品质空间,上海市,上海市,静安区
B00156EI00,上海油画雕塑院美术馆(暂停开放),科教文化服务;美术馆;美术馆,140400,金珠路111号(红宝石路地铁站2号口步行280米),121.400147,31.198708,021-62708433;021-62759930,4.4,[],文化地标|科技体验|独处品质空间,上海市,上海市,长宁区
B0FFMH4KQS,上海市徐汇区图书馆(徐家汇书院),科教文化服务;图书馆;图书馆,140500,漕溪北路158号(徐家汇地铁站出入口旁),121.437082,31.190430,021-64271320,[],[],文化地标|科技体验,上海市,上海市,徐汇区
B00155KHES,上海图书馆(淮海路馆),科教文化服务;图书馆;图书馆,140500,淮海中路1555号,121.444753,31.207334,021-64455555,[],[],文化地标|科技体验,上海市,上海市,徐汇区
B0FFK08VJI,上海少年儿童图书馆(长风馆),科教文化服务;图书馆;图书馆,140500,光复西路2500号,121.398286,31.220883,021-31063808,[],[],文化地标|科技体验,上海市,上海市,普陀区
B00155Q8KO,闵行区图书馆,科教文化服务;图书馆;图书馆,140500,名都路85号,121.388787,31.105340,021-64604108;021-64605993,[],[],文化地标|科技体验,上海市,上海市,闵行区
B0FFJ2U14Q,上海市黄浦区图书馆,科教文化服务;图书馆;图书馆,140500,福州路655号(人民广场地铁站15号口步行290米),121.478640,31.232282,021-63510176;021-63528877,[],[],文化地标|科技体验,上海市,上海市,黄浦区
B00155G6OZ,长宁区图书馆(天山总馆),科教文化服务;图书馆;图书馆,140500,天山路356号,121.388633,31.214930,021-33538801;021-33538868,4.1,[],文化地标|科技体验,上海市,上海市,长宁区
B00150E486,上海图书馆(徐家汇藏书楼),科教文化服务;图书馆;图书馆,140500,漕溪北路80号(徐家汇地铁站8号口步行70米),121.437753,31.192096,021-64874072;021-64874095,4.3,[],文化地标|科技体验,上海市,上海市,徐汇区
B0FFFHCE4P,塞万提斯图书馆,科教文化服务;图书馆;图书馆,140500,安福路208号,121.443692,31.214166,021-54670098,[],[],文化地标|科技体验,上海市,上海市,徐汇区
B0FFH0HNY0,长宁区少年儿童图书馆(东馆),科教文化服务;图书馆;图书馆,140500,愚园路1188号(江苏路地铁站6号口步行460米),121.426804,31.218996,021-62121696,[],[],文化地标|科技体验,上海市,上海市,长宁区
B0FFGFP11M,上海市静安区图书馆(新闸路馆),科教文化服务;图书馆;图书馆,140500,新闸路1708号,121.445129,31.228935,021-62530932,[],[],文化地标|科技体验,上海市,上海市,静安区
B00155LH6L,徐汇区漕河泾街道图书馆,科教文化服务;图书馆;图书馆,140500,康健路135号,121.425605,31.165499,021-64751197,[],[],文化地标|科技体验,上海市,上海市,徐汇区
B0IRRUGB7S,一见图书馆(滨江馆),科教文化服务;图书馆;图书馆,140500,瑞平路230号B1-005,121.455366,31.181667,,[],[],文化地标|科技体验,上海市,上海市,徐汇区
B00155KLGY,华东师范大学普陀校区图书馆,科教文化服务;图书馆;图书馆,140500,中山北路3663号,121.406582,31.228318,021-62232397;021-62232317,[],[],文化地标|科技体验,上海市,上海市,普陀区
B001559MWE,古美路街道图书馆,科教文化服务;图书馆;图书馆,140500,古美街道平阳路256号古美文化中心,121.405381,31.142372,021-54933850,[],[],文化地标|科技体验,上海市,上海市,闵行区
B001572JF5,浦东新区上钢新村街道图书馆,科教文化服务;图书馆;图书馆,140500,历城路75号,121.492774,31.175815,021-50898692,[],[],文化地标|科技体验,上海市,上海市,浦东新区
B00156NSI9,上海市黄浦区明复图书馆,科教文化服务;图书馆;图书馆,140500,陕西南路235号,121.461927,31.209047,021-64370835,4.3,[],文化地标|科技体验,上海市,上海市,黄浦区
B0FFFTTKJP,长征镇图书馆,科教文化服务;图书馆;图书馆,140500,梅川路1255号,121.382672,31.241514,021-52686809,[],[],文化地标|科技体验,上海市,上海市,普陀区
B00155LWRO,上海交通大学徐汇校区包兆龙图书馆,科教文化服务;图书馆;图书馆,140500,华山路1954号,121.433096,31.199802,021-62933225,[],[],文化地标|科技体验,上海市,上海市,徐汇区
B0JAF5N08C,蒲公英儿童图书馆(上海馆),科教文化服务;图书馆;图书馆,140500,嘉陵路与石龙路交叉口东南120米,121.431366,31.147893,13801640853,[],[],文化地标|科技体验,上海市,上海市,徐汇区
B0FFFP6URM,凌云路街道图书馆,科教文化服务;图书馆;图书馆,140500,梅陇路417号,121.419010,31.138181,,[],[],文化地标|科技体验,上海市,上海市,徐汇区
B00156QCKW,上海市中医文献馆,科教文化服务;图书馆;图书馆|科教文化服务;档案馆;档案馆,140500|140900,瑞金二路156号(近瑞金医院),121.466198,31.209586,021-64371505,[],[],文化地标|科技体验,上海市,上海市,黄浦区
B0K13Y55BM,一见图书馆(虹桥馆),科教文化服务;图书馆;图书馆,140500,仙霞西路88号百联西郊购物中心4层028号,121.370076,31.209045,,[],[],文化地标|科技体验,上海市,上海市,长宁区
B00155MY13,华东理工大学徐汇校区图书馆,科教文化服务;图书馆;图书馆,140500,梅陇路130号华东理工大学内,121.422055,31.142897,021-64253196,[],[],文化地标|科技体验,上海市,上海市,徐汇区
B0G2U967UW,江宁路街道图书馆,科教文化服务;图书馆;图书馆,140500,昌平路710号2层(昌平路地铁站5号口步行140米),121.442398,31.234829,,[],[],文化地标|科技体验,上海市,上海市,静安区
B0J1VD1KW2,北站艺术图书馆,科教文化服务;图书馆;图书馆,140500,西藏北路79号,121.471366,31.241902,,[],[],文化地标|科技体验,上海市,上海市,静安区
B0J35MVY65,徐家汇街道图书馆,科教文化服务;图书馆;图书馆,140500,南丹东路与天钥桥路交叉口东北140米,121.443109,31.190862,,[],[],文化地标|科技体验,上海市,上海市,徐汇区
B0JA9BFQRJ,闵行城市书房(益梅馆),科教文化服务;图书馆;图书馆,140500,益梅路91号5-102室,121.411690,31.133302,,4.0,[],文化地标|科技体验,上海市,上海市,闵行区
B0H099O117,黑石公寓·牧云记书院,科教文化服务;图书馆;图书馆,140500,复兴中路1331号黑石公寓一楼,121.452430,31.211038,,4.7,[],文化地标|科技体验,上海市,上海市,徐汇区
B00155GNST,新华街道图书馆,科教文化服务;图书馆;图书馆,140500,法华镇路453号,121.426913,31.204418,021-52300070;021-62947773,[],[],文化地标|科技体验,上海市,上海市,长宁区
B00156CPLJ,黄浦区半淞园路街道社区图书馆,科教文化服务;图书馆;图书馆,140500,西藏南路1360号二楼,121.486796,31.206934,021-63165937,[],[],文化地标|科技体验,上海市,上海市,黄浦区
B00155M0RI,江苏路街道图书馆,科教文化服务;图书馆;图书馆,140500,安西路45号4层,121.425898,31.219664,021-61253125,[],[],文化地标|科技体验,上海市,上海市,长宁区
B0L2MZYZHC,华东师范大学出版社24小时阅读空间,科教文化服务;图书馆;图书馆,140500,中山北路3663号华东师范大学逸夫楼一层,121.406666,31.226269,,[],[],文化地标|科技体验,上海市,上海市,普陀区
B0FFF2GK4Y,长桥街道图书馆,科教文化服务;图书馆;图书馆,140500,罗香路237号4层(罗秀路地铁站3号口步行460米),121.436710,31.134340,,[],[],文化地标|科技体验,上海市,上海市,徐汇区
B00155KR4W,华东政法大学长宁校区图书馆,科教文化服务;图书馆;图书馆,140500,万航渡路1575号华东政法大学,121.416678,31.225160,021-62071651,[],[],文化地标|科技体验,上海市,上海市,长宁区
B00155LTNQ,北新泾街道图书馆,科教文化服务;图书馆;图书馆,140500,新泾一村144号3楼,121.369109,31.218374,021-52175201,[],[],文化地标|科技体验,上海市,上海市,长宁区
B00156ZIGK,长宁区虹桥街道图书馆,科教文化服务;图书馆;图书馆,140500,虹桥路1115弄19号(宋园路地铁站1号口步行270米),121.410547,31.197599,021-22850783,[],[],文化地标|科技体验,上海市,上海市,长宁区
B001513483,浩清图书馆,科教文化服务;图书馆;图书馆,140500,田林东路588号,121.424829,31.172509,021-64755708,[],[],文化地标|科技体验,上海市,上海市,徐汇区
B0FFFZR64N,斜土路社区图书馆,科教文化服务;图书馆;图书馆,140500,大木桥路461号斜土社区文化活动中心2层,121.463041,31.195629,021-64165687,[],[],文化地标|科技体验,上海市,上海市,徐汇区
B00155M4E3,华阳路街道图书馆,科教文化服务;图书馆;图书馆,140500,安化路500号华阳社区文化中心3楼,121.420041,31.215691,021-62516559,[],[],文化地标|科技体验,上海市,上海市,长宁区
B0K30AUQIG,虹梅街道图书馆,科教文化服务;图书馆;图书馆,140500,全州路81号,121.407525,31.166098,021-34690389,[],[],文化地标|科技体验,上海市,上海市,徐汇区
B0FFFZJPQC,上海师范大学徐汇校区西部新图书馆,科教文化服务;图书馆;图书馆,140500,桂林路400号,121.415061,31.162499,021-64321055,[],[],文化地标|科技体验,上海市,上海市,徐汇区
B0FFKYAYLG,老西门街道社区图书馆,科教文化服务;图书馆;图书馆,140500,中华路990号,121.491019,31.214587,,[],[],文化地标|科技体验,上海市,上海市,黄浦区
B00155KWYZ,上海市中心图书馆长风新村街道服务点,科教文化服务;图书馆;图书馆,140500,枣阳路251弄-100,121.39908,31.234806,021-52669760,[],[],文化地标|科技体验,上海市,上海市,普陀区
B00155LHCT,东华大学延安路校区图书馆,科教文化服务;图书馆;图书馆,140500,延安西路1882号东华大学延安路校区,121.414521,31.204316,021-62373223;021-62373224,[],[],文化地标|科技体验,上海市,上海市,长宁区
B0FFHTMBU6,五里桥街道图书馆,科教文化服务;图书馆;图书馆,140500,龙华东路与富润路交叉口东南40米,121.475975,31.193975,021-63015135,[],[],文化地标|科技体验,上海市,上海市,黄浦区
B0FFK97O4V,闵行城市书房(春江悦馆),科教文化服务;图书馆;图书馆,140500,古美西路750号,121.386946,31.131792,021-54933850,4.2,[],文化地标|科技体验,上海市,上海市,闵行区
B0JDZA93SY,梅陇镇图书馆,科教文化服务;图书馆;图书馆,140500,高兴路108号5层、6层,121.405425,31.113825,,[],[],文化地标|科技体验,上海市,上海市,闵行区
B0FFFVL3QH,明天广场金威万豪酒店-图书馆,科教文化服务;图书馆;图书馆,140500,南京西路399号明天广场金威万豪酒店60层,121.469853,31.230433,,[],[],文化地标|科技体验,上海市,上海市,黄浦区
B00155LV9I,上海交通大学徐汇校区老图书馆,科教文化服务;图书馆;图书馆,140500,华山路1954号上海交通大学徐汇校区,121.435872,31.198923,021-62933281,[],[],文化地标|科技体验,上海市,上海市,徐汇区
B00155KKB0,南京东路街道社区图书馆,科教文化服务;图书馆;图书馆,140500,牯岭路111号,121.471792,31.236136,021-63581297,[],[],文化地标|科技体验,上海市,上海市,黄浦区
B0FFKV10TA,南京西路街道少年儿童图书馆,科教文化服务;图书馆;图书馆,140500,延安中路602号(南京西路地铁站8号口步行430米),121.462689,31.224193,021-63811165,[],[],文化地标|科技体验,上海市,上海市,静安区
B0FFF37AA5,上海交通大学医学院西区图书馆,科教文化服务;图书馆;图书馆,140500,重庆南路280号上海交通大学医学院西区,121.470518,31.211486,,[],[],文化地标|科技体验,上海市,上海市,黄浦区
B001525BC8,沪杏科技图书馆,科教文化服务;图书馆;图书馆,140500,虹桥路2216号(近虹梅路),121.379062,31.192828,021-62629080,[],[],文化地标|科技体验,上海市,上海市,长宁区
B0FFI18RDS,上海应用技术大学图书馆,科教文化服务;图书馆;图书馆,140500,漕宝路120号应用技术学院内(近漕宝路),121.423081,31.166208,021-64941374,[],[],文化地标|科技体验,上海市,上海市,徐汇区
B00156YLDB,复旦大学上海医学院康泉图书馆,科教文化服务;图书馆;图书馆,140500,东安路130号(肇嘉浜路地铁站3号口步行350米),121.449303,31.196010,021-64175173,[],[],文化地标|科技体验,上海市,上海市,徐汇区
B0KAZRKMS2,莘庄图书馆,科教文化服务;图书馆;图书馆,140500,龙茗路128号2层(外环路地铁站北2口步行490米),121.391235,31.124695,,[],[],文化地标|科技体验,上海市,上海市,闵行区
B0FFGIQOPC,上海交通大学徐汇校区图书馆(社科馆),科教文化服务;图书馆;图书馆,140500,华山路1954号上海交通大学新上院109室,121.434314,31.199656,,[],[],文化地标|科技体验,上海市,上海市,徐汇区
B00155LZJ2,石门二路社区图书馆,科教文化服务;图书馆;图书馆,140500,康定东路85号,121.456156,31.237269,021-52135716,[],[],文化地标|科技体验,上海市,上海市,静安区
B00156O2K7,乐乐图书楼,科教文化服务;图书馆;图书馆,140500,陕西南路235号明复图书馆(后面一幢楼),121.461896,31.209251,,[],[],文化地标|科技体验,上海市,上海市,黄浦区
B00156GU29,上海市中心图书馆非物质文化遗产分馆,科教文化服务;图书馆;图书馆,140500,古宜路125号(宜山路地铁站10号口步行320米),121.424736,31.185556,021-54244160,[],[],文化地标|科技体验,上海市,上海市,徐汇区
B0JALPYP9M,滨江文脉园24小时自助图书馆,科教文化服务;图书馆;图书馆,140500,前滩大道与华夏西路辅道交叉口西北240米,121.460104,31.146515,,[],[],文化地标|科技体验,上海市,上海市,浦东新区
B0L2SS5P6M,纯真会客厅,科教文化服务;图书馆;图书馆,140500,恒丰路18号0101室(臻逸恒丰服务式公寓内),121.457875,31.239125,,[],[],文化地标|科技体验,上海市,上海市,静安区
B00156TKVE,上海市徐汇区湖南街道图书馆,科教文化服务;图书馆;图书馆,140500,乌鲁木齐中路164号,121.445039,31.213799,021-64332396,[],[],文化地标|科技体验,上海市,上海市,徐汇区
B0LGHZNXTK,南京西路街道图书馆,科教文化服务;图书馆;图书馆,140500,升平街33号(南京西路地铁站12号口步行300米),121.461346,31.225184,021-63400145,[],[],文化地标|科技体验,上海市,上海市,静安区
B00155G0JA,上海图书馆莘庄书库,科教文化服务;图书馆;图书馆,140500,莘西路402号,121.372624,31.107015,,[],[],文化地标|科技体验,上海市,上海市,闵行区
B0JUMG4XJ0,新页书房非遗主题馆,科教文化服务;图书馆;图书馆,140500,北渔路与天山西路交叉口西南40米,121.372284,31.216757,,3.9,[],文化地标|科技体验|独处品质空间,上海市,上海市,长宁区
B0KA6MGLK4,独角兽图书馆,科教文化服务;图书馆;图书馆,140500,大华清水湾花园西2门旁,121.413158,31.226856,,[],[],文化地标|科技体验,上海市,上海市,普陀区
B0LRGUTOVR,周家桥街道图书馆,科教文化服务;图书馆;图书馆,140500,玉屏南路560弄78号,121.402825,31.215175,,[],[],文化地标|科技体验,上海市,上海市,长宁区
B0K30AUQIH,康健新村街道图书馆,科教文化服务;图书馆;图书馆,140500,浦北路988号三楼,121.413131,31.151902,,[],[],文化地标|科技体验,上海市,上海市,徐汇区
B001507B01,上海图书馆龙吴路书库,科教文化服务;图书馆;图书馆,140500,龙吴路1106号,121.451194,31.145717,,[],[],文化地标|科技体验,上海市,上海市,徐汇区
B0K30AUQIJ,漕河泾街道图书馆石龙分馆,科教文化服务;图书馆;图书馆,140500,龙川北路777号,121.437331,31.151914,,[],[],文化地标|科技体验,上海市,上海市,徐汇区
B00155LXGQ,上海对外经贸大学古北校区图书馆,科教文化服务;图书馆;图书馆,140500,古北路620号上海对外经贸大学古北校区,121.398669,31.207138,021-52067383,[],[],文化地标|科技体验,上海市,上海市,长宁区
B0L3X129LK,徐家汇书院少年儿童馆,科教文化服务;图书馆;图书馆,140500,蒲西路与紫阳路交叉口东南60米(徐家汇地铁站出入口旁),121.437201,31.190521,,[],[],文化地标|科技体验,上海市,上海市,徐汇区
B00157I0YY,新丰社区图书馆,科教文化服务;图书馆;图书馆,140500,外冈镇金沙江路新丰社区金丰新村,121.359151,31.240987,,[],[],文化地标|科技体验,上海市,上海市,嘉定区
B001574Z9K,上海社会科学院-图书馆,科教文化服务;图书馆;图书馆,140500,中山西路1610号,121.422298,31.186051,021-64862266,[],[],文化地标|科技体验,上海市,上海市,徐汇区
B00155E905,上海市工人文化宫图书馆阅览室,科教文化服务;图书馆;图书馆,140500,西藏中路120号上海市工人文化宫4层,121.477673,31.23051,021-63226155,[],[],文化地标|科技体验,上海市,上海市,黄浦区
B0FFFDD5KE,上海交通大学徐汇校区图书馆(储备书库),科教文化服务;图书馆;图书馆,140500,华山路1954号上海交通大学徐汇校区,121.43107,31.198512,,[],[],文化地标|科技体验,上海市,上海市,徐汇区
B00155D62V,上海交通大学七宝校区图书馆,科教文化服务;图书馆;图书馆,140500,七莘路2678号上海交通大学七宝校区内,121.356824,31.148226,,[],[],文化地标|科技体验,上海市,上海市,闵行区
B00155LZ8P,上海戏剧学院图书馆,科教文化服务;图书馆;图书馆,140500,华山路630号上海戏剧学院内(近镇宁路),121.441037,31.217702,021-62482920,[],[],文化地标|科技体验,上海市,上海市,静安区
B00156O1J7,复旦中学图书馆,科教文化服务;图书馆;图书馆,140500,华山路1626号(交通大学地铁站5号口步行210米),121.434157,31.203015,021-62800172,[],[],文化地标|科技体验,上海市,上海市,长宁区
B0FFFZJCK8,上海市中心图书馆徐汇区田林街道服务点,科教文化服务;图书馆;图书馆,140500,田林东路588-2号附近,121.424756,31.172373,,[],[],文化地标|科技体验,上海市,上海市,徐汇区
B0JBXZQ8VX,世博专题图书馆,科教文化服务;图书馆;图书馆,140500,龙华东路418号上海世博会博物馆内,121.481912,31.195357,,[],[],文化地标|科技体验,上海市,上海市,黄浦区
B00157HYEB,上海时尚产业主题图书馆,科教文化服务;图书馆;图书馆,140500,长寿路652号景源时尚产业园上海国际时尚教育中心内F座2层,121.432338,31.238292,021-62771443,[],[],文化地标|科技体验,上海市,上海市,普陀区
B00156OCO8,龙柏西郊幼儿园,科教文化服务;图书馆;图书馆,140500,红松路700弄30号(红松路兰竹路),121.359889,31.179339,021-64494727,0.0,[],文化地标|科技体验,上海市,上海市,闵行区
B00157HY1S,闵行区图书馆城市街区自助图书馆(名都路),科教文化服务;图书馆;图书馆,140500,名都路85附近,121.389189,31.105755,,[],[],文化地标|科技体验,上海市,上海市,闵行区
B0FFGYZ629,上海科技大学岳阳路校区生命科学图书馆,科教文化服务;图书馆;图书馆,140500,上海科技大学岳阳路校区,121.453550,31.202294,,[],[],文化地标|科技体验,上海市,上海市,徐汇区
B0J02AOO82,Push up全都是书双语阅读馆,科教文化服务;图书馆;图书馆,140500,春眺路47、49号,121.471611,31.146593,,[],[],文化地标|科技体验,上海市,上海市,浦东新区
B0IG1RGLC2,龙兆苑阅览室,科教文化服务;图书馆;图书馆,140500,·龙兆苑西北1门东110米(龙漕路地铁站7号口步行370米),121.446994,31.170887,,[],[],文化地标|科技体验,上海市,上海市,徐汇区
B00155I9CK,四明居委图书室,科教文化服务;图书馆;图书馆,140500,愚园路520弄28号,121.438746,31.222176,,[],[],文化地标|科技体验,上海市,上海市,静安区
B0HKVH9ECB,上海师范大学徐汇校区西部老图书馆,科教文化服务;图书馆;图书馆,140500,桂林路100号上海师范大学徐汇校区,121.415175,31.161925,,[],[],文化地标|科技体验,上海市,上海市,徐汇区
B0LBCC9WM3,无尽意图书馆,科教文化服务;图书馆;图书馆,140500,龙华路与后马路交叉口西120米,121.451657,31.174042,,[],[],文化地标|科技体验,上海市,上海市,徐汇区
B0GKGC9V4O,上海音乐学院汾阳校区图书馆,科教文化服务;图书馆;图书馆,140500,汾阳路20号上海音乐学院(汾阳校区),121.454875,31.212975,,[],[],文化地标|科技体验,上海市,上海市,徐汇区
B00155MVK5,狮城居委会廉政文化图书室,科教文化服务;图书馆;图书馆,140500,龙吴路90-94号附近,121.445102,31.170158,,[],[],文化地标|科技体验,上海市,上海市,徐汇区
B0M6967I11,古美图书馆(西馆),科教文化服务;图书馆;图书馆,140500,合川路与顾戴路交叉口北160米,121.391325,31.141775,,[],[],文化地标|科技体验,上海市,上海市,闵行区
B0JRXR4SLD,上海纽约大学图书馆,科教文化服务;图书馆;图书馆,140500,高青西路600号5楼、6楼,121.481846,31.149190,021-20595000,[],[],文化地标|科技体验,上海市,上海市,浦东新区
B0FFG8UA1G,古美高级中学图书馆,科教文化服务;图书馆;图书馆,140500,古美高级中学西南门旁,121.383436,31.149723,,[],[],文化地标|科技体验,上海市,上海市,闵行区
B001543697,上海少年儿童图书馆(南西馆),科教文化服务;图书馆;图书馆,140500,南京西路962号(南京西路地铁站1号口步行50米),121.457973,31.229835,,[],[],文化地标|科技体验,上海市,上海市,静安区
B00155HM1Y,虹桥文化中心图书馆,科教文化服务;图书馆;图书馆,140500,万源路2800虹桥文化中心2层,121.386609,31.174039,,[],[],文化地标|科技体验,上海市,上海市,闵行区
B0L0D6LGZE,ASE艺术图书馆,科教文化服务;图书馆;图书馆,140500,茂名南路与复兴中路交叉口东南100米,121.463125,31.213425,,[],[],文化地标|科技体验,上海市,上海市,黄浦区
B0J1VY7JTO,华东师范大学普陀校区老图书馆,科教文化服务;图书馆;图书馆,140500,中山北路3663号华东师范大学普陀校区,121.405929,31.228919,,[],[],文化地标|科技体验,上海市,上海市,普陀区
B0M6VHJ1LH,曹家渡街道图书馆,科教文化服务;图书馆;图书馆,140500,曹家渡街道万航渡路676弄46号,121.431726,31.226204,,[],[],文化地标|科技体验,上海市,上海市,静安区
B00155KH6B,江宁路街道众乐里里弄图书室,科教文化服务;图书馆;图书馆,140500,陕西北路653弄2-10号众乐新村,121.450655,31.233289,,[],[],文化地标|科技体验,上海市,上海市,静安区
B0FFGY68DX,上海图书馆站3号口寄存点,科教文化服务;图书馆;图书馆|生活服务;生活服务场所;生活服务场所,140500|070000,淮海中路与湖南路交叉口西40米,121.442975,31.207375,,[],[],文化地标|科技体验,上海市,上海市,徐汇区
B0M65DJ31I,虹桥镇图书馆,科教文化服务;图书馆;图书馆,140500,白樟路与吴中路交叉口南100米,121.369367,31.170500,,[],[],文化地标|科技体验,上海市,上海市,闵行区
B0L3O10A8Y,莫胖图书馆,科教文化服务;图书馆;图书馆,140500,红松东路与虹中路交叉口西南40米,121.381625,31.183225,,[],[],文化地标|科技体验,上海市,上海市,闵行区
B0L2MZYK8E,上海儿童博物馆“草婴书屋”,科教文化服务;图书馆;图书馆,140500,宋园路61号2楼,121.412939,31.193776,,[],[],文化地标|科技体验,上海市,上海市,长宁区
B0015777XL,复旦大学附属眼耳鼻喉科医院图书馆,科教文化服务;图书馆;图书馆,140500,汾阳路83号,121.453650,31.208567,,[],[],文化地标|科技体验,上海市,上海市,徐汇区
B0FFLEOT02,上海工程技术大学长宁校区图书馆,科教文化服务;图书馆;图书馆,140500,仙霞新村街道仙霞路350号上海工程技术大学长宁校区,121.397771,31.205253,,[],[],文化地标|科技体验,上海市,上海市,长宁区
B0L3HLB2I9,上海图书馆上海科学技术情报研究所教育培训中心,科教文化服务;图书馆;图书馆,140500,淮海中路1411-1413号,121.448075,31.210055,,[],[],文化地标|科技体验,上海市,上海市,徐汇区
B0K3USM6Q8,WAD豪宅物料图书馆(装修中),科教文化服务;图书馆;图书馆,140500,真北路1208号红星美凯龙全球1号店南馆6楼H8153-1,121.385575,31.237675,,2.9,[],文化地标|科技体验,上海市,上海市,普陀区
B00157I4ZK,上海市黄浦区盲人图书馆,科教文化服务;图书馆;图书馆,140500,瞿溪路1111弄26号,121.478488,31.205207,021-63019105,[],[],文化地标|科技体验,上海市,上海市,黄浦区
B0J677SKQD,华东政法大学长宁校区红楼图书馆,科教文化服务;图书馆;图书馆,140500,万航渡路1575号华东政法大学(长宁校区),121.417333,31.224709,,[],[],文化地标|科技体验,上海市,上海市,长宁区
B0L2SS60I2,淞畔璟阅,科教文化服务;图书馆;图书馆,140500,西藏南路1699弄城方黄浦璟湾社区3-2栋一楼,121.491118,31.200561,,[],[],文化地标|科技体验,上海市,上海市,黄浦区
B0L2MAYJWR,里滩书房,科教文化服务;图书馆;图书馆,140500,中山南一路727号,121.479166,31.198295,,3.5,[],文化地标|科技体验|独处品质空间,上海市,上海市,黄浦区
B00155LAY5,美国高等教育资源图书馆,科教文化服务;图书馆;图书馆,140500,安福路201号,121.443320,31.213774,,[],[],文化地标|科技体验,上海市,上海市,徐汇区
B0L2MAZEH0,果育里·一书一房,科教文化服务;图书馆;图书馆,140500,昼锦路222号,121.490395,31.223822,,[],[],文化地标|科技体验,上海市,上海市,黄浦区
B0L2MAY05C,萤火虫书屋,科教文化服务;图书馆;图书馆,140500,中山南一路468号甲三楼,121.484313,31.199278,,3.7,[],文化地标|科技体验|独处品质空间,上海市,上海市,黄浦区
B0L2MZYK8H,辅德里FUN书房,科教文化服务;图书馆;图书馆,140500,大沽路379号辅德里公园内,121.466674,31.224804,,3.2,[],文化地标|科技体验|独处品质空间,上海市,上海市,静安区
B0L2MZYZH9,“书香·悦”书屋,科教文化服务;图书馆;图书馆,140500,万航渡路676弄46号二层,121.431664,31.226190,,3.5,[],文化地标|科技体验|独处品质空间,上海市,上海市,静安区
B0L2MZYK8L,“征新”丽人书屋,科教文化服务;图书馆;图书馆,140500,中江路875号二楼,121.391762,31.234918,,3.3,[],文化地标|科技体验|独处品质空间,上海市,上海市,普陀区
B0L2MZYK8K,长乐书房,科教文化服务;图书馆;图书馆,140500,宜昌路555号三楼,121.434166,31.244477,,3.3,[],文化地标|科技体验|独处品质空间,上海市,上海市,普陀区
B0L2MZZESF,华东师范大学·纯真童心书屋,科教文化服务;图书馆;图书馆,140500,中山北路3663号华东师范大学田家炳楼914室,121.406619,31.230809,,3.0,[],文化地标|科技体验|独处品质空间,上海市,上海市,普陀区
B0L2MAY05B,艺启淡水+,科教文化服务;图书馆;图书馆,140500,淡水路244号,121.473151,31.216959,,3.0,[],文化地标|科技体验,上海市,上海市,黄浦区
B0MBT4AC9M,龙柏西郊公寓-图书室,科教文化服务;图书馆;图书馆,140500,红松路与兰竹路交叉口西北60米,121.360486,31.179598,,[],[],文化地标|科技体验,上海市,上海市,闵行区
B00156EH5K,上海市普陀区科技馆,科教文化服务;科技馆;科技馆,140600,曹杨路500号(近白玉路)(曹杨路地铁站2号口步行130米),121.418735,31.237658,,4.4,[],文化地标|科技体验,上海市,上海市,普陀区
B00155GIQG,上海青少年科技探索馆,科教文化服务;科技馆;科技馆,140600,建国西路137号,121.463326,31.206713,021-54656808,4.2,[],文化地标|科技体验,上海市,上海市,黄浦区
B0FFGFASKL,闵行体育公园多肉植物科普园,科教文化服务;科技馆;科技馆,140600,七宝镇农南路55号(闵行体育公园3号门),121.370355,31.148405,,4.1,[],文化地标|科技体验,上海市,上海市,闵行区
B00155LWRN,上海交通大学哲生馆,科教文化服务;科技馆;科技馆,140600,华山路1954号上海交通大学徐汇校区,121.432983,31.200279,,4.0,[],文化地标,上海市,上海市,徐汇区
B0H6P6KB7O,棒棒贝贝科技活动中心(大木桥分部),科教文化服务;科技馆;科技馆,140600,斜土路之俊大厦一层106室(嘉善路地铁站4号口步行260米),121.461455,31.199283,18601659056,[],[],文化地标|科技体验,上海市,上海市,徐汇区
B0JD0OU3WF,凌云街道碳汇科普馆,科教文化服务;科技馆;科技馆,140600,老沪闵路与嘉川路交叉口东南180米,121.431223,31.138389,,3.9,[],文化地标,上海市,上海市,徐汇区
B0FFFTTYIE,长征镇科普活动中心,科教文化服务;科技馆;科技馆,140600,梅川路1255号,121.383075,31.242075,,[],[],文化地标,上海市,上海市,普陀区
B00155LU43,上海民防科普教育馆,科教文化服务;科技馆;科技馆,140600,复兴中路593号民防大厦7-10层,121.4647,31.214073,021-24028008,4.2,[],文化地标,上海市,上海市,黄浦区
B001570LD7,上海交通大学徐汇校区科学馆,科教文化服务;科技馆;科技馆,140600,华山路1954号上海交通大学(徐汇校区)科学馆,121.433000,31.200230,,3.6,[],文化地标,上海市,上海市,徐汇区
B001532D89,中国科学院上海天文台,科教文化服务;天文馆;天文馆,140700,南丹路80天文大厦(徐家汇地铁站1号口步行290米),121.433971,31.188408,021-64386191,4.5,[],文化地标,上海市,上海市,徐汇区
B00155IAA4,外滩天文台,科教文化服务;天文馆;天文馆,140700,中山东二路1号甲,121.492273,31.233133,,4.2,[],文化地标,上海市,上海市,黄浦区
B00155QXTH,梅赛德斯-奔驰文化中心,科教文化服务;文化宫;文化宫,140800,世博大道1200号,121.493397,31.188847,021-38996688,4.7,[],文化地标,上海市,上海市,浦东新区
B00157HTI7,上海虹桥艺术中心,科教文化服务;文化宫;文化宫,140800,天山路888号娄山关路地铁站旁,121.404053,31.211687,021-52066600,4.8,28.00,文化地标,上海市,上海市,长宁区
B0HAL54MUG,西岸穹顶艺术中心,科教文化服务;文化宫;文化宫,140800,龙腾大道2300号,121.464561,31.163167,,[],[],文化地标,上海市,上海市,徐汇区
B0FFG0685M,上海市工人文化宫,科教文化服务;文化宫;文化宫|科教文化服务;培训机构;培训机构,140800|141400,西藏中路120号(近北海路),121.478028,31.230500,021-63226155;021-63526166,3.9,[],文化地标,上海市,上海市,黄浦区
B00155IVYR,中国福利会少年宫(延安西路),科教文化服务;文化宫;文化宫,140800,延安西路64号(贵都酒店对面),121.443696,31.221063,021-62481850;021-62494074,4.5,[],文化地标,上海市,上海市,静安区
B00152B8EB,静安区文化馆,科教文化服务;文化宫;文化宫,140800,乌鲁木齐北路459号(乌鲁木齐北路与延安西路交口旁),121.444013,31.218906,021-62491900,4.3,[],文化地标,上海市,上海市,静安区
B00155I7DA,青少年活动中心(汉中路店),科教文化服务;文化宫;文化宫,140800,汉中路188号(汉中路地铁站1号口步行60米),121.457566,31.242034,021-63535988,[],[],文化地标,上海市,上海市,静安区
B00153ADA8,普陀区文化馆,科教文化服务;文化宫;文化宫,140800,兰溪路138号,121.405454,31.239684,021-62160166;021-62971256,[],[],文化地标,上海市,上海市,普陀区
B0FFMFR1R4,黄浦文化中心,科教文化服务;文化宫;文化宫,140800,中华路980号,121.491984,31.214549,021-64152277,[],[],文化地标,上海市,上海市,黄浦区
B00155GOHQ,徐汇区文化馆,科教文化服务;文化宫;文化宫,140800,罗香路237号(罗秀路地铁站3号口步行450米),121.436737,31.134168,,[],[],文化地标,上海市,上海市,徐汇区
B00155BWI8,徐汇区青少年活动中心(田林分部),科教文化服务;文化宫;文化宫,140800,田林东路8号(近漕溪路),121.434497,31.175157,021-54894740,[],[],文化地标,上海市,上海市,徐汇区
B00156QKUO,长宁区少年宫(东部分校),科教文化服务;文化宫;文化宫,140800,愚园路1182号(江苏路地铁站6号口步行410米),121.427295,31.219188,021-62524154,[],[],文化地标,上海市,上海市,长宁区
B0FFFZRKM7,上海打浦桥社区职工文化活动中心,科教文化服务;文化宫;文化宫,140800,蒙自路223号(马当路地铁站3号口步行430米),121.478447,31.205258,021-63038164;021-63050864,[],[],文化地标,上海市,上海市,黄浦区
B00156F3MY,徐家汇社区文化活动中心,科教文化服务;文化宫;文化宫,140800,南丹东路109-7号,121.443140,31.190880,,[],[],文化地标,上海市,上海市,徐汇区
B00155HN63,上海市总工会静安区工人文化宫,科教文化服务;文化宫;文化宫,140800,常德路940号文化宫综合楼7层,121.442452,31.234861,021-62586154,[],[],文化地标,上海市,上海市,静安区
B00155MPGJ,上海市浦东新区浦南文化馆(杨新路),科教文化服务;文化宫;文化宫,140800,杨新路61号,121.494601,31.163836,021-68328259,[],[],文化地标,上海市,上海市,浦东新区
B0FFGYOTS5,上海市普陀区青少年教育活动中心,科教文化服务;文化宫;文化宫,140800,枣阳路108号,121.404635,31.236605,,[],[],文化地标,上海市,上海市,普陀区
B00155Q8KM,上海市闵行区青少年活动中心,科教文化服务;文化宫;文化宫,140800,珠城路168号,121.388632,31.105118,021-54604660,[],[],文化地标,上海市,上海市,闵行区
B00156NVGU,上海市黄浦区青少年科技活动中心,科教文化服务;文化宫;文化宫,140800,建国西路137号(近陕西南路),121.463300,31.206752,,[],[],文化地标,上海市,上海市,黄浦区
B0FFL1C7EB,江宁路街道社区文化活动中心,科教文化服务;文化宫;文化宫,140800,昌平路710号(昌平路地铁站5号口步行140米),121.442309,31.234794,021-62662559;021-62998992,[],[],文化地标,上海市,上海市,静安区
B001559ZEJ,上海市黄浦区青少年艺术活动中心(福州路),科教文化服务;文化宫;文化宫|科教文化服务;培训机构;培训机构,140800|141400,南京东路街道福州路539号青少年艺术活动中心,121.480431,31.232783,021-63514670,[],[],文化地标,上海市,上海市,黄浦区
B00156NU99,长征社区文化活动中心,科教文化服务;文化宫;文化宫,140800,梅川路1255号北楼1002室,121.382748,31.241488,021-52686893,[],[],文化地标,上海市,上海市,普陀区
B0FFL0X45L,少林功夫文化中心,科教文化服务;文化宫;文化宫,140800,武定西路1418-1号,121.431167,31.224597,021-62050110;18601673340,4.8,[],文化地标,上海市,上海市,静安区
B001516A58,华阳社区文化中心,科教文化服务;文化宫;文化宫,140800,安化路500号,121.420108,31.215740,021-62407441,[],[],文化地标,上海市,上海市,长宁区
B00154J21K,上海市静安区青少年活动中心,科教文化服务;文化宫;文化宫,140800,胶州路15号(近久光百货)(静安寺地铁站2号口步行360米),121.444673,31.225045,021-62156738,[],[],文化地标,上海市,上海市,静安区
B0FFGIQAZY,曹杨社区文化活动中心,商务住宅;住宅区;社区中心|科教文化服务;文化宫;文化宫,120304|140800,杏山路317号,121.406371,31.236459,021-52660917,[],[],文化地标,上海市,上海市,普陀区
B0FFJXCQ4B,徐汇区青少年活动中心(虹漕分部),科教文化服务;文化宫;文化宫,140800,虹漕南路308号,121.413508,31.157021,021-64844161,[],[],文化地标,上海市,上海市,徐汇区
B0015575PL,上海市黄浦区青少年艺术活动中心(文庙路分部),科教文化服务;文化宫;文化宫,140800,文庙路273号(老西门地铁站7号口步行360米),121.486766,31.217241,021-63765995,[],[],文化地标,上海市,上海市,黄浦区
B00155KSNH,长风社区文化活动中心,科教文化服务;文化宫;文化宫,140800,枣阳路251弄100号,121.399270,31.234569,,[],[],文化地标,上海市,上海市,普陀区
B0FFHP7M5X,淮海社区文化活动中心,科教文化服务;文化宫;文化宫,140800,马当路349-2临附近,121.475557,31.213912,021-53831170,[],[],文化地标,上海市,上海市,黄浦区
B0H1U10PNI,上海静安洲际酒店会场,科教文化服务;文化宫;文化宫,140800,恒丰路500号洲际办公楼B1层,121.453675,31.244725,,[],[],文化地标,上海市,上海市,静安区
B0FFG4J3QP,斜土社区文化活动中心(大木桥路),科教文化服务;文化宫;文化宫,140800,大木桥路地铁站4号口步行170米,121.463280,31.195695,021-64043036,[],[],文化地标,上海市,上海市,徐汇区
B00150F4A9,徐汇区青少年活动中心(高安分中心),科教文化服务;文化宫;文化宫,140800,高安路18弄1-25号(衡山路地铁站2号口步行250米),121.444086,31.203719,021-64156766;021-64375796,[],[],文化地标,上海市,上海市,徐汇区
B0J2Y5MG2I,玛尼林卡文化中心,科教文化服务;文化宫;文化宫,140800,长风新村街道曹杨路535号汇融商场4楼405,121.418186,31.236618,15216841113,[],[],文化地标,上海市,上海市,普陀区
B001547587,普陀少年城,科教文化服务;文化宫;文化宫,140800,枣阳路108号,121.405211,31.237182,021-62578899,[],[],文化地标,上海市,上海市,普陀区
B00152FD7D,虹桥文化中心,科教文化服务;文化宫;文化宫,140800,万源路2800号,121.386542,31.174367,021-64056200,[],[],文化地标,上海市,上海市,闵行区
B0LKKZN7Z6,徐汇区青少年活动中心(STEM教育分中心),科教文化服务;文化宫;文化宫,140800,宾南路181号,121.434823,31.162301,,[],[],文化地标,上海市,上海市,徐汇区
B0H1UL00YX,飞悦采耳文化馆(娄山关路店),科教文化服务;文化宫;文化宫,140800,娄山关路888号2楼,121.405055,31.215359,021-53555070;15207276377,4.4,223.00,文化地标,上海市,上海市,长宁区
B0FFH2DKQZ,天平社区文化活动中心,科教文化服务;文化宫;文化宫,140800,广元路153-7号,121.439502,31.198875,,[],[],文化地标,上海市,上海市,徐汇区
B0FFL9RH4B,豫园社区文化活动中心,商务住宅;住宅区;社区中心|科教文化服务;文化宫;文化宫|政府机构及社会团体;政府及社会团体相关;政府及社会团体相关,120304|140800|130000,傅家街65号,121.493552,31.223825,021-63303031;021-63303062,[],[],文化地标,上海市,上海市,黄浦区
B00155MTHP,徐汇区青少年活动中心凌云分中心(凌云分部),科教文化服务;文化宫;文化宫,140800,梅陇三村48号,121.417785,31.136219,021-54392474,[],[],文化地标,上海市,上海市,徐汇区
B00155HX3W,程家桥社区文化活动中心,科教文化服务;文化宫;文化宫,140800,哈密路1955号4-5楼,121.368495,31.194687,021-22300051,[],[],文化地标,上海市,上海市,长宁区
B00155I8BN,上钢社区文化活动中心,科教文化服务;文化宫;文化宫,140800,昌里路335号201室(长清路地铁站7号口步行300米),121.490911,31.174200,,[],[],文化地标,上海市,上海市,浦东新区
B0FFHG8ZTQ,长桥社区文化活动中心,科教文化服务;文化宫;文化宫,140800,罗香路237号(罗秀路地铁站3号口步行460米),121.436720,31.134328,,[],[],文化地标,上海市,上海市,徐汇区
B0FFIH7JZ7,卢湾教育文体中心,科教文化服务;培训机构;培训机构|科教文化服务;文化宫;文化宫,141400|140800,打浦桥街道打浦桥街道打浦桥街道打浦桥街道斜土路885号,121.469541,31.202077,021-63056603,4.5,[],文化地标,上海市,上海市,黄浦区
B00155NDIN,仙霞社区文化中心,科教文化服务;文化宫;文化宫,140800,仙霞路435弄5号,121.393238,31.206236,021-62337559,[],[],文化地标,上海市,上海市,长宁区
B0HAKXLBR6,上汽荣威儿童文化中心(苗江路店),科教文化服务;文化宫;文化宫,140800,苗江路与半淞园路交叉口东南200米,121.494690,31.196289,021-53219090;021-63338993,[],[],文化地标,上海市,上海市,黄浦区
B0FFJO5GPZ,汉龙文化中心(古北校区),科教文化服务;文化宫;文化宫,140800,延安西路2633号美丽华商务中心C207室,121.392582,31.197537,021-62751881,[],[],文化地标,上海市,上海市,长宁区
B0015429FD,古美文化活动中心,科教文化服务;文化宫;文化宫,140800,平阳路256号,121.405363,31.142312,021-54933850,[],[],文化地标,上海市,上海市,闵行区
B0FFGSQSNP,徐汇区湖南街道社区文化活动中心,科教文化服务;文化宫;文化宫,140800,乌鲁木齐中路164号(常熟路地铁站8号口步行490米),121.445391,31.213674,021-64337248,[],[],文化地标,上海市,上海市,徐汇区
B0015726F6,南京西路街道社区文化中心,科教文化服务;文化宫;文化宫,140800,南京西路591弄5号(黄陂南路建国东路),121.466046,31.230011,021-62178662,[],[],文化地标,上海市,上海市,静安区
B00155BNQ0,西南文化艺术中心,科教文化服务;文化宫;文化宫,140800,罗香路237号(罗秀路地铁站3号口步行440米),121.436533,31.134390,,[],[],文化地标,上海市,上海市,徐汇区
B0LB2HPP2C,仙霞社区文化中心,科教文化服务;文化宫;文化宫,140800,仙霞路579弄38号,121.388700,31.208651,,[],[],文化地标,上海市,上海市,长宁区
B0G3O1CQTS,静安区江宁路街道社区文化活动中心,科教文化服务;文化宫;文化宫,140800,西苏州路71号,121.452066,31.241125,,[],[],文化地标,上海市,上海市,静安区
B001571QHT,静安区青少年活动中心科创梦之家,科教文化服务;文化宫;文化宫,140800,上海戏剧学院附属高级中学西门旁,121.441716,31.232201,,[],[],文化地标,上海市,上海市,静安区
B0L3UBFMZH,黄浦·里滩文化中心,科教文化服务;文化宫;文化宫,140800,局门路689号,121.486025,31.195125,13701706973,[],[],文化地标,上海市,上海市,黄浦区
B0LBL5NALD,徐家汇社区文化活动分中心,科教文化服务;文化宫;文化宫,140800,宜山路50弄2号,121.430826,31.191978,,[],[],文化地标,上海市,上海市,徐汇区
B00156ZM0T,龙二居委综合文化活动室,科教文化服务;文化宫;文化宫,140800,天钥桥路7临965号(上海体育场地铁站3号口步行390米),121.444712,31.183179,,[],[],文化地标,上海市,上海市,徐汇区
B0015575G3,淮海社区之家,商务住宅;住宅区;社区中心|科教文化服务;文化宫;文化宫,120304|140800,马当路349号(一大会址·新天地地铁站4号口步行150米),121.475517,31.214042,,[],[],文化地标,上海市,上海市,黄浦区
B00156GLMY,南西社区文化活动中心,科教文化服务;文化宫;文化宫,140800,南京西路591弄3号,121.466236,31.229906,,[],[],文化地标,上海市,上海市,静安区
B00151FCC2,长宁区新泾镇社区文化活动中心,科教文化服务;文化宫;文化宫,140800,淞虹路650弄-2号,121.362475,31.212675,,[],[],文化地标,上海市,上海市,长宁区
B0FFG77Z8C,长征镇青少年活动中心,科教文化服务;文化宫;文化宫,140800,梅川路1255号,121.382672,31.241514,,[],[],文化地标,上海市,上海市,普陀区
B0FFHA14ZA,徐汇区青少年活动中心(乌鲁木齐中路分部),科教文化服务;文化宫;文化宫,140800,乌鲁木齐中路164号,121.445233,31.213863,,[],[],文化地标,上海市,上海市,徐汇区
B0FFKSTRS6,弘御文化馆,政府机构及社会团体;社会团体;行业协会|科教文化服务;文化宫;文化宫,130407|140800,中山北路2911号中关村科技大厦辅楼518,121.416885,31.240844,,[],[],文化地标,上海市,上海市,普陀区
B0FFFONQ59,汉都文化中心,科教文化服务;文化宫;文化宫,140800,新华路349号附近,121.425727,31.203240,,[],[],文化地标,上海市,上海市,长宁区
B0FFHPC47Z,上海师范大学第三附属实验学校学校少年宫,科教文化服务;文化宫;文化宫,140800,南宁路721-1号附近,121.438272,31.161951,,[],[],文化地标,上海市,上海市,徐汇区
B0HDO576YB,旗袍创新与传承文化中心,科教文化服务;文化宫;文化宫,140800,胶州路941号702A(长寿路地铁站6号口步行360米),121.436707,31.237557,,[],[],文化地标|科技体验,上海市,上海市,普陀区
B0KUAZ410V,上海根与芽青少年活动中心,科教文化服务;文化宫;文化宫,140800,人民路300号外滩SOHO-D幢303室,121.493648,31.229791,021-63523580,[],[],文化地标,上海市,上海市,黄浦区
B0MBPY0YSN,鹏泽文化中心,科教文化服务;文化宫;文化宫,140800,嘉陵路与石龙路交叉口东80米,121.431175,31.148325,,[],[],文化地标,上海市,上海市,徐汇区
B0L0SGIVVW,真新街道文广中心,科教文化服务;文化宫;文化宫,140800,清峪路与丰庄路交叉口西80米,121.361062,31.244202,,[],[],文化地标,上海市,上海市,嘉定区
B0FFM5D4PT,沪西工人文化宫,科教文化服务;文化宫;文化宫,140800,武宁路225号(近曹杨路)(曹杨路地铁站2号口步行220米),121.419570,31.237734,,[],[],文化地标,上海市,上海市,普陀区
B0G1BZ7US3,小荧星艺术团,科教文化服务;文艺团体;文艺团体|科教文化服务;培训机构;培训机构,141000|141400,丰谷路37号1号楼,121.460527,31.170177,021-54668882,[],[],文化地标,上海市,上海市,徐汇区
B00155QIET,徐汇老房子艺术中心,科教文化服务;文艺团体;文艺团体,141000,武康路393甲,121.439074,31.205875,,[],[],文化地标,上海市,上海市,徐汇区
B0JUGCKE9Z,喜剧联盒国(湖滨道购物中心店),科教文化服务;文艺团体;文艺团体,141000,湖滨路150号湖滨道购物中心B1,121.479174,31.220991,,[],[],文化地标,上海市,上海市,黄浦区
B0FFG0WMAB,上海昆剧团(绍兴路),科教文化服务;文艺团体;文艺团体,141000,绍兴路9号,121.464491,31.209227,021-64331935;021-64371012,[],[],文化地标,上海市,上海市,黄浦区
B00152D49B,上海爱乐乐团,科教文化服务;文艺团体;文艺团体,141000,武定西路1498号(近中西大厦),121.429381,31.223663,021-62258070;021-62523277,4.1,[],文化地标,上海市,上海市,静安区
B00156GS7W,上海交响乐团(复兴中路),科教文化服务;文艺团体;文艺团体,141000,复兴中路1380号(常熟路地铁站4号口步行430米),121.451717,31.211551,4008210522,[],[],文化地标,上海市,上海市,徐汇区
B0FFFSYJ02,鄉音书苑,科教文化服务;文艺团体;文艺团体,141000,南京西路860弄1号(南京西路地铁站2号口步行90米),121.460173,31.230924,021-62563325,4.5,[],文化地标,上海市,上海市,静安区
B0FFH8HX5X,上海芭蕾舞团(虹桥路),科教文化服务;文艺团体;文艺团体,141000,上海国际舞蹈中心1号楼(水城路地铁站2号口步行80米),121.393465,31.199387,021-62759611,[],[],文化地标,上海市,上海市,长宁区
B00155G56O,上海爱乐合唱团,科教文化服务;文艺团体;文艺团体,141000,延安东路59号上海工商联大厦裙楼4楼,121.489201,31.231358,021-63373283,[],[],文化地标,上海市,上海市,黄浦区
B00154KCTP,上海民族乐团,科教文化服务;文艺团体;文艺团体,141000,新华路336号,121.426385,31.203786,021-62827915;021-62835288,[],[],文化地标,上海市,上海市,长宁区
B00156F36U,上海戏曲艺术中心,科教文化服务;文艺团体;文艺团体,141000,岳阳路168号,121.451979,31.205418,021-64745000,[],[],文化地标,上海市,上海市,徐汇区
B0015234E6,上海市文联艺术促进中心,科教文化服务;文艺团体;文艺团体,141000,延安西路200号3号楼508室,121.441372,31.219677,021-62490686,[],[],文化地标,上海市,上海市,静安区
B00156GKVV,上海评弹团,科教文化服务;文艺团体;文艺团体,141000,南京西路860弄1号(南京西路地铁站2号口步行90米),121.460173,31.230924,021-62563234;021-62563325,[],[],文化地标,上海市,上海市,静安区
B00155GKK3,手拉手艺术团,科教文化服务;文艺团体;文艺团体,141000,汉中路188号上海青年创业大厦中楼3层,121.457754,31.241917,021-63541139,[],[],文化地标,上海市,上海市,静安区
B001572A9I,上海心音儿童合唱团,科教文化服务;文艺团体;文艺团体,141000,田林路398号新业大楼2号楼2-3层,121.397418,31.166744,021-54504668,[],[],文化地标,上海市,上海市,徐汇区
B0FFKX0BD4,上海元声音乐工作室(录音棚),科教文化服务;培训机构;培训机构|科教文化服务;文艺团体;文艺团体,141400|141000,裕德路168号徐汇商务大厦21楼09-10室,121.433035,31.185686,13564265293,3.9,[],文化地标,上海市,上海市,徐汇区
B0GDHR0XOW,闻广个性化学习中心,科教文化服务;文艺团体;文艺团体,141000,天申大楼东北门旁(北新泾地铁站1号口步行320米),121.375913,31.214111,13774243020,[],[],文化地标,上海市,上海市,长宁区
B0L04DWRIQ,长宁沪剧传承中心,科教文化服务;文艺团体;文艺团体,141000,北渔路95号南四楼(北新泾地铁站3号口旁),121.372327,31.216613,,[],[],文化地标,上海市,上海市,长宁区
B0LKJC2MZM,上海蒲公英交响乐团有限公司,科教文化服务;文艺团体;文艺团体,141000,上海城区罗锦路69号1幢2层管悦文化内部,121.420252,31.124452,19302172695,3.0,[],文化地标,上海市,上海市,闵行区
B0J33SUVUB,上海小白鸽舞蹈团(长桥校区),科教文化服务;文艺团体;文艺团体,141000,星秀苑东北1门南50米(罗秀路地铁站1号口步行290米),121.437336,31.133250,,[],[],文化地标,上海市,上海市,徐汇区
B0LARLF97F,上海菁英少年合唱团,科教文化服务;文艺团体;文艺团体,141000,龙启路158号B1-21(云锦路地铁站3号口步行240米),121.460275,31.165499,,[],[],文化地标,上海市,上海市,徐汇区
B0HBMNKP12,天使童声合唱团(上海团),科教文化服务;文艺团体;文艺团体,141000,建国西路285号科投大厦2302室,121.458867,31.204939,13818128546;15000967907,4.2,[],文化地标,上海市,上海市,徐汇区
B0FFH18EII,国际戏剧协会表演艺术世界组织,政府机构及社会团体;社会团体;行业协会|科教文化服务;文艺团体;文艺团体,130407|141000,新闸路1332号,121.450900,31.231839,19980697017,[],[],文化地标,上海市,上海市,静安区
B0LD19GS3E,汉未央汉舞团(静安校区),科教文化服务;文艺团体;文艺团体,141000,南苏州路与大田路交叉口西南80米,121.460216,31.239038,,[],[],文化地标,上海市,上海市,静安区
B0L0YN4PQ2,上海市学生艺术团中福会少年宫小伙伴艺术团,科教文化服务;文艺团体;文艺团体,141000,南京西路与乌鲁木齐北路交叉口东南120米,121.443943,31.220902,,[],[],文化地标,上海市,上海市,静安区
B0LRFH6TIL,上海西岸大剧院青少年芭蕾舞团,科教文化服务;文艺团体;文艺团体,141000,龙腾大道与龙耀路交叉口东200米,121.465656,31.163483,,[],[],文化地标,上海市,上海市,徐汇区
B00155GC4M,上海滑稽剧团,科教文化服务;文艺团体;文艺团体,141000,康定路211艺海大厦11层,121.452123,31.235325,,[],[],文化地标,上海市,上海市,静安区
B0M6JCEYTF,银鸽艺术团,科教文化服务;文艺团体;文艺团体,141000,常德路与昌平路交叉口东北40米,121.442325,31.234775,,[],[],文化地标,上海市,上海市,静安区
B0LKB6QZQB,上海德邻文化艺术团,科教文化服务;文艺团体;文艺团体,141000,天钥桥路与南丹东路交叉口西北60米,121.441775,31.190375,,[],[],文化地标,上海市,上海市,徐汇区
B00155FHOA,上海城隍庙,风景名胜;风景名胜;寺庙道观,110205,方浜中路249号,121.492466,31.225879,021-63284494,4.8,[],文化地标|风景名胜,上海市,上海市,黄浦区
B0GKOS77AU,上海四行仓库抗战纪念馆,风景名胜;风景名胜;纪念馆,110204,光复路21号(曲阜路地铁站2号口步行300米),121.471104,31.240340,021-63800180;021-63808222,4.8,[],文化地标|风景名胜,上海市,上海市,静安区
B00154QFBG,中国共产党第一次全国代表大会会址纪念馆,风景名胜;风景名胜;纪念馆,110204,黄陂南路374号,121.475251,31.220139,021-53832171,4.8,[],文化地标|风景名胜,上海市,上海市,黄浦区
B00151EA79,上海宋庆龄故居纪念馆,风景名胜;风景名胜;红色景区,110210,淮海中路1843号,121.439062,31.204017,021-64747183,4.5,[],文化地标|风景名胜,上海市,上海市,徐汇区
B00154570C,上海孙中山故居纪念馆,风景名胜;风景名胜;纪念馆,110204,香山路7号,121.467744,31.216109,021-53063361,4.3,[],文化地标|风景名胜,上海市,上海市,黄浦区
B00155CAZT,中共代表团驻沪办事处纪念馆,风景名胜;风景名胜;风景名胜,110200,思南路73号,121.468480,31.214194,021-64730420,4.5,[],文化地标|风景名胜,上海市,上海市,黄浦区
B00155CAZU,中共二大会址纪念馆,风景名胜;风景名胜;红色景区,110210,老成都北路7弄30号,121.466693,31.224193,021-51311515,4.0,[],文化地标|风景名胜,上海市,上海市,静安区
B0HD6SBAAC,中共一大纪念馆一大广场,风景名胜;公园广场;城市广场,110105,黄陂南路与湖滨路交叉口,121.476246,31.220104,021-53832171,4.6,[],文化地标|风景名胜,上海市,上海市,黄浦区
B0GKJOYAH8,荣宗敬故居(不对外开放),风景名胜;风景名胜;纪念馆,110204,陕西北路186号(近南京西路),121.455852,31.226690,,4.1,[],文化地标|风景名胜,上海市,上海市,静安区
B0GUVZW63S,远望1号,风景名胜;风景名胜相关;旅游景点,110000,龙华东路黄浦滨江3号口东南200米江南造船原址2号船坞,121.489179,31.194261,15221053659,4.4,[],文化地标|风景名胜,上海市,上海市,黄浦区
B0HATSXLKE,义勇军进行曲灌制地纪念馆,风景名胜;风景名胜;红色景区,110210,衡山路811号,121.441928,31.197851,,4.4,[],文化地标|风景名胜,上海市,上海市,徐汇区
B0FFHG7QAQ,蔡元培先生故居,风景名胜;风景名胜;风景名胜,110200,静安寺街道华山路303弄16号(昆仑大酒店斜对面),121.447783,31.218916,021-62484996,4.3,[],文化地标|风景名胜,上海市,上海市,静安区
B00155KKT5,中共上海地下组织斗争史陈列馆,风景名胜;风景名胜;红色景区,110210,愚园路81号(静安寺地铁站出入口步行310米),121.446568,31.224725,021-62155939,4.2,[],文化地标|风景名胜,上海市,上海市,静安区
B0FFH9VT2B,柯灵故居,风景名胜;风景名胜;纪念馆,110204,复兴西路147号,121.442448,31.210553,19946177295,4.2,[],文化地标|风景名胜,上海市,上海市,徐汇区
B0FFGXK5WR,徐光启纪念馆,风景名胜;风景名胜相关;旅游景点,110000,徐家汇街道南丹路17号(徐家汇地铁站1号口步行290米),121.434317,31.189282,021-64381780;021-64689252,4.2,[],文化地标|风景名胜,上海市,上海市,徐汇区
B0FFFV4AU5,中国社会主义青年团中央机关旧址纪念馆,风景名胜;风景名胜;风景名胜,110200,淮海中路567弄1-6号(淮海中路地铁站1号口步行370米),121.468151,31.220489,021-53823370,4.3,[],文化地标|风景名胜,上海市,上海市,黄浦区
B0FFGST34N,上海市外滩历史纪念馆,风景名胜;风景名胜;红色景区|风景名胜;风景名胜;纪念馆,110210|110204,中山东一路475号,121.491470,31.242302,021-53082636;021-53089124,4.4,[],文化地标|风景名胜,上海市,上海市,黄浦区
B00154B0EA,上海市龙华烈士纪念馆,风景名胜;风景名胜;纪念馆,110204,龙华西路180号,121.449023,31.176658,021-64683059;021-64685995,4.2,[],文化地标|风景名胜,上海市,上海市,徐汇区
B0L19SFTSC,上海黄道婆纪念公园,风景名胜;公园广场;公园|风景名胜;风景名胜;风景名胜,110101|110200,徐梅路700号,121.448763,31.124546,021-64830899;021-64963328,4.1,[],文化地标|风景名胜,上海市,上海市,徐汇区
B0HATSX6SD,中共中央军委机关旧址纪念馆,风景名胜;风景名胜;红色景区,110210,新闸路613弄12号(自然博物馆地铁站3号口步行50米),121.462466,31.237338,021-31783930,[],[],文化地标|风景名胜,上海市,上海市,静安区
B0JU2U5RU7,中共中央秘书处机关旧址纪念馆,风景名胜;风景名胜;红色景区|风景名胜;风景名胜;纪念馆,110210|110204,江宁路673弄10号,121.449229,31.237540,021-31783920,4.5,[],文化地标|风景名胜,上海市,上海市,静安区
B00155HU5Z,西岸自然艺术公园-邹容纪念馆,风景名胜;风景名胜相关;旅游景点,110000,华泾镇华泾路868号(西岸自然艺术公园内),121.450751,31.119783,021-54825660,3.9,[],文化地标|风景名胜,上海市,上海市,徐汇区
B0LKAM81F5,周璇故居,风景名胜;风景名胜;纪念馆,110204,武康路与泰安路交叉口南20米,121.439189,31.206074,,4.0,[],文化地标|风景名胜,上海市,上海市,徐汇区
B0KURAX0RQ,圣约翰大学校长故居,风景名胜;风景名胜;风景名胜,110200,万航渡路1575号,121.415486,31.227856,,4.0,[],文化地标|风景名胜,上海市,上海市,长宁区
B0FFIDFFZD,J.G Ballard故居,风景名胜;风景名胜相关;旅游景点,110000,番禺路508号,121.429765,31.200994,,4.2,[],文化地标|风景名胜,上海市,上海市,长宁区
B0FFHKOKY5,陈立夫故居,风景名胜;风景名胜;纪念馆,110204,武康路67号,121.440577,31.212647,,4.0,[],文化地标|风景名胜,上海市,上海市,徐汇区
B0FFGAQS05,丰田纺织厂纪念馆,风景名胜;风景名胜;纪念馆,110204,万航渡路2318号,121.408421,31.221841,,4.0,[],文化地标|风景名胜,上海市,上海市,长宁区
B0FFK4R6GL,宋子文故居,风景名胜;风景名胜;纪念馆,110204,永嘉路501号,121.452895,31.205920,,4.0,[],文化地标|风景名胜,上海市,上海市,徐汇区
B0LA6S7PB6,上海孙中山故居纪念馆-孙中山铜像,风景名胜;风景名胜;风景名胜,110200,香山路7号(近思南路)上海孙中山故居纪念馆内(西侧),121.467468,31.216061,,3.5,[],文化地标|风景名胜,上海市,上海市,黄浦区
B0FFHOQKOJ,中共一大会址纪念馆保管部,风景名胜;风景名胜;纪念馆,110204,淮海中路1834-1号附近,121.438664,31.204520,,4.0,[],文化地标|风景名胜,上海市,上海市,徐汇区
B0FFFWPTQF,史良故居,风景名胜;风景名胜;纪念馆,110204,武定西路1357号,121.431477,31.224437,,3.9,[],文化地标|风景名胜,上海市,上海市,长宁区
B00151F88E,阮玲玉故居,风景名胜;风景名胜;纪念馆,110204,新闸路1124弄9号,121.454318,31.233236,,4.0,[],文化地标|风景名胜,上海市,上海市,静安区
B0FFHVXRIH,严裕堂故居,风景名胜;风景名胜;纪念馆,110204,武康路212号,121.440509,31.209299,,4.2,[],文化地标|风景名胜,上海市,上海市,徐汇区
B0HUGBP1AT,中国共产党第二次全国代表大会会址,风景名胜;风景名胜相关;旅游景点,110000,延安中路625号,121.466555,31.224155,,4.3,[],文化地标|风景名胜,上海市,上海市,静安区
B0FFHVXQCO,顾祝同故居,风景名胜;风景名胜;纪念馆,110204,武康路109号,121.440788,31.209289,,4.0,[],文化地标|风景名胜,上海市,上海市,徐汇区
B0015732PA,两弹一星爱国主义教育基地,科教文化服务;培训机构;培训机构,141400,德州路380弄1号,121.485545,31.166006,021-58455816;021-58456327,4.2,[],文化地标|风景名胜,上海市,上海市,浦东新区
B00152162E,明徐光启故居,风景名胜;风景名胜;纪念馆,110204,乔家路238号(小南门地铁站2号口步行460米),121.494631,31.217607,,4.0,[],文化地标|风景名胜,上海市,上海市,黄浦区
B00156GSJS,周信芳故居(不对外开放),风景名胜;风景名胜;纪念馆,110204,长乐路788-1号(常熟路地铁站8号口步行350米),121.449151,31.216494,,4.0,[],文化地标|风景名胜,上海市,上海市,静安区
B0FFG55FRP,白杨故居,风景名胜;风景名胜;纪念馆,110204,华山路978号,121.437649,31.211874,,4.0,[],文化地标|风景名胜,上海市,上海市,长宁区
B0FFLC0Q3R,上海旅游纪念馆,风景名胜;风景名胜;纪念馆,110204,方浜中路与旧校场路交叉口西南20米,121.490970,31.225070,,3.8,[],文化地标|风景名胜,上海市,上海市,黄浦区
B00155IMOE,豫园-挹秀楼,风景名胜;风景名胜相关;旅游景点,110000,福佑路168号上海豫园(豫园地铁站7号口步行420米),121.491427,31.226424,021-63260830,3.8,[],文化地标|风景名胜,上海市,上海市,黄浦区
B0IBA58HER,周家桥三十七民众夜校旧址纪念馆,科教文化服务;学校;成人教育,141205,万航渡路与凯旋路辅路交叉口西南20米,121.413301,31.222642,,3.5,[],文化地标|风景名胜,上海市,上海市,长宁区
B0G3HR85D9,周恩来同志发布《七月指示》所在地,风景名胜;风景名胜;红色景区,110210,贵州路160号中国饭店(现上海铁道宾馆),121.476140,31.236864,,4.2,[],文化地标|风景名胜,上海市,上海市,黄浦区
B0KUB7VSD7,孤军奋战,风景名胜;风景名胜相关;旅游景点,110000,光复路21号上海四行仓库抗战纪念馆,121.470973,31.240297,,3.6,[],文化地标|风景名胜,上海市,上海市,静安区
B0H3T5H498,黄道婆纪念堂,风景名胜;风景名胜;纪念馆,110204,龙吴路1111号(近百色路)上海植物园内黄母祠,121.448560,31.150688,021-54363369,3.8,[],文化地标|风景名胜,上海市,上海市,徐汇区
B0FFL9BUSC,原张治中故居,风景名胜;风景名胜;纪念馆,110204,长宁路712弄77号(中山公园地铁站4号口步行490米),121.422156,31.221448,,3.9,[],文化地标|风景名胜,上海市,上海市,长宁区
B00155IMGN,四明公所,风景名胜;风景名胜;风景名胜,110200,人民路582号(大世界地铁站5号口步行380米),121.482668,31.225387,,3.7,[],文化地标|风景名胜,上海市,上海市,黄浦区
B00156NYD2,宣景琳故居,风景名胜;风景名胜;纪念馆,110204,胶州路148弄3-25号,121.444907,31.227126,,3.6,[],文化地标|风景名胜,上海市,上海市,静安区
B0FFK6UR4P,孙道临故居,风景名胜;风景名胜;纪念馆,110204,武康路115号(上海图书馆地铁站3号口步行410米),121.440457,31.208434,,3.8,[],文化地标|风景名胜,上海市,上海市,徐汇区
B0KUFCSHTD,上海机器工会纪念雕塑,风景名胜;风景名胜;风景名胜,110200,自忠路170号太平桥公园(东南角),121.477302,31.219270,,3.7,[],文化地标|风景名胜,上海市,上海市,黄浦区
B0FFF9Z2QP,孙中山文物馆,风景名胜;风景名胜;风景名胜,110200,瑞金二路街道瑞金二路街道香山路9-1号附近,121.467720,31.216123,,3.8,[],文化地标|风景名胜,上海市,上海市,黄浦区
B0FFFQ6X7L,禽蛋大王故居,风景名胜;风景名胜相关;旅游景点,110000,永嘉路617号(衡山路地铁站1号口步行210米),121.448486,31.204160,,3.9,[],文化地标|风景名胜,上海市,上海市,徐汇区
B0HBKAOL6E,民进成立旧址纪念馆,风景名胜;风景名胜;纪念馆,110204,陕西南路235明复图书馆会心楼,121.461916,31.209049,021-64370835,[],[],文化地标|风景名胜,上海市,上海市,黄浦区
B0FFINNSI9,中国青年新闻记者协会成立会址纪念馆,风景名胜;风景名胜;红色景区|风景名胜;风景名胜;纪念馆,110210|110204,山西南路200号(南京东路地铁站1号口步行130米),121.482168,31.237644,021-63335997,3.6,[],文化地标|风景名胜,上海市,上海市,黄浦区
B00156YOQ0,刘晓故居,风景名胜;风景名胜;红色景区,110210,愚园路579弄44号,121.437807,31.220609,,3.5,[],文化地标|风景名胜,上海市,上海市,静安区
B0KUBRYR6W,为了忘却的记念园,风景名胜;风景名胜;纪念馆,110204,华容路与双峰路交叉口东南200米,121.450777,31.178475,,3.5,[],文化地标|风景名胜,上海市,上海市,徐汇区
B0FFGM75G3,刘鸿生故居,风景名胜;风景名胜;纪念馆,110204,肇家浜路687弄7-8号(近东安路),121.451452,31.199076,,3.7,[],文化地标|风景名胜,上海市,上海市,徐汇区
B00156R4X5,西岸自然艺术公园-刘三故居,风景名胜;风景名胜;纪念馆,110204,华泾路190号西岸自然艺术公园(西南角),121.450721,31.119819,,3.4,[],文化地标|风景名胜,上海市,上海市,徐汇区
B00155M0OA,李天马故居,风景名胜;风景名胜;纪念馆,110204,万航渡路223弄1-42号(武定路地铁站2号口步行410米),121.440718,31.225620,,3.6,[],文化地标|风景名胜,上海市,上海市,静安区
B0KUNCB2F6,二六轰炸纪念碑,风景名胜;风景名胜;纪念馆,110204,泰康路与思南路交叉口东南40米,121.471587,31.207987,,3.6,[],文化地标|风景名胜,上海市,上海市,黄浦区
B0FFHRC0QM,伍廷芳故居,风景名胜;风景名胜;纪念馆,110204,北京西路与陕西北路交叉口东北约120米,121.453817,31.230593,,3.6,[],文化地标|风景名胜,上海市,上海市,静安区
B0FFK2UO25,杨森故居,风景名胜;风景名胜;纪念馆,110204,瑞金二路街道瑞金二路街道思南路36号,121.466476,31.217695,,3.6,[],文化地标|风景名胜,上海市,上海市,黄浦区
B0LDYU2L4R,严裕棠故居,风景名胜;风景名胜;纪念馆,110204,武康路与湖南路交叉口北100米,121.440498,31.209307,,3.1,[],文化地标|风景名胜,上海市,上海市,徐汇区
B0L37ALO54,屿念宠物生命纪念馆,风景名胜;风景名胜;纪念馆,110204,东兰路248号69幢105室,121.401733,31.158606,,3.6,[],文化地标|风景名胜,上海市,上海市,闵行区
B00156R4UW,应野平故居,风景名胜;风景名胜;纪念馆,110204,愚园路361弄37号(静安寺地铁站1号口步行380米),121.442060,31.222684,,3.3,[],文化地标|风景名胜,上海市,上海市,静安区
B0HG0AXPM4,上海怀旧堂,风景名胜;风景名胜;风景名胜,110200,武定西路开纳公寓(江苏路地铁站5号口步行490米),121.430941,31.224320,,2.6,[],文化地标|风景名胜,上海市,上海市,长宁区
B0H2PHOCMJ,上海孙中山故居纪念馆-自助存包柜,风景名胜;风景名胜相关;旅游景点,110000,香山路7号(近思南路)上海孙中山故居纪念馆,121.467284,31.216048,,3.6,[],文化地标|风景名胜,上海市,上海市,黄浦区
B0LGBH4JCB,中共一大纪念馆新媒体与元宇宙实验室,风景名胜;风景名胜;纪念馆,110204,漕宝路与桂林路交叉口东北120米(桂林公园地铁站1号口旁),121.419748,31.167461,,[],[],文化地标|风景名胜,上海市,上海市,徐汇区
B0FFG4F2ME,古美徐素珍纪念馆,风景名胜;风景名胜;纪念馆,110204,平阳路1375弄-30号,121.387147,31.134217,,3.1,[],文化地标|风景名胜,上海市,上海市,闵行区
B0FFJ5FJ9S,市中心淮海中路海派名人故居一居(南昌路店),风景名胜;风景名胜;风景名胜,110200,淮海中路与成都南路交叉口南160米,121.467768,31.219192,,3.3,[],文化地标|风景名胜,上海市,上海市,黄浦区
B0KUBRXPPT,四一二殉难者雕塑,风景名胜;风景名胜;风景名胜,110200,龙华路与后马路交叉口北380米,121.452424,31.177010,,3.4,[],文化地标|风景名胜,上海市,上海市,徐汇区
B0FFIJKXUZ,吴稚晖故居,风景名胜;风景名胜;纪念馆,110204,南昌路与思南路交叉口东北140米,121.467476,31.218884,,3.2,[],文化地标|风景名胜,上海市,上海市,黄浦区
B00157HVB8,来楚生故居,风景名胜;风景名胜;纪念馆,110204,康定东路3弄8号,121.457876,31.236754,,3.4,[],文化地标|风景名胜,上海市,上海市,静安区
B0FFF4HEXQ,黎锦晖故居,风景名胜;风景名胜;纪念馆,110204,愚园路576弄3-77号(江苏路地铁站2号口步行490米),121.437851,31.221619,,3.4,[],文化地标|风景名胜,上海市,上海市,静安区
B0L1TC3ME6,茸光屿宠物生命服务纪念馆,风景名胜;风景名胜;纪念馆,110204,天山支路168号716室,121.396305,31.215206,,3.0,[],文化地标|风景名胜,上海市,上海市,长宁区
B00155ITJ1,武康大楼,商务住宅;住宅区;住宅小区,120302,湖南路街道淮海中路1850号,121.438278,31.204430,,4.8,[],文化地标|风景名胜|金融住宿政府|商务产业,上海市,上海市,徐汇区
B001515DC7,五卅运动纪念碑,风景名胜;风景名胜;纪念馆,110204,人民广场下沉式广场内(人民广场地铁站7号口步行90米),121.472937,31.233698,021-63221279,4.2,[],文化地标|风景名胜,上海市,上海市,黄浦区
B00156R4MS,上海交通大学建校100周年纪念碑,风景名胜;风景名胜;纪念馆,110204,华山路1954号上海交通大学徐汇校区,121.434727,31.199049,,4.0,[],文化地标|风景名胜,上海市,上海市,徐汇区
B001557POD,上海市人民英雄纪念塔,风景名胜;风景名胜;红色景区,110210,中山东一路475号黄浦公园(近黄浦公园),121.491409,31.242287,021-53082636,4.7,[],文化地标|风景名胜,上海市,上海市,黄浦区
B00157917M,上海人民广场,风景名胜;公园广场;城市广场,110105,人民大道185号,121.475213,31.228827,,4.7,[],文化地标|风景名胜,上海市,上海市,黄浦区
B0FFGL08VA,龙华革命烈士纪念地,风景名胜;风景名胜;红色景区|风景名胜;风景名胜;纪念馆,110210|110204,龙华西路180号上海市龙华烈士陵园(东北角),121.452140,31.177366,021-64685995;021-64683059,4.8,[],文化地标|风景名胜,上海市,上海市,徐汇区
B0FFG2I0VX,复旦大学上海医学院枫林路校区西区实验动物纪念碑,风景名胜;风景名胜;纪念馆,110204,东安路131号复旦大学枫林校区内,121.448024,31.195874,,3.4,[],文化地标|风景名胜,上海市,上海市,徐汇区
B0G0RPBMTN,烈士纪念碑,风景名胜;风景名胜;纪念馆,110204,龙华西路180号上海市龙华烈士陵园,121.449420,31.175780,021-64685995,[],[],文化地标|风景名胜,上海市,上海市,徐汇区
B00156O477,上海市尊师重教纪念碑,风景名胜;风景名胜;纪念馆,110204,华山路189号静安公园(静安寺地铁站2号口步行190米),121.447447,31.222321,021-62483238,3.3,[],文化地标|风景名胜,上海市,上海市,静安区
B00156EH0U,巴金故居(装修中),风景名胜;风景名胜;纪念馆,110204,武康路113号(上海图书馆地铁站3号口步行440米),121.440727,31.208583,021-33685656,4.4,[],文化地标|风景名胜,上海市,上海市,徐汇区
B00156NYDQ,中央特科机关旧址纪念馆,风景名胜;风景名胜;红色景区,110210,武定路930弄14号(昌平路地铁站3号口步行490米),121.443617,31.230786,,4.2,[],文化地标|风景名胜,上海市,上海市,静安区
B00155IRAJ,蒋宋旧居爱庐(不对外开放),风景名胜;风景名胜;纪念馆,110204,东平路9号,121.449753,31.208152,,4.1,[],文化地标|风景名胜,上海市,上海市,徐汇区
B001558CF6,中共三大后中央局机关历史纪念馆(装修中),风景名胜;风景名胜;红色景区,110210,浙江北路118号(曲阜路地铁站5号口步行400米),121.476278,31.243668,021-33010988,4.1,[],文化地标|风景名胜,上海市,上海市,静安区
B00154C4DC,韬奋纪念馆(暂停开放),风景名胜;风景名胜;红色景区|风景名胜;风景名胜;纪念馆,110210|110204,重庆南路205弄53号,121.471445,31.214456,021-63842690;021-63842811,4.0,[],文化地标|风景名胜,上海市,上海市,黄浦区
B001572DHP,邬达克纪念馆(暂停开放),风景名胜;风景名胜;纪念馆,110204,番禺路127-129号,121.430055,31.207954,021-62309166,4.0,[],文化地标|风景名胜,上海市,上海市,长宁区
B0FFFWPVTL,粟宗华故居,风景名胜;风景名胜;纪念馆,110204,华亭路与延庆路交叉口北60米,121.450096,31.215297,,2.9,[],文化地标|风景名胜,上海市,上海市,徐汇区
B0FFGBI0T4,上海四行仓库抗战纪念地晋元纪念广场,风景名胜;公园广场;城市广场,110105,国庆路与晋元路交叉口东南50米,121.470487,31.240089,,4.4,[],文化地标|风景名胜,上海市,上海市,静安区
B00155ETH7,上海市群众艺术馆,科教文化服务;科教文化场所;科教文化场所,140000,古宜路125号,121.424820,31.185801,021-54244137;021-54244532,4.9,[],文化地标,上海市,上海市,徐汇区
B0FFFCQRQO,五里桥社区文化活动中心(富润路),生活服务;生活服务场所;生活服务场所,070000,五里桥街道龙华东路600号(富润路),121.476132,31.194126,,[],[],文化地标,上海市,上海市,黄浦区
B0K35UEVK4,长宁区工人文化宫,科教文化服务;科教文化场所;科教文化场所,140000,安西路45号,121.425875,31.219414,,[],[],文化地标,上海市,上海市,长宁区
B00155IM05,上海文化广场,风景名胜;公园广场;城市广场,110105,茂名南路178号(陕西南路地铁站6号口步行390米),121.462196,31.211941,021-54619961,4.7,[],文化地标|风景名胜,上海市,上海市,黄浦区
B0GDLUH4RK,闵行廉政文化馆,科教文化服务;科教文化场所;科教文化场所,140000,漕宝路2001号(闵行文化公园内),121.362258,31.160359,,[],[],文化地标,上海市,上海市,闵行区
B001574L2Q,天山社区文化活动中心,生活服务;生活服务场所;生活服务场所|科教文化服务;科教文化场所;科教文化场所,070000|140000,天山路娄山关路天山四村122号,121.403279,31.213119,021-62289919;021-62290130,4.0,[],文化地标,上海市,上海市,长宁区
B00155B2RK,瑞金二路社区文化活动中心,生活服务;生活服务场所;生活服务场所,070000,绍兴路47弄1-3号安甯邨,121.461868,31.208297,,[],[],文化地标,上海市,上海市,黄浦区
B0HR6U924Q,梅陇文化馆凌云社区文化中心,商务住宅;住宅区;社区中心,120304,梅陇路415号,121.419155,31.138261,,[],[],文化地标,上海市,上海市,徐汇区
B00155F57K,新华社区文化活动中心(海富公寓1号楼东南),体育休闲服务;休闲场所;休闲场所|生活服务;生活服务场所;生活服务场所,080500|070000,法华镇路453号,121.427038,31.204325,021-52802857,[],[],文化地标|体育休闲,上海市,上海市,长宁区
B00155M0EK,外滩社区文化活动中心,商务住宅;住宅区;社区中心|科教文化服务;科教文化场所;科教文化场所,120304|140000,河南中路578号(南京东路地铁站6号口步行210米),121.484178,31.240349,021-63295400,[],[],文化地标,上海市,上海市,黄浦区
B00155LZA2,虹桥街道社区文化活动中心,生活服务;生活服务场所;生活服务场所,070000,虹桥街道虹桥路1115弄19号,121.410679,31.197581,021-22850781,[],[],文化地标,上海市,上海市,长宁区
B0FFKVCRZN,长宁民俗文化中心-常乐梨园,风景名胜;风景名胜相关;旅游景点,110000,北渔路95号长宁民俗文化中心二楼(北新泾地铁站3号口旁),121.372350,31.216697,,4.2,[],文化地标,上海市,上海市,长宁区
B00155CIV2,漕河泾社区文化活动中心,商务住宅;住宅区;社区中心,120304,康健路135号康健大楼C座,121.425759,31.165854,,[],[],文化地标,上海市,上海市,徐汇区
B0FFIB7NTE,曹家渡街道社区文化活动中心,科教文化服务;科教文化场所;科教文化场所,140000,万航渡路767弄56号2层,121.432003,31.228389,021-62320288,[],[],文化地标,上海市,上海市,静安区
B0JGRL9NEE,长宁区工人文化宫职工艺术沙龙,科教文化服务;科教文化场所;科教文化场所,140000,愚园路1250号长宁工人文化宫2楼,121.425989,31.219228,,[],[],文化地标,上海市,上海市,长宁区
B001574V0I,卢湾工人文化宫,科教文化服务;科教文化场所;科教文化场所,140000,徐家汇路358号黄浦区工人俱乐部2楼(近马当路),121.474583,31.209250,13052022192,[],[],文化地标,上海市,上海市,黄浦区
B0FFG0Z5P9,江苏路街道社区文化活动中心(宣化路),生活服务;生活服务场所;生活服务场所,070000,宣化路3号(江苏路地铁站4号口步行260米),121.430939,31.217742,021-62121601,[],[],文化地标,上海市,上海市,长宁区
B00155MNXT,枫林街道社区文化活动中心,生活服务;生活服务场所;生活服务场所,070000,双峰路420号,121.449157,31.180645,021-64878940,[],[],文化地标,上海市,上海市,徐汇区
B00156G79I,黄浦区南京东路社区文化活动中心,商务住宅;住宅区;社区中心,120304,江阴路101号(人民广场地铁站11号口步行460米),121.468745,31.229536,021-63271866,[],[],文化地标,上海市,上海市,黄浦区
B0HBN4WEI9,徐汇区虹梅街道社区文化活动中心,生活服务;生活服务场所;生活服务场所|科教文化服务;科教文化场所;科教文化场所,070000|140000,全州路81号,121.407511,31.166112,,[],[],文化地标,上海市,上海市,徐汇区
B0I09UNU8Q,长寿社区文化活动中心,商务住宅;住宅区;社区中心,120304,长寿路505弄6号3楼(长寿路地铁站7号口步行390米),121.435464,31.237397,,[],[],文化地标,上海市,上海市,普陀区
B0L3H78YBK,上海西班牙文化中心-塞万提斯学院,科教文化服务;培训机构;培训机构,141400,安福路与乌鲁木齐中路交叉口西140米,121.443681,31.214157,,3.9,[],文化地标,上海市,上海市,徐汇区
B0G3FHKTUY,外滩国际电竞文化中心,科教文化服务;科教文化场所;科教文化场所,140000,龙华东路68号,121.491329,31.195035,,[],[],文化地标,上海市,上海市,黄浦区
B0L24AO1YS,周家桥社区文化活动中心,科教文化服务;科教文化场所;科教文化场所,140000,玉屏南路560弄78号,121.402914,31.215202,021-52737013,[],[],文化地标,上海市,上海市,长宁区
B00156NZDU,汉龙文化中心(虹桥校区),科教文化服务;科教文化场所;科教文化场所,140000,仙霞路88号太阳广场东楼2层B4-6,121.403877,31.205451,021-62787220,[],[],文化地标,上海市,上海市,长宁区
B0FFMBU45L,露香园文化展示中心,科教文化服务;科教文化场所;科教文化场所,140000,万竹街41号,121.484933,31.224206,19339986612,4.5,[],文化地标,上海市,上海市,黄浦区
B00155NDIR,长宁区北新泾街道社区文化中心,政府机构及社会团体;政府机关;乡镇以下级政府及事业单位,130106,新泾一村144号,121.369104,31.218447,021-62386211,[],[],文化地标,上海市,上海市,长宁区
B0H07569AN,天山社区文化活动中心图书馆,科教文化服务;科教文化场所;科教文化场所,140000,娄山关路与玉屏南路交叉口西160米,121.402974,31.212919,,[],[],文化地标,上海市,上海市,长宁区
B0J1H770E3,统战源·上海静安统战文化中心,科教文化服务;科教文化场所;科教文化场所,140000,延安中路470弄10号,121.465257,31.224693,,[],[],文化地标,上海市,上海市,静安区
B00156EFUY,静安寺街道社区文化活动中心,商务住宅;住宅区;社区中心,120304,新闸路1855号保安室,121.442726,31.227215,021-52138217,[],[],文化地标,上海市,上海市,静安区
B0FFJ8DZQC,汉龙文化中心(天山分校),科教文化服务;培训机构;培训机构,141400,天山路600弄1号同达创业大厦2905室,121.396594,31.213227,021-61352676,[],[],文化地标,上海市,上海市,长宁区
B00155LZ3Z,半淞园路街道社区文化活动中心,商务住宅;住宅区;社区中心,120304,西藏南路1360号,121.487448,31.206857,,[],[],文化地标,上海市,上海市,黄浦区
B0LU7AVZ3M,华音文化艺术中心(上中店),科教文化服务;科教文化场所;科教文化场所,140000,上中路285号-1,121.442832,31.139116,,3.9,[],文化地标,上海市,上海市,徐汇区
B0FFKLNL4M,童贝文化,科教文化服务;培训机构;培训机构,141400,嘉善路88-1号(陕西南路地铁站7号口步行420米),121.459060,31.212162,021-64081387,4.4,[],文化地标,上海市,上海市,徐汇区
B0FFGROCUX,梅赛德斯-奔驰文化中心票务处,生活服务;售票处;售票处,070300,世博大道1200号,121.493225,31.188775,,[],[],文化地标,上海市,上海市,浦东新区
B0K1X5WJWZ,中茶六堡红色文化馆,科教文化服务;科教文化场所;科教文化场所,140000,杨新路80号-1,121.493365,31.163828,,[],[],文化地标,上海市,上海市,浦东新区
B001571LA9,利西居民区综合文化活动室,生活服务;生活服务场所;生活服务场所,070000,利西路230号,121.427545,31.214845,,[],[],文化地标,上海市,上海市,长宁区
B0L33HAZ8U,一诺国际乐器集团(上海)高档提琴文化中心,科教文化服务;科教文化场所;科教文化场所,140000,复兴中路1199明园商务中心2层203A,121.458789,31.212717,021-33686525,3.7,[],文化地标,上海市,上海市,徐汇区
B0LAC5KGTA,自耕园文化中心,科教文化服务;科教文化场所;科教文化场所,140000,叶家宅路83号创享塔4号楼603室,121.430699,31.237727,,[],[],文化地标,上海市,上海市,普陀区
B0JB3SG3NU,上海繁舍文化传播中心,生活服务;生活服务场所;生活服务场所,070000,昌平路990号C2,121.436676,31.233296,,[],[],文化地标,上海市,上海市,静安区
B0H2M6219L,慧之羽文化艺术中心,科教文化服务;培训机构;培训机构,141400,莘北路与西环路交叉口西南80米,121.364369,31.110636,,4.2,[],文化地标,上海市,上海市,闵行区
B0L2R5N6GE,名流商业文化交流中心,科教文化服务;科教文化场所;科教文化场所,140000,黄河路与南京西路交叉口西40米,121.471375,31.233325,,4.1,[],文化地标,上海市,上海市,黄浦区
B0FFL9ASE9,上海市黄浦区文化馆豫园街道分馆,科教文化服务;科教文化场所;科教文化场所,140000,盛家街与傅家街交叉口东20米,121.493523,31.223825,021-63303092,[],[],文化地标,上海市,上海市,黄浦区
B00156GQA4,豫园街道社区文化活动中心(分部),政府机构及社会团体;政府机关;乡镇级政府及事业单位|商务住宅;住宅区;社区中心,130105|120304,梧桐路137号,121.494200,31.226461,,[],[],文化地标,上海市,上海市,黄浦区
B0L1AAIK28,曹家渡社区片文化活动中心,科教文化服务;科教文化场所;科教文化场所,140000,曹家渡街道万航渡路635号,121.433333,31.226920,,[],[],文化地标,上海市,上海市,静安区
B001571KEB,虹霞小区文化活动中心,科教文化服务;科教文化场所;科教文化场所,140000,虹古路410弄5-4号,121.388818,31.204554,,[],[],文化地标,上海市,上海市,长宁区
B0FFFFU1UU,梅苑第一居委会综合文化活动室,商务住宅;住宅区;社区中心,120304,虹梅南路96弄20-1号,121.415879,31.140187,,[],[],文化地标,上海市,上海市,徐汇区
B0KAF5IEBT,齐山国学文化交流中心,科教文化服务;科教文化场所;科教文化场所,140000,秀涟路46号,121.361782,31.123654,,4.0,[],文化地标,上海市,上海市,闵行区
B0K3UNT5GR,观乐游茶文化中心,科教文化服务;科教文化场所;科教文化场所,140000,鲁班路100号大同古玩殿247房(二楼扶梯左转走到底),121.473306,31.206678,18621830427,3.5,[],文化地标,上海市,上海市,黄浦区
B0FFG77JMI,艺嘉艺术文化中心(丰庄校区),科教文化服务;培训机构;培训机构,141400,金沙江路2980号(丰庄地铁站2号口步行160米),121.356831,31.242508,021-69518860,4.2,[],文化地标,上海市,上海市,嘉定区
B0J6KHAXVG,上海翊蕾文化艺术中心,科教文化服务;培训机构;培训机构,141400,天等路400号品域·凌云里3幢102室,121.427877,31.137417,021-64768864,3.8,[],文化地标,上海市,上海市,徐汇区
B0JK4HNS5M,TBCA文化艺术中心,科教文化服务;科教文化场所;科教文化场所,140000,曲阜路9弄下沉广场B3(曲阜路地铁站5号口步行330米),121.475532,31.242288,,4.2,[],文化地标,上海市,上海市,静安区
B0FFGWGE2W,上海田林文化活中心停车场(内部专用),交通设施服务;停车场;专用停车场,150905,田林东路588-5号附近,121.424233,31.172418,,[],[],文化地标,上海市,上海市,徐汇区
B0FFF3AGYK,上海九九关爱文化中心,科教文化服务;文化宫;文化宫,140800,淮海中路461号,121.470598,31.221454,,[],[],文化地标,上海市,上海市,黄浦区
B0MB1OWX2T,上钢新村街道社区文化活动中心地上停车场,交通设施服务;停车场;公共停车场,150904,昌里路335号201室上钢社区文化活动中心,121.490947,31.174156,,[],[],文化地标,上海市,上海市,浦东新区
B0M6VUJR6S,黄浦文化中心地下停车场,交通设施服务;停车场;公共停车场,150904,迎勋路与江阴街交叉口北40米,121.491559,31.214419,,[],[],文化地标,上海市,上海市,黄浦区
B00155LH2Y,虹桥文化中心内部地面停车场,交通设施服务;停车场;专用停车场,150905,万源路2800号,121.386490,31.174876,13641811987,[],[],文化地标,上海市,上海市,闵行区
B0FFGI0C4H,曹杨社区文化活动中心(分中心),商务住宅;住宅区;社区中心,120304,白兰路上海市沙田学校(兰溪路),121.412822,31.238461,,[],[],文化地标,上海市,上海市,普陀区
B0I1K5WIZD,上海大家文化艺术中心,科教文化服务;科教文化场所;科教文化场所,140000,番禺路324号,121.429293,31.204596,18964585950,4.1,[],文化地标,上海市,上海市,长宁区
B0LU6LHI4Z,凌云街道社区文化活动中心,科教文化服务;科教文化场所;科教文化场所,140000,梅陇路415号(罗秀路地铁站2号口步行330米),121.433872,31.130304,,[],[],文化地标,上海市,上海市,徐汇区
B0LBLUOADE,阳明文化交流中心,科教文化服务;科教文化场所;科教文化场所,140000,虹漕南路与学人路交叉口南140米,121.413725,31.158175,,4.0,[],文化地标,上海市,上海市,徐汇区
B0FFF00H5O,真新街道社区文化活动中心新丰分中心,科教文化服务;科教文化场所;科教文化场所,140000,金沙江路2823弄2号(丰庄地铁站2号口步行300米),121.359146,31.240983,,[],[],文化地标,上海市,上海市,嘉定区
B0H2J7UFI6,上海秀钟文化传播中心,科教文化服务;培训机构;培训机构,141400,桐柏路119号,121.405458,31.235185,,3.7,[],文化地标,上海市,上海市,普陀区
B0FFLFBMKO,虹旭小区社区综合文化服务中心,政府机构及社会团体;政府机关;乡镇以下级政府及事业单位,130106,虹古路417弄10号附近,121.385897,31.203567,,[],[],文化地标,上海市,上海市,长宁区
B0FFLKM8ZX,综合文化服务中心,政府机构及社会团体;政府机关;政府机关相关,130100,徐汇臻园北4门旁,121.449182,31.126731,,[],[],文化地标,上海市,上海市,徐汇区
B0FFIYBHDY,社区综合文化服务中心,政府机构及社会团体;政府机关;乡镇以下级政府及事业单位,130106,昭化东路120-1号附近,121.435113,31.214234,,[],[],文化地标,上海市,上海市,长宁区
B0JB37A9MR,馨宁居民区综合文化活动室,商务住宅;住宅区;社区中心,120304,华发路与长华路交叉口东140米,121.446763,31.127070,,[],[],文化地标,上海市,上海市,徐汇区
B0GRH7YNGI,沈家郎居民区综合文化活动室,商务住宅;住宅区;社区中心,120304,长宁路1488弄20号沈家郎居委会,121.409398,31.218201,,[],[],文化地标,上海市,上海市,长宁区
B0L2RHM0DD,上海宜兴文化交流中心,科教文化服务;科教文化场所;科教文化场所,140000,同普路与千阳南路交叉口西160米,121.367875,31.232575,,3.8,[],文化地标,上海市,上海市,普陀区
B0H0MZISHW,莘庄镇文化活动中心停车场,交通设施服务;停车场;公共停车场,150904,七莘路与庙泾路交叉口北80米,121.376305,31.114778,,[],[],文化地标,上海市,上海市,闵行区
B0LUM5BT43,少年派综合托管文化中心,科教文化服务;学校;学校,141200,七宝镇漕宝路1555号9区2号111室,121.377625,31.164510,18221653871,4.0,[],文化地标,上海市,上海市,闵行区
B0FFH217M7,虹桥文化中心地下停车场,交通设施服务;停车场;专用停车场,150905,万源路2800号,121.386732,31.173968,,[],[],文化地标,上海市,上海市,闵行区
B0L6UZY323,美好盛年(上海)文化艺术中心,科教文化服务;科教文化场所;科教文化场所,140000,长寿路468号中环商务大厦A座701室,121.436735,31.240126,13020206130;13052033630,[],[],文化地标,上海市,上海市,普陀区
B00156ZK96,虹仙小区文化活动中心,科教文化服务;文化宫;文化宫,140800,仙霞路750弄56号,121.384557,31.204432,,[],[],文化地标,上海市,上海市,长宁区
B0H0MCKZBX,长征社区文化活动中心地下停车场,交通设施服务;停车场;公共停车场,150904,梅川路与真光路交叉口东南240米,121.382705,31.241736,,[],[],文化地标,上海市,上海市,普陀区
B0H0MZHPY1,龙华社区文化活动中心停车场,交通设施服务;停车场;公共停车场,150904,天钥桥南路与龙恒路交叉口西北140米,121.449305,31.168151,,[],[],文化地标,上海市,上海市,徐汇区
B0FFHCDNXF,新泾镇文化中心停车场,交通设施服务;停车场;公共停车场,150904,福泉路与可乐路交叉口南80米,121.359432,31.205951,,[],[],文化地标,上海市,上海市,长宁区
B00155HONG,斜土社区文化活动中心西区,生活服务;生活服务场所;生活服务场所,070000,医学院路52号(嘉善路地铁站4号口步行440米),121.458028,31.199996,,[],[],文化地标,上海市,上海市,徐汇区
B0I64UX6PL,上海市总工会静安区工人文化宫停车场,交通设施服务;停车场;公共停车场,150904,上海市总工会静安区工人文化宫,121.441851,31.235086,,[],[],文化地标,上海市,上海市,静安区
B0FFL0NR6W,上汽品牌文化展示中心,科教文化服务;科教文化场所;科教文化场所,140000,云岭东路570号,121.384247,31.224481,,4.2,[],文化地标,上海市,上海市,普陀区
B0FFGZGOXR,宛三居委综合文化活动室,商务住宅;住宅区;社区中心,120304,龙华路2379号,121.452406,31.181520,,[],[],文化地标,上海市,上海市,徐汇区
B0FFLPFDAP,汉答文化中心,科教文化服务;培训机构;培训机构,141400,南京西路1468号中欣大厦38楼,121.449721,31.225517,13816574030,3.4,[],文化地标,上海市,上海市,静安区
B0L19LI3MK,WE国际文化创意中心停车场,交通设施服务;停车场;专用停车场,150905,九江路与山西南路交叉口西南60米,121.482228,31.235673,,[],[],文化地标,上海市,上海市,黄浦区
B0LR0OO6K0,长征社区文化活动中心南楼,商务住宅;商务住宅相关;商务住宅相关,120000,梅川路与真北路辅路交叉口西260米,121.382775,31.241575,,[],[],文化地标,上海市,上海市,普陀区
B0FFGIQB8M,曹杨社区文化活动中心停车场,交通设施服务;停车场;公共停车场,150904,杏山路317号曹杨社区文化活动中心,121.405908,31.236084,,[],[],文化地标,上海市,上海市,普陀区
B0LUGXTDDK,上海传戴文化发展中心,公司企业;公司企业;公司企业,170000,长宁路88号KiNG88商业广场-长宁八八中心F1层,121.427323,31.228362,,3.4,[],文化地标,上海市,上海市,长宁区
B0JB3AEI5E,长征文化中心亲子活动中心,体育休闲服务;体育休闲服务场所;体育休闲服务场所,080000,梅川路1255号长征社区文化活动中心1层,121.382788,31.241469,,[],[],文化地标,上海市,上海市,普陀区
B0LGCLU2XI,中瓷控股企业文化展示中心,科教文化服务;科教文化场所;科教文化场所,140000,金沙江路与真北路交叉口西北80米,121.379525,31.233175,,3.7,[],文化地标,上海市,上海市,普陀区
B0L0FH2AZJ,KOLON1973品牌文化中心,科教文化服务;科教文化场所;科教文化场所,140000,安西路与番禺路222弄交叉口东北160米,121.427375,31.208175,,[],[],文化地标,上海市,上海市,长宁区
B0K6JCMGFH,童蒙文化艺术中心,科教文化服务;培训机构;培训机构,141400,锦梅路752号绿亮生活广场3楼312室(KFC楼上),121.423631,31.115579,13816866317,3.7,[],文化地标,上海市,上海市,闵行区
B0L12RV6JX,长风社区文化活动中心1号楼,商务住宅;商务住宅相关;商务住宅相关,120000,枣阳路251弄100号长风社区文化活动中心,121.399275,31.234575,,[],[],文化地标,上海市,上海市,普陀区
B0J2DUYEZT,长风社区文化活动中心网约车上车点,交通设施服务;上下客区;上下客区,151400,怒江路与金沙江路交叉口北240米,121.399364,31.234231,,[],[],文化地标,上海市,上海市,普陀区
B0LAKXLS9Z,静安寺街道社区文化活动中心(南片),体育休闲服务;休闲场所;休闲场所,080500,长乐路与华亭路交叉口北140米,121.449831,31.217706,,[],[],文化地标,上海市,上海市,静安区
B0M6JUEVF0,长宁区新泾镇社区文化事务中心·虹桥艺空间,科教文化服务;传媒机构;传媒机构,141100,哈密路与淞虹路交叉口东160米,121.367052,31.200713,,[],[],文化地标,上海市,上海市,长宁区
B0KDM5BDAI,工会驿站-徐家汇社区文化活动中心户外职工爱心接力站,生活服务;生活服务场所;生活服务场所,070000,徐家汇街道南丹东路109号,121.443140,31.190880,,[],[],文化地标,上海市,上海市,徐汇区
B0L3MXPH0X,上海服装文化馆,科教文化服务;传媒机构;传媒机构,141100,南京东路与四川中路交叉口东40米,121.488004,31.238613,,[],[],文化地标,上海市,上海市,黄浦区
B0FFL0UPVN,爱汉语言文化Love Mandarin,科教文化服务;培训机构;培训机构,141400,武康路与泰安路交叉口北140米,121.438925,31.207375,,1.8,[],文化地标,上海市,上海市,徐汇区
B00155G6P7,长桥社区文化中心(装修中),商务住宅;住宅区;社区中心,120304,罗香路237号(罗秀路地铁站3号口步行460米),121.436650,31.134450,,[],[],文化地标,上海市,上海市,徐汇区
B00156GS9G,汉吟语言文化交流中心,科教文化服务;培训机构;培训机构,141400,淮海中路1280号(常熟路地铁站3号口旁),121.451332,31.213895,021-54038115,3.7,[],文化地标,上海市,上海市,徐汇区
B0FFJ42KD0,虹桥半岛版画艺术中心,科教文化服务;美术馆;美术馆,140400,长宁文化艺术中心西门北50米,121.387448,31.205979,,3.9,[],文化地标|独处品质空间,上海市,上海市,长宁区
B0FFLPX4S0,上海书城(福州路店),购物服务;专卖店;书店,061205,福州路465号世纪出版大厦,121.481479,31.233320,021-63615169;021-63914848,4.7,[],文化地标|独处品质空间,上海市,上海市,黄浦区
B0FFHK7W1H,外文书店(福州路总店),购物服务;专卖店;书店,061205,福州路390号1-2层(南京东路地铁站4号口步行300米),121.482951,31.234079,021-23204852;021-23204976,4.7,[],文化地标|独处品质空间,上海市,上海市,黄浦区
B0K61SSQPD,钟书阁(徐汇绿地缤纷城西区店),购物服务;专卖店;书店,061205,东安路562号徐汇绿地缤纷城西区F1层,121.456486,31.184011,021-54356786;13564671829,4.5,[],文化地标|独处品质空间,上海市,上海市,徐汇区
B0G2K1VSOD,茑屋书店,购物服务;专卖店;书店,061205,延安西路1262号上生·新所7号楼哥伦比亚乡村俱乐部内,121.427656,31.208543,021-60193128,4.7,[],文化地标|独处品质空间,上海市,上海市,长宁区
B00155F57R,博库书城,购物服务;专卖店;书店,061205,宜山路515号(宜山路地铁站9号口步行440米),121.425573,31.180244,021-64516666,4.5,[],文化地标|独处品质空间,上海市,上海市,徐汇区
B0FFIK8665,思南书局,购物服务;专卖店;专营店,061200,复兴中路517号,121.469096,31.215267,13917497850,4.7,[],文化地标|独处品质空间,上海市,上海市,黄浦区
B0H0ZUTZRV,茑屋书店(前滩太古里店),购物服务;专卖店;书店,061205,东育路500弄1-9号前滩太古里L4层,121.481326,31.152374,021-58580669,4.6,[],文化地标|独处品质空间,上海市,上海市,浦东新区
B0KDG5KPLL,百新书局,购物服务;专卖店;书店,061205,南京东路街道福州路620号,121.478669,31.232639,021-63281888,4.6,[],文化地标|独处品质空间,上海市,上海市,黄浦区
B0K61ZQFEF,大隐书局·印象武康主题店,购物服务;专卖店;书店,061205,淮海中路1834-1号(交通大学地铁站7号口步行450米),121.438656,31.204546,021-33566912,4.6,[],文化地标|独处品质空间,上海市,上海市,徐汇区
B00154DF7O,新华书店教材书店(大木桥门店),购物服务;专卖店;书店,061205,大木桥路499号(大木桥路地铁站4号口步行90米),121.463401,31.194984,021-64162792,4.4,[],文化地标|独处品质空间,上海市,上海市,徐汇区
B001553N0R,上海书城(长宁店),购物服务;专卖店;书店,061205,长宁路1057号(中山公园地铁站11号口旁),121.416594,31.217746,021-62120202,4.4,[],文化地标|独处品质空间,上海市,上海市,长宁区
B00153CA7F,上海古籍书店,购物服务;专卖店;书店,061205,福州路401号1-2楼(南京东路地铁站4号口步行320米),121.482752,31.233777,021-63282891;021-63360501,4.5,[],文化地标|独处品质空间,上海市,上海市,黄浦区
B00151B405,上海香港三联书店,购物服务;专卖店;书店,061205,淮海中路624号(淮海中路地铁站1号口步行210米),121.466757,31.220146,021-53064393,4.6,[],文化地标|独处品质空间,上海市,上海市,黄浦区
B0G2179E36,犀牛书店(JK1933店),购物服务;专卖店;书店,061205,北苏州路1040号A101室,121.472813,31.240989,13651685843,4.5,[],文化地标|独处品质空间,上海市,上海市,静安区
B0I64S0CWF,库布里克Kubrick书店(前滩太古里店),餐饮服务;咖啡厅;咖啡厅,050500,东育路500弄1-9号前滩太古里L3层,121.482354,31.152560,021-68580688,4.5,[],文化地标|独处品质空间,上海市,上海市,浦东新区
