id,name,type,typecode,address,lng,lat,tel,rating,cost,group,pname,cityname,adname
B0KUPUADGM,上海龙华直升机场,交通设施服务;机场相关;直升机场,150106,龙腾大道2500号,121.464761,31.165925,,[],[],交通设施,上海市,上海市,徐汇区
B00157GH8J,上海瑞金医院高架直升机场,交通设施服务;机场相关;直升机场,150106,瑞金二路197号门诊部24层楼顶,121.466879,31.210259,021-64370045,[],[],交通设施,上海市,上海市,黄浦区
B00157BO6X,华山医院高架直升机场,交通设施服务;机场相关;直升机场,150106,乌鲁木齐中路12号,121.443344,31.216466,,[],[],交通设施,上海市,上海市,静安区
B00155DNI5,上海南站,交通设施服务;火车站;火车站,150200,沪闵路9001号,121.429462,31.153127,,[],[],交通设施,上海市,上海市,徐汇区
B0FFH6SYBW,上海南站(南进站口),交通设施服务;火车站;进站口/检票口,150202,上海南站地铁站2号口步行150米,121.429771,31.152256,,[],[],交通设施,上海市,上海市,徐汇区
B0FFGPMIVL,上海南站(北进站口),交通设施服务;火车站;进站口/检票口,150202,动力北一路(上海南站地铁站4号入口步行60米),121.429054,31.154113,,[],[],交通设施,上海市,上海市,徐汇区
B0FFF0583Y,上海南站(南出站口),交通设施服务;火车站;出站口,150203,上海南站地铁站2号口步行120米,121.430235,31.152291,,[],[],交通设施,上海市,上海市,徐汇区
B0FFHJRKZF,上海火车站南站(验票口),交通设施服务;火车站;进站口/检票口,150202,老沪闵路289号上海火车站南站2F层,121.429060,31.153746,,[],[],交通设施,上海市,上海市,徐汇区
B0KUFS49CP,莘庄站,交通设施服务;火车站;火车站,150200,,121.384608,31.108817,,[],[],交通设施,上海市,上海市,闵行区
B0FFG943O6,上海南站(北出站口),交通设施服务;火车站;出站口,150203,上海南站地铁站4号入口步行310米,121.428853,31.154035,,[],[],交通设施,上海市,上海市,徐汇区
B0KKXA4HHS,上海南站(金山铁路进站口),交通设施服务;火车站;进站口/检票口,150202,上海南站北广场1层西侧(上海南站地铁站2号口步行80米),121.428569,31.153673,,[],[],交通设施,上海市,上海市,徐汇区
B0FFH91841,上海南站(A检票口),交通设施服务;火车站;进站口/检票口,150202,沪闵路9001号上海南站2F层(上海南站地铁站4号入口旁),121.429621,31.153569,,[],[],交通设施,上海市,上海市,徐汇区
B0FFKCJPLN,李家塘站,交通设施服务;火车站;火车站,150200,李家塘,121.360395,31.111429,,[],[],交通设施,上海市,上海市,闵行区
B0FFH9183X,上海南站(B检票口),交通设施服务;火车站;进站口/检票口|生活服务;生活服务场所;生活服务场所,150202|070000,沪闵路9001号上海南站2F层,121.429035,31.153169,,[],[],交通设施,上海市,上海市,徐汇区
B0L6PMB5L4,莘庄站(进站口),交通设施服务;火车站;进站口/检票口,150202,莘庄地铁站北1口旁,121.385437,31.109868,,[],[],交通设施,上海市,上海市,闵行区
B0FFHJRKZ6,上海南站(出口),交通设施服务;火车站;出站口,150203,沪闵路9001号上海南站2F层(上海南站地铁站4号入口旁),121.429245,31.153955,,[],[],交通设施,上海市,上海市,徐汇区
B0FFH9181A,上海南站候车区,交通设施服务;火车站;候车室,150201,沪闵路9001号上海南站B1层,121.429379,31.152694,,[],[],交通设施,上海市,上海市,徐汇区
B0FFGBF0G2,上海南站(B1西南出站口),交通设施服务;火车站;出站口,150203,上海南站地铁站3号口步行130米,121.429821,31.152051,,[],[],交通设施,上海市,上海市,徐汇区
B0KKXA4R6T,上海南站(金山铁路出站口),交通设施服务;火车站;出站口,150203,上海南站北广场西北出口(上海南站地铁站4号入口步行320米),121.428599,31.153398,,[],[],交通设施,上海市,上海市,徐汇区
B0FFG56X7A,上海南站5候车区,交通设施服务;火车站;候车室,150201,沪闵路9001号上海南站2层,121.429661,31.153379,,[],[],交通设施,上海市,上海市,徐汇区
B0L6PMRCGH,莘庄站(出站口),交通设施服务;火车站;出站口,150203,莘庄地铁站北2口旁,121.385246,31.109997,,[],[],交通设施,上海市,上海市,闵行区
B0J0MLTPRC,上海南站(出口),交通设施服务;火车站;出站口,150203,沪闵路9001号上海南站2F层(上海南站地铁站3号入口旁),121.429739,31.152404,,[],[],交通设施,上海市,上海市,徐汇区
B0FFHFJHT9,上海南站(B1东南出站口),交通设施服务;火车站;出站口,150203,石龙路750号(上海南站地铁站1号口步行400米),121.430471,31.153070,,[],[],交通设施,上海市,上海市,徐汇区
B0FFH9183F,上海南站6候车区,交通设施服务;火车站;候车室,150201,沪闵路9001号上海南站2F层,121.429242,31.153094,,[],[],交通设施,上海市,上海市,徐汇区
B0FFGDHBET,上海南站(北1入口),交通设施服务;火车站;进站口/检票口,150202,沪闵路9001号上海南站1F层,121.428600,31.153828,,[],[],交通设施,上海市,上海市,徐汇区
B0FFFXR1EM,售票处1(上海火车站南站),交通设施服务;火车站;售票,150205,老沪闵路289号上海火车站南站F2层,121.429710,31.154228,,[],[],交通设施,上海市,上海市,徐汇区
B0FFH9183C,上海南站4号候车区,交通设施服务;火车站;候车室,150201,沪闵路9001号上海南站2F层,121.429119,31.153226,,[],[],交通设施,上海市,上海市,徐汇区
B0FFH9183D,上海南站3候车区,交通设施服务;火车站;候车室,150201,沪闵路9001号上海南站2F层(上海南站地铁站4号入口旁),121.429538,31.153510,,[],[],交通设施,上海市,上海市,徐汇区
B0FFH91855,上海南站人工售票窗口28-33,交通设施服务;火车站;售票|生活服务;售票处;火车票代售点,150205|070302,沪闵路9001号上海南站2层(上海南站地铁站4号入口旁),121.429578,31.154007,,[],[],交通设施,上海市,上海市,徐汇区
B0FFFSV1WY,上海火车站南站A2候车室,交通设施服务;火车站;候车室,150201,沪闵路9001号上海南站1F层,121.428537,31.153450,,[],[],交通设施,上海市,上海市,徐汇区
B0FFGBIEN0,上海南站(2层7号西进站口),交通设施服务;火车站;进站口/检票口,150202,上海南站地铁站1号口步行470米,121.430098,31.152472,,[],[],交通设施,上海市,上海市,徐汇区
B0FFHJRKYH,上海南站(10-11号站台东出口),交通设施服务;火车站;出站口,150203,沪闵路9001号上海南站B1层(上海南站地铁站3号入口旁),121.430163,31.153116,,[],[],交通设施,上海市,上海市,徐汇区
B0FFG8ZG6V,上海南站2层(西南入口),交通设施服务;火车站;进站口/检票口,150202,老沪闵路289号,121.429771,31.152256,,[],[],交通设施,上海市,上海市,徐汇区
B0FFH9183Z,上海南站(D检票口),交通设施服务;火车站;进站口/检票口,150202,沪闵路9001号上海南站2层,121.429397,31.152782,,[],[],交通设施,上海市,上海市,徐汇区
B0FFG8ZE5I,上海南站(2层1号东进站口),交通设施服务;火车站;进站口/检票口,150202,上海南站地铁站4入口步行80米,121.428917,31.154006,,[],[],交通设施,上海市,上海市,徐汇区
B0FFFRMGYD,上海南站(2层1号西进站口),交通设施服务;火车站;进站口/检票口,150202,沪闵路9001号上海南站(上海南站地铁站4入口步行120米),121.428658,31.153873,,[],[],交通设施,上海市,上海市,徐汇区
B0FFGXRR4P,上海南站(西北入口),交通设施服务;火车站;进站口/检票口,150202,沪闵路9001号上海南站(上海南站地铁站5号口步行200米),121.428321,31.153565,,[],[],交通设施,上海市,上海市,徐汇区
B0FFGPMN5X,上海南站(1号站台东出口),交通设施服务;火车站;出站口,150203,沪闵路9001号上海南站B1层(上海南站地铁站4号入口旁),121.429484,31.153885,,[],[],交通设施,上海市,上海市,徐汇区
B0FFH9183S,上海南站7候车区,交通设施服务;火车站;候车室,150201,沪闵路9001号上海南站2F层,121.429782,31.153250,,[],[],交通设施,上海市,上海市,徐汇区
B0FFH9183V,上海南站8候车区,交通设施服务;火车站;候车室,150201,沪闵路9001号上海南站2层,121.429362,31.152964,,[],[],交通设施,上海市,上海市,徐汇区
B0FFFXR1EN,上海南站第二售票处,交通设施服务;火车站;售票|生活服务;售票处;售票处,150205|070300,沪闵路9001号上海南站2层,121.429221,31.152286,,[],[],交通设施,上海市,上海市,徐汇区
B0FFG8S5S1,上海南站(2层2号西进站口),交通设施服务;火车站;进站口/检票口,150202,,121.428315,31.153230,,[],[],交通设施,上海市,上海市,徐汇区
B0FFIRUITW,上海南站售票兼改签,交通设施服务;火车站;票务相关,150209,沪闵路9001号上海南站2F层,121.429223,31.152390,,[],[],交通设施,上海市,上海市,徐汇区
B0FFHJRKYM,上海南站A1候车室,交通设施服务;火车站;候车室,150201,沪闵路9001号上海南站1F层(上海南站地铁站4号入口旁),121.429150,31.153798,,[],[],交通设施,上海市,上海市,徐汇区
B0FFH9183T,上海南站1候车区,交通设施服务;火车站;候车室,150201,沪闵路9001号上海南站2F层(上海南站地铁站4号入口旁),121.429413,31.153644,,[],[],交通设施,上海市,上海市,徐汇区
B0FFHJRKZ3,上海南站售25天全国各站票29-33,交通设施服务;火车站;售票,150205,沪闵路9001号上海南站2F层(上海南站地铁站4号入口旁),121.429650,31.153998,,[],[],交通设施,上海市,上海市,徐汇区
B0KA5L6J7K,上海南站2候车区&重点旅客候车区,交通设施服务;火车站;候车室,150201,沪闵路9001号上海南站2F层(上海南站地铁站4号入口旁),121.428995,31.153363,,[],[],交通设施,上海市,上海市,徐汇区
B0FFH9183Y,上海南站(C检票口),交通设施服务;火车站;进站口/检票口,150202,沪闵路9001号上海南站2F层,121.429989,31.153174,,[],[],交通设施,上海市,上海市,徐汇区
B0FFG8ZFOB,上海南站(2层6号西进站口),交通设施服务;火车站;进站口/检票口,150202,沪闵路9001号上海南站2层,121.429077,31.152300,,[],[],交通设施,上海市,上海市,徐汇区
B0FFG8ZE2P,上海南站(2层5号东进站口),交通设施服务;火车站;进站口/检票口,150202,,121.430526,31.153578,,[],[],交通设施,上海市,上海市,徐汇区
B0FFG56X6Y,上海南站4-5站台,交通设施服务;火车站;站台,150204,沪闵路9001号上海南站1F层(上海南站地铁站4号入口旁),121.429919,31.153606,,[],[],交通设施,上海市,上海市,徐汇区
B0FFH9183O,上海南站9候车区,交通设施服务;火车站;候车室,150201,沪闵路9001号上海南站2F层,121.429902,31.153121,,[],[],交通设施,上海市,上海市,徐汇区
B0FFG56X6Z,上海南站6-7站台,交通设施服务;火车站;站台,150204,沪闵路9001号上海南站1F层,121.429265,31.152925,,[],[],交通设施,上海市,上海市,徐汇区
B0FFFSVKSG,上海南站(4-5号站台东出口),交通设施服务;火车站;出站口,150203,沪闵路9001号上海南站B1层(上海南站地铁站4号入口旁),121.429798,31.153511,,[],[],交通设施,上海市,上海市,徐汇区
B0FFH9183Q,上海南站10候车区,交通设施服务;火车站;候车室,150201,沪闵路9001号上海南站2层,121.429484,31.152836,,[],[],交通设施,上海市,上海市,徐汇区
B0FFH9184V,上海南站11候车区,交通设施服务;火车站;候车室,150201,沪闵路9001号上海南站2层(上海南站地铁站3号入口旁),121.430007,31.152998,,[],[],交通设施,上海市,上海市,徐汇区
B0FFH91850,上海南站售票窗口39,交通设施服务;火车站;售票,150205,沪闵路9001号上海南站2F层,121.429824,31.153961,,[],[],交通设施,上海市,上海市,徐汇区
B0FFGPMPZN,上海南站(8-9号站台西出口),交通设施服务;火车站;出站口,150203,沪闵路9001号上海南站B1层,121.429388,31.152809,,[],[],交通设施,上海市,上海市,徐汇区
B0FFGPMN64,上海南站(1号站台西出口),交通设施服务;火车站;出站口,150203,沪闵路9001号上海南站B1层,121.428718,31.153361,,[],[],交通设施,上海市,上海市,徐汇区
B0FFGPMN5I,上海南站(2-3号站台东出口),交通设施服务;火车站;出站口,150203,沪闵路9001号上海南站B1层(上海南站地铁站4号入口旁),121.429681,31.153639,,[],[],交通设施,上海市,上海市,徐汇区
B0FFH91858,上海火车站南站售58天车票兼改签46,交通设施服务;火车站;票务相关,150209,老沪闵路289号上海火车站南站2F层,121.429019,31.152329,,[],[],交通设施,上海市,上海市,徐汇区
B0LBOA41YS,上海南站(C检票口),交通设施服务;火车站;进站口/检票口,150202,上海南站地铁站2号口步行80米,121.430010,31.153138,,[],[],交通设施,上海市,上海市,徐汇区
B0H2GOWLT3,上海南站售票窗口42-51,交通设施服务;火车站;售票,150205,沪闵路9001号上海南站2F层,121.429301,31.152378,,[],[],交通设施,上海市,上海市,徐汇区
B0FFGPMN5N,上海南站(6-7号站台东出口),交通设施服务;火车站;出站口,150203,沪闵路9001号上海南站B1层,121.429920,31.153380,,[],[],交通设施,上海市,上海市,徐汇区
B0FFG8ZFNF,上海南站(2层5号西进站口),交通设施服务;火车站;进站口/检票口,150202,,121.428772,31.152423,,[],[],交通设施,上海市,上海市,徐汇区
B0FFHJRKYL,上海南站补票处,交通设施服务;火车站;售票,150205,沪闵路9001号上海南站B1层(上海南站地铁站3号口旁),121.430129,31.153046,,[],[],交通设施,上海市,上海市,徐汇区
B0FFKIR3N7,上海南站13候车区,交通设施服务;火车站;候车室,150201,沪闵路9001号上海南站2F层,121.430213,31.153762,,[],[],交通设施,上海市,上海市,徐汇区
B0FFKIR3N6,上海南站14候车区,交通设施服务;火车站;候车室,150201,沪闵路9001号上海南站2F层,121.428674,31.152709,,[],[],交通设施,上海市,上海市,徐汇区
B0FFGPMN5E,上海南站(8-9号站台东出口),交通设施服务;火车站;出站口,150203,沪闵路9001号上海南站B1层,121.430043,31.153247,,[],[],交通设施,上海市,上海市,徐汇区
B0FFGPMN5O,上海南站(6-7号站台西出口),交通设施服务;火车站;出站口,150203,沪闵路9001号上海南站B1层,121.429267,31.152942,,[],[],交通设施,上海市,上海市,徐汇区
B0FFGPMN58,上海南站(4-5号站台西出口),交通设施服务;火车站;出站口,150203,沪闵路9001号上海南站B1层,121.429145,31.153073,,[],[],交通设施,上海市,上海市,徐汇区
B0FFG56X6W,上海南站1站台,交通设施服务;火车站;站台,150204,沪闵路9001号上海南站1F层(上海南站地铁站4号入口旁),121.429790,31.154043,,[],[],交通设施,上海市,上海市,徐汇区
B0FFG56X70,上海南站8-9站台,交通设施服务;火车站;站台,150204,沪闵路9001号上海南站1F层,121.428899,31.152433,,[],[],交通设施,上海市,上海市,徐汇区
B0FFH9183G,上海南站12候车区,交通设施服务;火车站;候车室,150201,沪闵路9001号上海南站2F层,121.429608,31.152705,,[],[],交通设施,上海市,上海市,徐汇区
B0FFIRUITX,上海南站退票窗口52,交通设施服务;火车站;退票,150206,沪闵路9001号上海南站2F层,121.429180,31.152399,,[],[],交通设施,上海市,上海市,徐汇区
B0FFHJRKZ5,上海火车站南站售票窗口42-45,交通设施服务;火车站;售票,150205,老沪闵路289号上海火车站南站2F层,121.429079,31.152312,,[],[],交通设施,上海市,上海市,徐汇区
B0J0ML0BPZ,上海南站补票处,交通设施服务;火车站;票务相关,150209,沪闵路9001号上海南站B1层(上海南站地铁站4号入口旁),121.428826,31.153422,,[],[],交通设施,上海市,上海市,徐汇区
B0FFH9183E,上海南站值班兼售票28,交通设施服务;火车站;售票,150205,沪闵路9001号上海南站2F层,121.429602,31.153993,,[],[],交通设施,上海市,上海市,徐汇区
B0FFG56X6X,上海南站2-3站台,交通设施服务;火车站;站台,150204,沪闵路9001号上海南站1F层(上海南站地铁站4号入口旁),121.430095,31.153954,,[],[],交通设施,上海市,上海市,徐汇区
B0FFG56X6V,上海南站10-11站台,交通设施服务;火车站;站台,150204,沪闵路9001号上海南站1F层,121.429265,31.152421,,[],[],交通设施,上海市,上海市,徐汇区
B0FFHJRKZO,上海南站红帽子搬运专用区,交通设施服务;火车站;候车室,150201,沪闵路9001号上海南站2F层(上海南站地铁站3号入口旁),121.430065,31.152927,,[],[],交通设施,上海市,上海市,徐汇区
B0FFIRUITY,上海南站售票窗口42-46,交通设施服务;火车站;售票,150205,动力南三路与动力南四路交叉口西北200米,121.429265,31.152261,,[],[],交通设施,上海市,上海市,徐汇区
B0FFGPMN51,上海南站(2-3号站台西出口),交通设施服务;火车站;出站口,150203,沪闵路9001号上海南站B1层,121.429024,31.153206,,[],[],交通设施,上海市,上海市,徐汇区
B0FFH9186P,上海南站退票38,交通设施服务;火车站;退票,150206,沪闵路9001号上海南站2F层(上海南站地铁站4号入口旁),121.429788,31.153956,,[],[],交通设施,上海市,上海市,徐汇区
B00155HSSE,三林路渡口,交通设施服务;港口码头;港口码头,150300,沿江路,121.465606,31.135829,,[],[],交通设施,上海市,上海市,浦东新区
B0K0PCWWBZ,龙华码头,交通设施服务;港口码头;港口码头,150300,龙腾大道2072号,121.465024,31.157613,,[],[],交通设施,上海市,上海市,徐汇区
B0JAK7O119,久事苏州河长风公园码头,交通设施服务;港口码头;港口码头,150300,大渡河路160号,121.396004,31.219210,,[],[],交通设施,上海市,上海市,普陀区
B0JA95K66G,久事苏州河外滩源码头,交通设施服务;港口码头;港口码头,150300,原划船俱乐部,121.488238,31.243664,,[],[],交通设施,上海市,上海市,黄浦区
B0JA95C54N,久事苏州河四行仓库码头,交通设施服务;港口码头;港口码头,150300,双拥公园对面(新闸路地铁站1号口步行340米),121.469244,31.239570,,[],[],交通设施,上海市,上海市,静安区
B00156ZM9H,上海通畅家华码头,交通设施服务;港口码头;港口码头,150300,龙吴路2650号,121.459845,31.108301,,[],[],交通设施,上海市,上海市,徐汇区
B0FFH9R6FZ,日晖港,交通设施服务;港口码头;港口码头,150300,江滨路与开平路交叉口南120米,121.472680,31.190561,,[],[],交通设施,上海市,上海市,徐汇区
B0JAFMM3TC,久事苏州河中山公园码头,交通设施服务;港口码头;港口码头,150300,万航渡路1456号,121.415226,31.223637,,[],[],交通设施,上海市,上海市,长宁区
B0FFG6T9ZT,汇龙3号码头,交通设施服务;港口码头;港口码头,150300,龙水南路,121.461893,31.153911,,[],[],交通设施,上海市,上海市,徐汇区
B0FFG4PH9B,中山公园-游船码头,交通设施服务;港口码头;港口码头,150300,长宁路与定西路交叉口西北220米,121.420216,31.221024,,[],[],交通设施,上海市,上海市,长宁区
B0FFHOKM7Z,宏安建设龙吴路码头,交通设施服务;港口码头;港口码头,150300,龙吴路1994号,121.455802,31.129258,,[],[],交通设施,上海市,上海市,徐汇区
B0LBU7B15H,漕宝路快速路2标段淀浦路中转码头,交通设施服务;港口码头;港口码头,150300,闵虹路与合川路交叉口东南100米,121.394853,31.128981,,[],[],交通设施,上海市,上海市,闵行区
B0G2GZN8IC,Mixtown财富码头,交通设施服务;港口码头;港口码头,150300,人民路386号(豫园地铁站7号口步行110米),121.491300,31.229927,,[],[],交通设施,上海市,上海市,黄浦区
B0K0CADXS0,关港路黄沙码头,交通设施服务;港口码头;港口码头,150300,关港路与景东路辅路交叉口东60米,121.450056,31.109221,,[],[],交通设施,上海市,上海市,闵行区
B0FFL04V9C,旧码头,交通设施服务;港口码头;港口码头,150300,旧校场路与沉香阁路交叉口东80米,121.491534,31.226818,,[],[],交通设施,上海市,上海市,黄浦区
B00156ZM9O,康健游乐园码头,交通设施服务;港口码头;港口码头,150300,桂林路91号康健园内,121.422833,31.163817,,[],[],交通设施,上海市,上海市,徐汇区
B001544A24,山鹰码头,交通设施服务;港口码头;港口码头,150300,莘朱东路118号,121.434371,31.127443,,[],[],交通设施,上海市,上海市,闵行区
B00154DPW4,上海长途客运南站,交通设施服务;长途汽车站;长途汽车站,150400,石龙路666号(上海南站地铁站2号口步行390米),121.433298,31.152591,,[],[],交通设施,上海市,上海市,徐汇区
B0H2KC9VNU,上海长途客运南站(进站口),交通设施服务;长途汽车站;进站,150401,石龙路与柳州路辅路交叉口西100米,121.433926,31.152735,,[],[],交通设施,上海市,上海市,徐汇区
B0FFK2T944,梅陇汽车站,交通设施服务;长途汽车站;长途汽车站,150400,沪闵路8071号(锦江乐园地铁站北2出口步行100米),121.412853,31.141235,,[],[],交通设施,上海市,上海市,徐汇区
B0H2KC90YJ,上海长途客运南站(出站口),交通设施服务;长途汽车站;出站,150402,柳州路辅路与动力南二路交叉口东南100米,121.433921,31.152849,,[],[],交通设施,上海市,上海市,徐汇区
BV10039900,南京东路(地铁站),交通设施服务;地铁站;地铁站,150500,10号线;2号线,121.484628,31.238101,,[],[],交通设施,上海市,上海市,黄浦区
BV10024678,人民广场(地铁站),交通设施服务;地铁站;地铁站,150500,1号线;2号线;8号线,121.475108,31.232687,,[],[],交通设施,上海市,上海市,黄浦区
BV10029707,徐家汇(地铁站),交通设施服务;地铁站;地铁站,150500,11号线;1号线;9号线,121.436603,31.195514,,[],[],交通设施,上海市,上海市,徐汇区
BV10030419,豫园(地铁站),交通设施服务;地铁站;地铁站,150500,10号线;14号线,121.487426,31.228005,,[],[],交通设施,上海市,上海市,黄浦区
BV10025001,莘庄(地铁站),交通设施服务;地铁站;地铁站,150500,1号线;5号线,121.385373,31.111152,,[],[],交通设施,上海市,上海市,闵行区
BV10039782,南京西路(地铁站),交通设施服务;地铁站;地铁站,150500,12号线;13号线;2号线,121.459971,31.229853,,[],[],交通设施,上海市,上海市,静安区
BV10025073,上海南站(地铁站),交通设施服务;地铁站;地铁站,150500,15号线;1号线;3号线,121.430041,31.154579,,[],[],交通设施,上海市,上海市,徐汇区
BV10025485,静安寺(地铁站),交通设施服务;地铁站;地铁站,150500,14号线;2号线;7号线,121.446533,31.223231,,[],[],交通设施,上海市,上海市,静安区
BV10025398,中山公园(地铁站),交通设施服务;地铁站;地铁站,150500,2号线;3号线;4号线,121.415773,31.217948,,[],[],交通设施,上海市,上海市,长宁区
BV10026897,莲花路(地铁站),交通设施服务;地铁站;地铁站,150500,1号线,121.402910,31.130900,,[],[],交通设施,上海市,上海市,闵行区
BV10039893,陕西南路(地铁站),交通设施服务;地铁站;地铁站,150500,10号线;12号线;1号线,121.458744,31.215150,,[],[],交通设施,上海市,上海市,徐汇区
BV10039805,江苏路(地铁站),交通设施服务;地铁站;地铁站,150500,11号线;2号线,121.430635,31.220408,,[],[],交通设施,上海市,上海市,长宁区
BV10039903,淞虹路(地铁站),交通设施服务;地铁站;地铁站,150500,2号线,121.359536,31.218225,,[],[],交通设施,上海市,上海市,长宁区
BV10039901,娄山关路(地铁站),交通设施服务;地铁站;地铁站,150500,15号线;2号线,121.404058,31.211158,,[],[],交通设施,上海市,上海市,长宁区
BV10025307,交通大学(地铁站),交通设施服务;地铁站;地铁站,150500,10号线;11号线,121.435253,31.202213,,[],[],交通设施,上海市,上海市,徐汇区
BV10039783,淮海中路(地铁站),交通设施服务;地铁站;地铁站,150500,13号线,121.464363,31.220056,,[],[],交通设施,上海市,上海市,黄浦区
BV10032522,东方体育中心(地铁站),交通设施服务;地铁站;地铁站,150500,(在建)19号线;11号线;6号线;8号线,121.480304,31.153366,,[],[],交通设施,上海市,上海市,浦东新区
BV10039880,宜山路(地铁站),交通设施服务;地铁站;地铁站,150500,3号线;4号线;9号线,121.427194,31.186717,,[],[],交通设施,上海市,上海市,徐汇区
BV10039779,长寿路(地铁站),交通设施服务;地铁站;地铁站,150500,13号线;7号线,121.438272,31.240860,,[],[],交通设施,上海市,上海市,普陀区
BV10039862,常熟路(地铁站),交通设施服务;地铁站;地铁站,150500,1号线;7号线,121.449141,31.213524,,[],[],交通设施,上海市,上海市,徐汇区
BV10039784,一大会址·新天地(地铁站),交通设施服务;地铁站;地铁站,150500,10号线;13号线,121.475182,31.216367,,[],[],交通设施,上海市,上海市,黄浦区
BV10039933,天潼路(地铁站),交通设施服务;地铁站;地铁站,150500,10号线;12号线,121.482321,31.243815,,[],[],交通设施,上海市,上海市,虹口区
BV10037368,七莘路(地铁站),交通设施服务;地铁站;地铁站,150500,(在建)12号线西延线;(在建)嘉闵线;12号线,121.362461,31.131634,,[],[],交通设施,上海市,上海市,闵行区
BV10039804,曹杨路(地铁站),交通设施服务;地铁站;地铁站,150500,11号线;14号线;3号线;4号线,121.417701,31.239302,,[],[],交通设施,上海市,上海市,普陀区
BV10030213,汉中路(地铁站),交通设施服务;地铁站;地铁站,150500,12号线;13号线;1号线,121.458699,31.241883,,[],[],交通设施,上海市,上海市,静安区
BV09301414,景洪路(地铁站),交通设施服务;地铁站;地铁站,150500,(在建)19号线;15号线;市域机场线,121.444310,31.109817,,[],[],交通设施,上海市,上海市,闵行区
BV11494196,三林南(地铁站),交通设施服务;地铁站;地铁站,150500,(在建)19号线;市域机场线,121.486854,31.126039,,[],[],交通设施,上海市,上海市,浦东新区
BV10025891,打浦桥(地铁站),交通设施服务;地铁站;地铁站,150500,9号线,121.468681,31.206309,,[],[],交通设施,上海市,上海市,黄浦区
BV10039879,桂林路(地铁站),交通设施服务;地铁站;地铁站,150500,15号线;9号线,121.418064,31.174791,,[],[],交通设施,上海市,上海市,徐汇区
BV10025213,漕河泾开发区(地铁站),交通设施服务;地铁站;地铁站,150500,9号线,121.397769,31.170644,,[],[],交通设施,上海市,上海市,徐汇区
BV10039807,龙耀路(地铁站),交通设施服务;地铁站;地铁站,150500,11号线,121.459702,31.159720,,[],[],交通设施,上海市,上海市,徐汇区
BV10026584,漕宝路(地铁站),交通设施服务;地铁站;地铁站,150500,12号线;1号线,121.433143,31.168344,,[],[],交通设施,上海市,上海市,徐汇区
BV10039892,一大会址·黄陂南路(地铁站),交通设施服务;地铁站;地铁站,150500,14号线;1号线,121.472339,31.223653,,[],[],交通设施,上海市,上海市,黄浦区
BV10039972,虹桥路(地铁站),交通设施服务;地铁站;地铁站,150500,10号线;3号线;4号线,121.420814,31.197524,,[],[],交通设施,上海市,上海市,长宁区
BV10039785,马当路(地铁站),交通设施服务;地铁站;地铁站,150500,13号线;9号线,121.477256,31.209520,,[],[],交通设施,上海市,上海市,黄浦区
BV10039916,西藏南路(地铁站),交通设施服务;地铁站;地铁站,150500,4号线;8号线,121.489555,31.201967,,[],[],交通设施,上海市,上海市,黄浦区
BV10039776,金沙江路(地铁站),交通设施服务;地铁站;地铁站,150500,13号线;3号线;4号线,121.413201,31.232147,,[],[],交通设施,上海市,上海市,普陀区
BV10025899,杨思(地铁站),交通设施服务;地铁站;地铁站,150500,8号线,121.493523,31.161089,,[],[],交通设施,上海市,上海市,浦东新区
BV10024943,龙华(地铁站),交通设施服务;地铁站;地铁站,150500,11号线;12号线,121.452958,31.172672,,[],[],交通设施,上海市,上海市,徐汇区
BV10024873,老西门(地铁站),交通设施服务;地铁站;地铁站,150500,10号线;8号线,121.483793,31.219014,,[],[],交通设施,上海市,上海市,黄浦区
BV10039878,合川路(地铁站),交通设施服务;地铁站;地铁站,150500,9号线,121.384772,31.166542,,[],[],交通设施,上海市,上海市,闵行区
BV10039882,陆家浜路(地铁站),交通设施服务;地铁站;地铁站,150500,8号线;9号线,121.486115,31.211789,,[],[],交通设施,上海市,上海市,黄浦区
BV10039861,肇嘉浜路(地铁站),交通设施服务;地铁站;地铁站,150500,7号线;9号线,121.450212,31.199436,,[],[],交通设施,上海市,上海市,徐汇区
BV10039881,嘉善路(地铁站),交通设施服务;地铁站;地铁站,150500,12号线;9号线,121.460704,31.202820,,[],[],交通设施,上海市,上海市,徐汇区
BV10030316,北新泾(地铁站),交通设施服务;地铁站;地铁站,150500,2号线,121.373998,31.216395,,[],[],交通设施,上海市,上海市,长宁区
BV10039915,大世界(地铁站),交通设施服务;地铁站;地铁站,150500,14号线;8号线,121.479182,31.227392,,[],[],交通设施,上海市,上海市,黄浦区
BV10026004,上海体育馆(地铁站),交通设施服务;地铁站;地铁站,150500,1号线;4号线,121.437423,31.182813,,[],[],交通设施,上海市,上海市,徐汇区
BV10039917,中华艺术宫(地铁站),交通设施服务;地铁站;地铁站,150500,8号线,121.493626,31.185242,,[],[],交通设施,上海市,上海市,浦东新区
BV10039914,曲阜路(地铁站),交通设施服务;地铁站;地铁站,150500,12号线;8号线,121.471543,31.242307,,[],[],交通设施,上海市,上海市,静安区
BV10039859,龙华中路(地铁站),交通设施服务;地铁站;地铁站,150500,12号线;7号线,121.457064,31.184379,,[],[],交通设施,上海市,上海市,徐汇区
BV10025472,龙柏新村(地铁站),交通设施服务;地铁站;地铁站,150500,10号线,121.370480,31.176882,,[],[],交通设施,上海市,上海市,闵行区
BV10039992,延安西路(地铁站),交通设施服务;地铁站;地铁站,150500,3号线;4号线,121.417062,31.209616,,[],[],交通设施,上海市,上海市,长宁区
BV10039808,大渡河路(地铁站),交通设施服务;地铁站;地铁站,150500,13号线;15号线,121.394431,31.231752,,[],[],交通设施,上海市,上海市,普陀区
BV10039780,江宁路(地铁站),交通设施服务;地铁站;地铁站,150500,13号线,121.444830,31.244282,,[],[],交通设施,上海市,上海市,普陀区
BV10024842,桂林公园(地铁站),交通设施服务;地铁站;地铁站,150500,12号线;15号线,121.419647,31.166985,,[],[],交通设施,上海市,上海市,徐汇区
BV10039860,东安路(地铁站),交通设施服务;地铁站;地铁站,150500,4号线;7号线,121.454897,31.190819,,[],[],交通设施,上海市,上海市,徐汇区
BV10039902,威宁路(地铁站),交通设施服务;地铁站;地铁站,150500,2号线,121.387285,31.214870,,[],[],交通设施,上海市,上海市,长宁区
BV10039973,上海图书馆(地铁站),交通设施服务;地铁站;地铁站,150500,10号线,121.444363,31.207960,,[],[],交通设施,上海市,上海市,徐汇区
BV10039857,耀华路(地铁站),交通设施服务;地铁站;地铁站,150500,7号线;8号线,121.494605,31.178513,,[],[],交通设施,上海市,上海市,浦东新区
BV10039778,武宁路(地铁站),交通设施服务;地铁站;地铁站,150500,13号线;14号线,121.430504,31.234346,,[],[],交通设施,上海市,上海市,普陀区
BV10039863,昌平路(地铁站),交通设施服务;地铁站;地铁站,150500,7号线,121.442617,31.233749,,[],[],交通设施,上海市,上海市,静安区
BV10039966,航中路(地铁站),交通设施服务;地铁站;地铁站,150500,10号线,121.355336,31.165417,,[],[],交通设施,上海市,上海市,闵行区
BV10039786,长清路(地铁站),交通设施服务;地铁站;地铁站,150500,13号线;7号线,121.488524,31.174008,,[],[],交通设施,上海市,上海市,浦东新区
BV10039777,隆德路(地铁站),交通设施服务;地铁站;地铁站,150500,11号线;13号线,121.423576,31.230509,,[],[],交通设施,上海市,上海市,普陀区
BV10039894,衡山路(地铁站),交通设施服务;地铁站;地铁站,150500,1号线,121.446424,31.204528,,[],[],交通设施,上海市,上海市,徐汇区
BV10039940,大木桥路(地铁站),交通设施服务;地铁站;地铁站,150500,12号线;4号线,121.463278,31.194057,,[],[],交通设施,上海市,上海市,徐汇区
BV10039858,后滩(地铁站),交通设施服务;地铁站;地铁站,150500,(在建)19号线;7号线,121.473756,31.171918,,[],[],交通设施,上海市,上海市,浦东新区
BV10026582,锦江乐园(地铁站),交通设施服务;地铁站;地铁站,150500,1号线,121.414107,31.142217,,[],[],交通设施,上海市,上海市,徐汇区
BV10039809,真北路(地铁站),交通设施服务;地铁站;地铁站,150500,13号线,121.381948,31.232235,,[],[],交通设施,上海市,上海市,普陀区
BV10039891,新闸路(地铁站),交通设施服务;地铁站;地铁站,150500,1号线,121.468151,31.238373,,[],[],交通设施,上海市,上海市,黄浦区
BV10039895,外环路(地铁站),交通设施服务;地铁站;地铁站,150500,1号线,121.393020,31.120899,,[],[],交通设施,上海市,上海市,闵行区
BV10039997,鲁班路(地铁站),交通设施服务;地铁站;地铁站,150500,4号线,121.475148,31.199221,,[],[],交通设施,上海市,上海市,黄浦区
BV10039937,虹梅路(地铁站),交通设施服务;地铁站;地铁站,150500,12号线,121.397250,31.160350,,[],[],交通设施,上海市,上海市,徐汇区
BV10039806,云锦路(地铁站),交通设施服务;地铁站;地铁站,150500,11号线,121.458519,31.166488,,[],[],交通设施,上海市,上海市,徐汇区
BV10025388,上海动物园(地铁站),交通设施服务;地铁站;地铁站,150500,10号线,121.368137,31.190246,,[],[],交通设施,上海市,上海市,长宁区
BV10039938,龙漕路(地铁站),交通设施服务;地铁站;地铁站,150500,(在建)23号线;12号线;3号线,121.444383,31.169458,,[],[],交通设施,上海市,上海市,徐汇区
BV10039877,星中路(地铁站),交通设施服务;地铁站;地铁站,150500,9号线,121.368903,31.158109,,[],[],交通设施,上海市,上海市,闵行区
BV10039969,水城路(地铁站),交通设施服务;地铁站;地铁站,150500,10号线,121.392259,31.199482,,[],[],交通设施,上海市,上海市,长宁区
BV10039968,龙溪路(地铁站),交通设施服务;地铁站;地铁站,150500,10号线,121.380034,31.194400,,[],[],交通设施,上海市,上海市,长宁区
BV10029559,世博大道(地铁站),交通设施服务;地铁站;地铁站,150500,(在建)19号线;13号线,121.484313,31.182789,,[],[],交通设施,上海市,上海市,浦东新区
BV10030508,丰庄(地铁站),交通设施服务;地铁站;地铁站,150500,13号线,121.355141,31.242553,,[],[],交通设施,上海市,上海市,嘉定区
BV10039935,顾戴路(地铁站),交通设施服务;地铁站;地铁站,150500,12号线,121.391850,31.140888,,[],[],交通设施,上海市,上海市,闵行区
BV10039971,宋园路(地铁站),交通设施服务;地铁站;地铁站,150500,10号线,121.412080,31.196540,,[],[],交通设施,上海市,上海市,长宁区
BV10039970,伊犁路(地铁站),交通设施服务;地铁站;地铁站,150500,10号线,121.403899,31.198880,,[],[],交通设施,上海市,上海市,长宁区
BV10820988,吴中路(地铁站),交通设施服务;地铁站;地铁站,150500,15号线,121.413905,31.184345,,[],[],交通设施,上海市,上海市,闵行区
BV10032909,凌兆新村(地铁站),交通设施服务;地铁站;地铁站,150500,(在建)19号线;8号线,121.489663,31.141301,,[],[],交通设施,上海市,上海市,浦东新区
BV10039810,祁连山南路(地铁站),交通设施服务;地铁站;地铁站,150500,13号线,121.367275,31.237625,,[],[],交通设施,上海市,上海市,普陀区
BV10820976,罗秀路(地铁站),交通设施服务;地铁站;地铁站,150500,15号线,121.435806,31.131552,,[],[],交通设施,上海市,上海市,徐汇区
BV10039803,枫桥路(地铁站),交通设施服务;地铁站;地铁站,150500,11号线,121.411402,31.241850,,[],[],交通设施,上海市,上海市,普陀区
BV10820984,朱梅路(地铁站),交通设施服务;地铁站;地铁站,150500,15号线,121.437804,31.124364,,[],[],交通设施,上海市,上海市,徐汇区
BV10024941,上海游泳馆(地铁站),交通设施服务;地铁站;地铁站,150500,11号线,121.441424,31.179123,,[],[],交通设施,上海市,上海市,徐汇区
BV10607588,虹漕路(地铁站),交通设施服务;地铁站;地铁站,150500,12号线,121.410553,31.164033,,[],[],交通设施,上海市,上海市,徐汇区
BV10039967,紫藤路(地铁站),交通设施服务;地铁站;地铁站,150500,10号线,121.364831,31.169674,,[],[],交通设施,上海市,上海市,闵行区
BV10039994,石龙路(地铁站),交通设施服务;地铁站;地铁站,150500,3号线,121.443205,31.157949,,[],[],交通设施,上海市,上海市,徐汇区
BV10592246,世博会博物馆(地铁站),交通设施服务;地铁站;地铁站,150500,13号线,121.481592,31.197572,,[],[],交通设施,上海市,上海市,黄浦区
BV10039781,自然博物馆(地铁站),交通设施服务;地铁站;地铁站,150500,13号线,121.462366,31.236451,,[],[],交通设施,上海市,上海市,静安区
BV10820973,华东理工大学(地铁站),交通设施服务;地铁站;地铁站,150500,15号线,121.428990,31.144257,,[],[],交通设施,上海市,上海市,徐汇区
BV10039936,东兰路(地铁站),交通设施服务;地铁站;地铁站,150500,12号线,121.391919,31.155826,,[],[],交通设施,上海市,上海市,闵行区
BV10820987,梅岭北路(地铁站),交通设施服务;地铁站;地铁站,150500,15号线,121.396997,31.243301,,[],[],交通设施,上海市,上海市,普陀区
BV10024951,上海体育场(地铁站),交通设施服务;地铁站;地铁站,150500,(在建)23号线;4号线,121.443529,31.185605,,[],[],交通设施,上海市,上海市,徐汇区
BV10820978,红宝石路(地铁站),交通设施服务;地铁站;地铁站,150500,15号线,121.398372,31.198863,,[],[],交通设施,上海市,上海市,长宁区
BV10820974,长风公园(地铁站),交通设施服务;地铁站;地铁站,150500,15号线,121.396320,31.225254,,[],[],交通设施,上海市,上海市,普陀区
BV10039948,武定路(地铁站),交通设施服务;地铁站;地铁站,150500,14号线,121.436157,31.227303,,[],[],交通设施,上海市,上海市,静安区
BV10039934,虹莘路(地铁站),交通设施服务;地铁站;地铁站,150500,12号线,121.380349,31.137452,,[],[],交通设施,上海市,上海市,闵行区
BV10039993,漕溪路(地铁站),交通设施服务;地铁站;地铁站,150500,3号线,121.438410,31.176746,,[],[],交通设施,上海市,上海市,徐汇区
BX10016755,南京东路地铁站2号口,交通设施服务;地铁站;出入口,150501,10号线;2号线,121.484582,31.237807,,[],[],交通设施,上海市,上海市,黄浦区
BV10820972,姚虹路(地铁站),交通设施服务;地铁站;地铁站,150500,15号线,121.406405,31.191550,,[],[],交通设施,上海市,上海市,长宁区
BX09907679,莘庄地铁站北1口,交通设施服务;地铁站;出入口,150501,1号线;5号线,121.385150,31.111770,,[],[],交通设施,上海市,上海市,闵行区
BX10016760,豫园地铁站1号口,交通设施服务;地铁站;出入口,150501,10号线,121.487516,31.228604,,[],[],交通设施,上海市,上海市,黄浦区
BX10036663,人民广场地铁站1号口,交通设施服务;地铁站;出入口,150501,1号线,121.476468,31.230842,,[],[],交通设施,上海市,上海市,黄浦区
BX10035220,豫园地铁站7号口,交通设施服务;地铁站;出入口,150501,14号线,121.490302,31.229780,,[],[],交通设施,上海市,上海市,黄浦区
BX09913479,景洪路地铁站6号口,交通设施服务;地铁站;出入口,150501,市域机场线,121.445665,31.110473,,[],[],交通设施,上海市,上海市,闵行区
BX10017055,南京西路地铁站2号口,交通设施服务;地铁站;出入口,150501,2号线,121.460551,31.230432,,[],[],交通设施,上海市,上海市,静安区
BX10016752,南京东路地铁站3号口,交通设施服务;地铁站;出入口,150501,2号线,121.484133,31.237124,,[],[],交通设施,上海市,上海市,黄浦区
BX10016217,人民广场地铁站19号口,交通设施服务;地铁站;出入口,150501,8号线,121.474362,31.234217,,[],[],交通设施,上海市,上海市,黄浦区
BX10017031,淞虹路地铁站1号口,交通设施服务;地铁站;出入口,150501,2号线,121.360338,31.218453,,[],[],交通设施,上海市,上海市,长宁区
BX10016312,交通大学地铁站7号口,交通设施服务;地铁站;出入口,150501,11号线,121.435151,31.202750,,[],[],交通设施,上海市,上海市,长宁区
BX10016968,静安寺地铁站2号口,交通设施服务;地铁站;出入口,150501,2号线,121.446310,31.223414,,[],[],交通设施,上海市,上海市,静安区
BX10017054,娄山关路地铁站2号口,交通设施服务;地铁站;出入口,150501,2号线,121.404530,31.210779,,[],[],交通设施,上海市,上海市,长宁区
BX10016757,南京东路地铁站7号口,交通设施服务;地铁站;出入口,150501,10号线,121.484935,31.238202,,[],[],交通设施,上海市,上海市,黄浦区
BX10035563,静安寺地铁站14号口,交通设施服务;地铁站;出入口,150501,14号线,121.445044,31.222071,,[],[],交通设施,上海市,上海市,静安区
BX10016175,常熟路地铁站8号口,交通设施服务;地铁站;出入口,150501,7号线,121.448749,31.213940,,[],[],交通设施,上海市,上海市,徐汇区
BX10016754,南京东路地铁站1号口,交通设施服务;地铁站;出入口,150501,2号线,121.482781,31.236857,,[],[],交通设施,上海市,上海市,黄浦区
BX10019929,天潼路地铁站3号口,交通设施服务;地铁站;出入口,150501,10号线;12号线,121.482970,31.243749,,[],[],交通设施,上海市,上海市,虹口区
BX09900740,中山公园地铁站8号口,交通设施服务;地铁站;出入口,150501,2号线,121.420868,31.218610,,[],[],交通设施,上海市,上海市,长宁区
BX09913239,三林南地铁站2号口,交通设施服务;地铁站;出入口,150501,市域机场线,121.486368,31.126146,,[],[],交通设施,上海市,上海市,浦东新区
BX10016235,汉中路地铁站1号口,交通设施服务;地铁站;出入口,150501,1号线,121.457911,31.242364,,[],[],交通设施,上海市,上海市,静安区
BX10016220,人民广场地铁站14号口,交通设施服务;地铁站;出入口,150501,8号线,121.475936,31.232985,,[],[],交通设施,上海市,上海市,黄浦区
BX10017032,淞虹路地铁站5号口,交通设施服务;地铁站;出入口,150501,2号线,121.358522,31.218786,,[],[],交通设施,上海市,上海市,长宁区
BX10017034,淞虹路地铁站3号口,交通设施服务;地铁站;出入口,150501,2号线,121.359196,31.217886,,[],[],交通设施,上海市,上海市,长宁区
BX10016213,人民广场地铁站7号口,交通设施服务;地铁站;出入口,150501,2号线,121.473764,31.234113,,[],[],交通设施,上海市,上海市,黄浦区
BX10016160,徐家汇地铁站9号口,交通设施服务;地铁站;出入口,150501,1号线,121.438632,31.192281,,[],[],交通设施,上海市,上海市,徐汇区
BX10016061,宜山路地铁站5号口,交通设施服务;地铁站;出入口,150501,4号线,121.426159,31.188170,,[],[],交通设施,上海市,上海市,徐汇区
BX10032693,莲花路地铁站1号口,交通设施服务;地铁站;出入口,150501,1号线,121.403242,31.131421,,[],[],交通设施,上海市,上海市,闵行区
BX10020136,南京西路地铁站12号口,交通设施服务;地铁站;出入口,150501,12号线,121.459733,31.226814,,[],[],交通设施,上海市,上海市,静安区
BX10016756,南京东路地铁站4号口,交通设施服务;地铁站;出入口,150501,2号线,121.482629,31.236151,,[],[],交通设施,上海市,上海市,黄浦区
BX10016073,曹杨路地铁站2号口,交通设施服务;地铁站;出入口,150501,11号线,121.418357,31.236718,,[],[],交通设施,上海市,上海市,普陀区
BX10016305,龙耀路地铁站2号口,交通设施服务;地铁站;出入口,150501,11号线,121.460033,31.159235,,[],[],交通设施,上海市,上海市,徐汇区
BX10017035,淞虹路地铁站2号口,交通设施服务;地铁站;出入口,150501,2号线,121.360620,31.217797,,[],[],交通设施,上海市,上海市,长宁区
BX10016551,杨思地铁站1号口,交通设施服务;地铁站;出入口,150501,8号线,121.494219,31.161121,,[],[],交通设施,上海市,上海市,浦东新区
BX10016188,陕西南路地铁站7号口,交通设施服务;地铁站;出入口,150501,10号线,121.457950,31.214602,,[],[],交通设施,上海市,上海市,徐汇区
BX10017056,南京西路地铁站1号口,交通设施服务;地铁站;出入口,150501,2号线,121.459045,31.229809,,[],[],交通设施,上海市,上海市,静安区
BX10016102,上海南站地铁站1号口,交通设施服务;地铁站;出入口,150501,3号线,121.431545,31.153517,,[],[],交通设施,上海市,上海市,徐汇区
BX10016142,一大会址·黄陂南路地铁站1号口,交通设施服务;地铁站;出入口,150501,1号线,121.472532,31.222223,,[],[],交通设施,上海市,上海市,黄浦区
BX10020124,七莘路地铁站3号口,交通设施服务;地铁站;出入口,150501,12号线,121.362672,31.131426,,[],[],交通设施,上海市,上海市,闵行区
BX10016179,常熟路地铁站1号口,交通设施服务;地铁站;出入口,150501,1号线,121.450767,31.213442,,[],[],交通设施,上海市,上海市,徐汇区
BX10016952,打浦桥地铁站1号口,交通设施服务;地铁站;出入口,150501,9号线,121.468704,31.207511,,[],[],交通设施,上海市,上海市,黄浦区
BX10016753,南京东路地铁站6号口,交通设施服务;地铁站;出入口,150501,10号线,121.484523,31.239104,,[],[],交通设施,上海市,上海市,黄浦区
BX10016300,江苏路地铁站2号口,交通设施服务;地铁站;出入口,150501,2号线,121.433301,31.220252,,[],[],交通设施,上海市,上海市,长宁区
BX10020106,南京西路地铁站5号口,交通设施服务;地铁站;出入口,150501,13号线,121.462179,31.230087,,[],[],交通设施,上海市,上海市,静安区
BX10016298,江苏路地铁站1号口,交通设施服务;地铁站;出入口,150501,2号线,121.431491,31.219767,,[],[],交通设施,上海市,上海市,长宁区
BX10017037,北新泾地铁站2号口,交通设施服务;地铁站;出入口,150501,2号线,121.375070,31.216208,,[],[],交通设施,上海市,上海市,长宁区
BX10016256,漕宝路地铁站1号口,交通设施服务;地铁站;出入口,150501,1号线,121.434182,31.167950,,[],[],交通设施,上海市,上海市,徐汇区
BX10016984,桂林路地铁站1号口,交通设施服务;地铁站;出入口,150501,9号线,121.419164,31.175366,,[],[],交通设施,上海市,上海市,徐汇区
BX10016215,人民广场地铁站8号口,交通设施服务;地铁站;出入口,150501,2号线,121.472452,31.233557,,[],[],交通设施,上海市,上海市,黄浦区
BX10016374,东方体育中心地铁站4号口,交通设施服务;地铁站;出入口,150501,11号线;6号线;8号线,121.479670,31.153140,,[],[],交通设施,上海市,上海市,浦东新区
BX10016965,静安寺地铁站1号口,交通设施服务;地铁站;出入口,150501,2号线,121.445324,31.222963,,[],[],交通设施,上海市,上海市,静安区
BX10016140,一大会址·黄陂南路地铁站2号口,交通设施服务;地铁站;出入口,150501,1号线,121.474074,31.222758,,[],[],交通设施,上海市,上海市,黄浦区
BX10017058,南京西路地铁站4号口,交通设施服务;地铁站;出入口,150501,2号线,121.459424,31.229254,,[],[],交通设施,上海市,上海市,静安区
BX10016316,交通大学地铁站5号口,交通设施服务;地铁站;出入口,150501,10号线,121.433849,31.201833,,[],[],交通设施,上海市,上海市,长宁区
BX10016677,长寿路地铁站7号口,交通设施服务;地铁站;出入口,150501,7号线,121.437647,31.239871,,[],[],交通设施,上海市,上海市,普陀区
BX10016812,龙柏新村地铁站3号口,交通设施服务;地铁站;出入口,150501,10号线,121.371030,31.175521,,[],[],交通设施,上海市,上海市,闵行区
BX10020165,陕西南路地铁站10号口,交通设施服务;地铁站;出入口,150501,12号线,121.458977,31.216434,,[],[],交通设施,上海市,上海市,徐汇区
BX10016038,金沙江路地铁站2号口,交通设施服务;地铁站;出入口,150501,3号线,121.413122,31.232288,,[],[],交通设施,上海市,上海市,普陀区
BX10016304,龙耀路地铁站1号口,交通设施服务;地铁站;出入口,150501,11号线,121.459856,31.160366,,[],[],交通设施,上海市,上海市,徐汇区
BX10020138,南京西路地铁站14号口,交通设施服务;地铁站;出入口,150501,12号线,121.458837,31.228335,,[],[],交通设施,上海市,上海市,静安区
BX10017043,威宁路地铁站2号口,交通设施服务;地铁站;出入口,150501,2号线,121.387723,31.214479,,[],[],交通设施,上海市,上海市,长宁区
BX10016874,肇嘉浜路地铁站2号口,交通设施服务;地铁站;出入口,150501,9号线,121.450729,31.199257,,[],[],交通设施,上海市,上海市,徐汇区
BX10020109,南京西路地铁站11号口,交通设施服务;地铁站;出入口,150501,13号线,121.461759,31.230244,,[],[],交通设施,上海市,上海市,静安区
BX10016543,中华艺术宫地铁站3号口,交通设施服务;地铁站;出入口,150501,8号线,121.493385,31.185041,,[],[],交通设施,上海市,上海市,浦东新区
BX10016303,江苏路地铁站7号口,交通设施服务;地铁站;出入口,150501,11号线,121.430568,31.219823,,[],[],交通设施,上海市,上海市,长宁区
BX09914355,景洪路地铁站5号口,交通设施服务;地铁站;出入口,150501,市域机场线,121.444301,31.109890,,[],[],交通设施,上海市,上海市,闵行区
BX10016957,漕河泾开发区地铁站1号口,交通设施服务;地铁站;出入口,150501,9号线,121.398481,31.171096,,[],[],交通设施,上海市,上海市,徐汇区
BX10016214,人民广场地铁站9号口,交通设施服务;地铁站;出入口,150501,2号线,121.471799,31.232865,,[],[],交通设施,上海市,上海市,黄浦区
BX10016964,静安寺地铁站6号口,交通设施服务;地铁站;出入口,150501,7号线,121.448501,31.223916,,[],[],交通设施,上海市,上海市,静安区
BX10016722,一大会址·新天地地铁站6号口,交通设施服务;地铁站;出入口,150501,10号线,121.474702,31.216443,,[],[],交通设施,上海市,上海市,黄浦区
BX10016186,陕西南路地铁站4号口,交通设施服务;地铁站;出入口,150501,1号线,121.461139,31.217429,,[],[],交通设施,上海市,上海市,黄浦区
BX10016190,陕西南路地铁站6号口,交通设施服务;地铁站;出入口,150501,10号线,121.459209,31.215142,,[],[],交通设施,上海市,上海市,徐汇区
BX10020116,淮海中路地铁站1号口,交通设施服务;地铁站;出入口,150501,13号线,121.464801,31.219395,,[],[],交通设施,上海市,上海市,黄浦区
BX10016174,常熟路地铁站4号口,交通设施服务;地铁站;出入口,150501,1号线,121.450253,31.212917,,[],[],交通设施,上海市,上海市,徐汇区
BX10019522,合川路地铁站1号口,交通设施服务;地铁站;出入口,150501,9号线,121.385272,31.166918,,[],[],交通设施,上海市,上海市,闵行区
BX10020806,陕西南路地铁站1号口,交通设施服务;地铁站;出入口,150501,1号线,121.459351,31.216515,,[],[],交通设施,上海市,上海市,黄浦区
BX10031495,桂林公园地铁站5号口,交通设施服务;地铁站;出入口,150501,15号线,121.418197,31.167220,,[],[],交通设施,上海市,上海市,徐汇区
BX10016515,老西门地铁站1号口,交通设施服务;地铁站;出入口,150501,8号线,121.483059,31.219258,,[],[],交通设施,上海市,上海市,黄浦区
BX10016953,打浦桥地铁站2号口,交通设施服务;地铁站;出入口,150501,9号线,121.469464,31.205769,,[],[],交通设施,上海市,上海市,黄浦区
BX10016373,东方体育中心地铁站6号口,交通设施服务;地铁站;出入口,150501,11号线;6号线;8号线,121.480116,31.153839,,[],[],交通设施,上海市,上海市,浦东新区
BX09905330,静安寺地铁站12号口,交通设施服务;地铁站;出入口,150501,14号线,121.445589,31.220197,,[],[],交通设施,上海市,上海市,静安区
BX10016056,宜山路地铁站4号口,交通设施服务;地铁站;出入口,150501,4号线,121.426690,31.187437,,[],[],交通设施,上海市,上海市,徐汇区
BX10016845,马当路地铁站3号口,交通设施服务;地铁站;出入口,150501,9号线,121.476786,31.208810,,[],[],交通设施,上海市,上海市,黄浦区
BX10016971,静安寺地铁站3号口,交通设施服务;地铁站;出入口,150501,2号线,121.447213,31.223773,,[],[],交通设施,上海市,上海市,静安区
BX10016191,衡山路地铁站1号口,交通设施服务;地铁站;出入口,150501,1号线,121.446269,31.203921,,[],[],交通设施,上海市,上海市,徐汇区
BX10016898,嘉善路地铁站2号口,交通设施服务;地铁站;出入口,150501,9号线,121.461430,31.202664,,[],[],交通设施,上海市,上海市,徐汇区
BX10020137,南京西路地铁站13号口,交通设施服务;地铁站;出入口,150501,12号线,121.459010,31.227787,,[],[],交通设施,上海市,上海市,静安区
BX10016185,陕西南路地铁站2号口,交通设施服务;地铁站;出入口,150501,1号线,121.459343,31.217126,,[],[],交通设施,上海市,上海市,黄浦区
BX10017033,淞虹路地铁站4号口,交通设施服务;地铁站;出入口,150501,2号线,121.358486,31.217831,,[],[],交通设施,上海市,上海市,长宁区
BX10016723,一大会址·新天地地铁站1号口,交通设施服务;地铁站;出入口,150501,10号线,121.475500,31.216609,,[],[],交通设施,上海市,上海市,黄浦区
BX10016478,西藏南路地铁站5号口,交通设施服务;地铁站;出入口,150501,8号线,121.488970,31.202396,,[],[],交通设施,上海市,上海市,黄浦区
BX10016861,星中路地铁站1号口,交通设施服务;地铁站;出入口,150501,9号线,121.369569,31.158418,,[],[],交通设施,上海市,上海市,闵行区
BX09913238,三林南地铁站1号口,交通设施服务;地铁站;出入口,150501,市域机场线,121.486951,31.126255,,[],[],交通设施,上海市,上海市,浦东新区
BX09907678,莘庄地铁站南1口,交通设施服务;地铁站;出入口,150501,1号线;5号线,121.386037,31.109709,,[],[],交通设施,上海市,上海市,闵行区
BX10035218,豫园地铁站6号口,交通设施服务;地铁站;出入口,150501,14号线,121.488817,31.230049,,[],[],交通设施,上海市,上海市,黄浦区
BX10016168,徐家汇地铁站16号口,交通设施服务;地铁站;出入口,150501,9号线,121.437709,31.196002,,[],[],交通设施,上海市,上海市,徐汇区
BX10022790,龙华中路地铁站5号口,交通设施服务;地铁站;出入口,150501,7号线,121.457538,31.183483,,[],[],交通设施,上海市,上海市,徐汇区
BX10016026,虹桥路地铁站6号口,交通设施服务;地铁站;出入口,150501,10号线,121.421830,31.196244,,[],[],交通设施,上海市,上海市,长宁区
BX10017053,娄山关路地铁站1号口,交通设施服务;地铁站;出入口,150501,2号线,121.405093,31.211225,,[],[],交通设施,上海市,上海市,长宁区
BX10016678,长寿路地铁站5号口,交通设施服务;地铁站;出入口,150501,7号线,121.438909,31.239656,,[],[],交通设施,上海市,上海市,普陀区
BX10020162,虹梅路地铁站2号口,交通设施服务;地铁站;出入口,150501,12号线,121.399421,31.160606,,[],[],交通设施,上海市,上海市,闵行区
BX10020128,嘉善路地铁站4号口,交通设施服务;地铁站;出入口,150501,12号线,121.460889,31.201408,,[],[],交通设施,上海市,上海市,徐汇区
BX10016954,打浦桥地铁站4号口,交通设施服务;地铁站;出入口,150501,9号线,121.467447,31.206220,,[],[],交通设施,上海市,上海市,黄浦区
BX10016078,延安西路地铁站2号口,交通设施服务;地铁站;出入口,150501,3号线;4号线,121.416925,31.208935,,[],[],交通设施,上海市,上海市,长宁区
BX10016060,宜山路地铁站7号口,交通设施服务;地铁站;出入口,150501,9号线,121.427817,31.184473,,[],[],交通设施,上海市,上海市,徐汇区
BX10019876,大渡河路地铁站3号口,交通设施服务;地铁站;出入口,150501,13号线,121.393284,31.231425,,[],[],交通设施,上海市,上海市,普陀区
BX10016682,长寿路地铁站3号口,交通设施服务;地铁站;出入口,150501,13号线,121.438505,31.241526,,[],[],交通设施,上海市,上海市,普陀区
BX10016704,武宁路地铁站1号口,交通设施服务;地铁站;出入口,150501,13号线,121.429866,31.234174,,[],[],交通设施,上海市,上海市,普陀区
BX10016027,虹桥路地铁站4号口,交通设施服务;地铁站;出入口,150501,10号线,121.422989,31.197039,,[],[],交通设施,上海市,上海市,长宁区
BX10032274,上海南站地铁站10号口,交通设施服务;地铁站;出入口,150501,15号线,121.431202,31.156029,,[],[],交通设施,上海市,上海市,徐汇区
BX10020105,南京西路地铁站8号口,交通设施服务;地铁站;出入口,150501,13号线,121.463051,31.227528,,[],[],交通设施,上海市,上海市,静安区
BX10016709,天潼路地铁站5号口,交通设施服务;地铁站;出入口,150501,10号线,121.481969,31.243946,,[],[],交通设施,上海市,上海市,静安区
BX10016315,交通大学地铁站1号口,交通设施服务;地铁站;出入口,150501,10号线,121.435709,31.202106,,[],[],交通设施,上海市,上海市,徐汇区
BX10016208,人民广场地铁站11号口,交通设施服务;地铁站;出入口,150501,2号线,121.471172,31.232077,,[],[],交通设施,上海市,上海市,黄浦区
BX10016805,宋园路地铁站2号口,交通设施服务;地铁站;出入口,150501,10号线,121.412630,31.196238,,[],[],交通设施,上海市,上海市,长宁区
BX10016776,水城路地铁站1号口,交通设施服务;地铁站;出入口,150501,10号线,121.392371,31.200059,,[],[],交通设施,上海市,上海市,长宁区
BX10016854,东安路地铁站1号口,交通设施服务;地铁站;出入口,150501,4号线,121.455536,31.190842,,[],[],交通设施,上海市,上海市,徐汇区
BX10016154,徐家汇地铁站1号口,交通设施服务;地铁站;出入口,150501,1号线,121.437006,31.189314,,[],[],交通设施,上海市,上海市,徐汇区
BX10016302,江苏路地铁站4号口,交通设施服务;地铁站;出入口,150501,2号线,121.431766,31.219488,,[],[],交通设施,上海市,上海市,长宁区
BV10387424,莲花路地铁站(北广场)(公交站),交通设施服务;公交车站;公交车站相关,150700,DZ乐莲线;莲亭专线;莲卫专线;莲山专线;莲廊专线;莲张专线;莲朱专线;莲松专线;莲枫专线;莲浜专线;莲漕专线;莲金专线,121.400894,31.129351,,[],[],交通设施,上海市,上海市,闵行区
BV10031528,淮海中路武康路(公交站),交通设施服务;公交车站;公交车站相关,150700,26路;911路;911路双层;926路,121.438533,31.204397,,[],[],交通设施,上海市,上海市,徐汇区
BV10025344,普安路延安东路(公交站),交通设施服务;公交车站;公交车站相关,150700,775路;782路;783路;934路;DZ普南线;沪朱高速定班线,121.476400,31.226472,,[],[],交通设施,上海市,上海市,黄浦区
BV10025013,莲花路地铁站(公交站),交通设施服务;公交车站;公交车站相关,150700,150路;162路;166路;700路;704路;704路B线;712路;720路;747路;753路;757路;上石线;亭梅线;南梅线;古美环线(内圈);古美环线(外圈);徐闵夜宵专线;徐闵线;松梅专线;枫梅线;石梅线;莲亭专线;莲枫专线;莲浜专线;莲金专线;闵行20路;闵行22路;闵行58路;闵行6路,121.403041,31.132198,,[],[],交通设施,上海市,上海市,闵行区
BV10024948,上海南站(南广场)(公交站),交通设施服务;公交车站;公交车站相关,150700,315路;860路;867路;973路;上嘉线;上奉专线;上松夜宵线;上石线;上青线;南南线;春运10线(原315路);春运28线(上松夜宵线);春运28线(原上松夜宵线);春运29线(原上青线),121.432622,31.152739,,[],[],交通设施,上海市,上海市,徐汇区
BV11459012,新开河路中山东二路(公交站),交通设施服务;公交车站;公交车站相关,150700,911路;911路双层,121.494420,31.229605,,[],[],交通设施,上海市,上海市,黄浦区
BV10915580,梅陇汽车站(公交站),交通设施服务;公交车站;公交车站相关,150700,DZ钱梅线;亭梅线;枫梅线;石梅线,121.412948,31.141371,,[],[],交通设施,上海市,上海市,徐汇区
BV11082437,人民广场(武胜路)(公交站),交通设施服务;公交车站;公交车站相关,150700,(停运)E乘巴士006路;112路;112路区间;312路;451路;51路;DZ金山旅游1线;隧道六线,121.477049,31.228911,,[],[],交通设施,上海市,上海市,黄浦区
BV09461188,延安东路外滩(公交站),交通设施服务;公交车站;公交车站相关,150700,71路,121.490942,31.233082,,[],[],交通设施,上海市,上海市,黄浦区
BV10029812,莘庄地铁站南广场(公交站),交通设施服务;公交车站;公交车站相关,150700,873路;莘庄工业区1路;闵行31路;闵行9路;闵行DZ9路,121.387504,31.110759,,[],[],交通设施,上海市,上海市,闵行区
BV10459086,外滩·外白渡桥(公交站),交通设施服务;公交车站;公交车站相关,150700,都市观光旅游3号线,121.490105,31.239944,,[],[],交通设施,上海市,上海市,黄浦区
BV10025484,静安寺(公交站),交通设施服务;公交车站;公交车站相关,150700,113路;15路;20路;315路;321路;323路;327路;330路;37路;40路;45路;57路;76路;824路;830路;838路;927路;93路;94路;春运10线(原315路);春运DZ1线,121.443932,31.224119,,[],[],交通设施,上海市,上海市,静安区
BV10039346,莲花路地铁站(南广场)(公交站),交通设施服务;公交车站;公交车站相关,150700,152路;156路;闵行27路,121.403785,31.130741,,[],[],交通设施,上海市,上海市,闵行区
BV09368720,莘庄(公交站),交通设施服务;公交车站;公交车站相关,150700,125路;150路;153路;166路;189路;196路;700路;704路B线;708路;712路;747路;91路;徐闵夜宵专线;徐闵线;春运14线(原虹桥枢纽4路);春运15线(原虹桥枢纽5路);春运临1线(原虹桥枢纽5路);春运临2线(原虹桥枢纽4路);春运临3线(原虹桥枢纽5路);松莘线;松莘线B线;松莘线区间;莘庄1路;莘庄2路;虹桥枢纽4路;虹桥枢纽5路;金山铁路;金山铁路(不过上海南站);金山铁路(亭林/车墩/莘庄);金山铁路(莘庄/新桥/亭林);闵行1路;闵行20路;闵行31路,121.377847,31.107224,,[],[],交通设施,上海市,上海市,闵行区
BV10025346,延安东路浙江中路(公交站),交通设施服务;公交车站;公交车站相关,150700,(停运)虹桥机场夜宵巴士;01路;123路;311路;455路;455路大站车;805路/805路旅游观光环线;934路;春运3线(原隧道夜宵线);机场守航夜宵线;隧道三线;隧道六线;隧道夜宵线,121.479630,31.229438,,[],[],交通设施,上海市,上海市,黄浦区
BV10337962,莘庄地铁站(北广场)(公交站),交通设施服务;公交车站;公交车站相关,150700,189路;708路;712路;759路;763路;莘庄2路,121.383690,31.114015,,[],[],交通设施,上海市,上海市,闵行区
BV10026003,上海体育馆(公交站),交通设施服务;公交车站;公交车站相关,150700,120路;122路;138路;157路;167路;178路大站车;198路;218路;315路;456路;49路;703路;704路;704路B线;718路;720路;721路;754路;808路;824路;89路;923路;926路;92路;957路;985路;徐川专线;春运10线(原315路),121.439575,31.183466,,[],[],交通设施,上海市,上海市,徐汇区
BV10025907,陆家浜路跨龙路(公交站),交通设施服务;公交车站;公交车站相关,150700,303路;64路;730路;782路;840路;955路;985路;大桥一线高峰车;徐川专线;春运24线(原303路);春运2线(原840路),121.494433,31.212659,,[],[],交通设施,上海市,上海市,黄浦区
BV10025621,中山公园地铁站(公交站),交通设施服务;公交车站;公交车站相关,150700,13路;190路;519路;67路;857路;946路;96路,121.416719,31.219886,,[],[],交通设施,上海市,上海市,长宁区
BV10024800,曹杨路兰溪路(公交站),交通设施服务;公交车站;公交车站相关,150700,129路;319路;323路;340路;62路;63路;717路;740路;742路;743路;768路;826路;838路;923路;948路;北安跨线;陆安线(高速);陆安线(高速)B,121.413832,31.240334,,[],[],交通设施,上海市,上海市,普陀区
BV10024771,市六医院(公交站),交通设施服务;公交车站;公交车站相关,150700,1211路;122路;171路;205路;224路;224路大站车;303路;721路;732路;830路;89路;927路;93路;春运24线(原303路),121.423381,31.177292,,[],[],交通设施,上海市,上海市,徐汇区
BV10029791,人民广场(福州路)(公交站),交通设施服务;公交车站;公交车站相关,150700,167路;18路;312路;318路;451路;455路;455路大站车;49路;537路;930路;隧道三线;隧道夜宵线,121.475555,31.232651,,[],[],交通设施,上海市,上海市,黄浦区
BV10025599,河南中路南京东路(公交站),交通设施服务;公交车站;公交车站相关,150700,17路;220路;306路;316路/316路(夜宵线);64路;66路;66路区间;805路/805路旅游观光环线;929路;春运22线(原316路);春运7线(原306路);红色旅游巴士专线,121.485344,31.236298,,[],[],交通设施,上海市,上海市,黄浦区
BV10030421,新北门(公交站),交通设施服务;公交车站;公交车站相关,150700,11路内圈;11路外圈;64路;736路;805路/805路旅游观光环线;911路;911路双层;926路;930路;DZ112线,121.491806,31.229484,,[],[],交通设施,上海市,上海市,黄浦区
BV10382937,肇嘉浜路天平路(徐家汇)(公交站),交通设施服务;公交车站;公交车站相关,150700,171路;303路;43路;44路;50路;572路;72路;824路;836路;927路;93路;956路;957路;985路;徐川专线;徐闵夜宵专线;徐闵线;春运24线(原303路),121.439885,31.194341,,[],[],交通设施,上海市,上海市,徐汇区
BV11601490,人民广场(公交站),交通设施服务;公交车站;公交车站相关,150700,123路;312路;46路;49路,121.475864,31.231029,,[],[],交通设施,上海市,上海市,黄浦区
BV10025072,上海南站(公交站),交通设施服务;公交车站;公交车站相关,150700,156路;957路;机场七线;金山铁路;金山铁路(不过莘庄);金山铁路(亭林/车墩/新桥/春申);金山铁路(新桥/亭林);金山铁路(直达);金山铁路(车墩/亭林);金山铁路(车墩/新桥/春申),121.436618,31.151572,,[],[],交通设施,上海市,上海市,徐汇区
BV10029706,徐家汇(公交站),交通设施服务;公交车站;公交车站相关,150700,167路;205路;303路;320路;42路;43路;50路;732路;824路;830路;926路;946路;957路;徐闵线;春运24线(原303路);松江DZ5线;隧道夜宵一线,121.437695,31.190569,,[],[],交通设施,上海市,上海市,徐汇区
BV10030192,中山东二路新开河路(公交站),交通设施服务;公交车站;公交车站相关,150700,305路;307路;317路;33路;55路;576路;65路;805路/805路旅游观光环线;866路;932路;DZ418线,121.494897,31.230462,,[],[],交通设施,上海市,上海市,黄浦区
BV10031504,淮海中路思南路(公交站),交通设施服务;公交车站;公交车站相关,150700,146路内圈;146路外圈;167路;320路;42路;911路;911路双层;926路;986路;986路(区间);春运23线(原320路),121.467276,31.220190,,[],[],交通设施,上海市,上海市,黄浦区
BV10025875,上海南站(北广场)(公交站),交通设施服务;公交车站;公交车站相关,150700,1252路;301路;303路;729路;747路;763路;DZ206路;春运24线(原303路);春运4线(原301路);虹桥枢纽1路,121.429097,31.156309,,[],[],交通设施,上海市,上海市,徐汇区
BV10024999,莘庄地铁站北广场(公交站),交通设施服务;公交车站;公交车站相关,150700,125路;150路;166路;700路;704路B线;747路;徐闵夜宵专线;徐闵线;松莘线B线;莘庄3路;莘庄3路B线;闵行1路;闵行20路;闵行55路,121.384385,31.112305,,[],[],交通设施,上海市,上海市,闵行区
BV10024785,中山东一路汉口路(公交站),交通设施服务;公交车站;公交车站相关,150700,123路;135路;305路;317路;33路;55路;55路大站车(早高峰);55路大站车(晚高峰);576路;65路;934路;春运6线(原305路),121.490148,31.237365,,[],[],交通设施,上海市,上海市,黄浦区
BV10024942,龙华(公交站),交通设施服务;公交车站;公交车站相关,150700,(停运)DZ416路;104路;111路;120路;166路;167路;178路;178路大站车;301路;342路;41路;44路;56路;714路;720路;733路;770路;809路;824路;864路;87路;932路;933路;956路;957路;徐闵夜宵专线;春运4线(原301路),121.447725,31.173493,,[],[],交通设施,上海市,上海市,徐汇区
BV10025233,中山东一路南京东路(公交站),交通设施服务;公交车站;公交车站相关,150700,305路;307路;317路;33路;55路;55路大站车(早高峰);55路大站车(晚高峰);65路,121.490309,31.241412,,[],[],交通设施,上海市,上海市,黄浦区
BV10025829,天山西路福泉路(公交站),交通设施服务;公交车站;公交车站相关,150700,1205路;1221路(高峰线);141路;176路;316路/316路(夜宵线);74路;855路(区间);876路;889路;新泾1路;新泾1路区间;春运22线(原316路),121.359440,31.218268,,[],[],交通设施,上海市,上海市,长宁区
BV11305605,汉口路四川中路(公交站),交通设施服务;公交车站;公交车站相关,150700,20路;DZ112线,121.487840,31.236455,,[],[],交通设施,上海市,上海市,黄浦区
BV10860379,华山路(快速公交站),交通设施服务;公交车站;快速公交站,150704,71路;71路区间,121.444609,31.220833,,[],[],交通设施,上海市,上海市,静安区
BV10024872,老西门(公交站),交通设施服务;公交车站;公交车站相关,150700,11路内圈;11路外圈;135路;220路;304路;324路;537路;736路;926路;930路;春运12线(原324路),121.483850,31.221328,,[],[],交通设施,上海市,上海市,黄浦区
BV10031541,沪闵路柳州路(公交站),交通设施服务;公交车站;公交车站相关,150700,218路;301路;50路;703路;704路;704路B线;729路;徐闵线;春运4线(原301路),121.428064,31.156032,,[],[],交通设施,上海市,上海市,徐汇区
BV10029143,人民广场(广东路)(公交站),交通设施服务;公交车站;公交车站相关,150700,108路;108路区间;167路;312路;318路;454路;537路;930路;980路;DZ414线;春运3线(原隧道夜宵线);隧道三线;隧道夜宵线,121.476927,31.230846,,[],[],交通设施,上海市,上海市,黄浦区
BV10025492,德州路西营路(公交站),交通设施服务;公交车站;公交车站相关,150700,1131路;610路;781路;浦东97路,121.486020,31.167079,,[],[],交通设施,上海市,上海市,浦东新区
BV10338445,愚园路胶州路(公交站),交通设施服务;公交车站;公交车站相关,150700,21路;37路;57路;88路,121.446056,31.226008,,[],[],交通设施,上海市,上海市,静安区
BV10028303,莘庄地铁站(南广场)(公交站),交通设施服务;公交车站;公交车站相关,150700,143路;143路(夜区间);725路;759路;莘南专线;闵行25路;闵行30路;闵行41路;闵行9路,121.386459,31.110079,,[],[],交通设施,上海市,上海市,闵行区
BV10559169,延安中路华山路(公交站),交通设施服务;公交车站;公交车站相关,150700,机场守航夜宵线,121.444423,31.220768,,[],[],交通设施,上海市,上海市,静安区
BV10024799,和平新村(公交站),交通设施服务;公交车站;公交车站相关,150700,129路;216路;224路;309路;321路;40路;69路;737路;743路;826路;846路;876路;909路;951路,121.425329,31.244871,,[],[],交通设施,上海市,上海市,普陀区
BV10619656,中山公园(长宁路)(公交站),交通设施服务;公交车站;公交车站相关,150700,13路;20路;316路/316路(夜宵线);54路;737路;765路;857路;88路;941路,121.419006,31.218741,,[],[],交通设施,上海市,上海市,长宁区
BV10024589,真如西村(公交站),交通设施服务;公交车站;公交车站相关,150700,105路;323路;340路;62路;63路;717路;740路;743路;826路;838路;北安跨线;陆安线(高速);陆安线(高速)B,121.399665,31.244600,,[],[],交通设施,上海市,上海市,普陀区
BV10024773,漕溪北路裕德路(公交站),交通设施服务;公交车站;公交车站相关,150700,167路;303路;342路;43路;50路;56路;754路;770路;824路;923路;926路;927路;946路;957路;958路;大桥六线;徐川专线;徐闵线;春运24线(原303路);隧道二线,121.436508,31.185103,,[],[],交通设施,上海市,上海市,徐汇区
BV10031514,淮海中路陕西南路(公交站),交通设施服务;公交车站;公交车站相关,150700,167路;26路;320路;42路;911路;911路双层;926路;春运23线(原320路),121.457664,31.216248,,[],[],交通设施,上海市,上海市,徐汇区
BV10025908,陆家浜路大兴街(公交站),交通设施服务;公交车站;公交车站相关,150700,218路;303路;43路;730路;782路;915路;955路;985路;大桥一线高峰车;春运24线(原303路),121.488446,31.212169,,[],[],交通设施,上海市,上海市,黄浦区
BV10026123,七莘路秀文路(公交站),交通设施服务;公交车站;公交车站相关,150700,196路;91路;春运15线(原虹桥枢纽5路);春运临1线(原虹桥枢纽5路);春运临3线(原虹桥枢纽5路);虹桥枢纽5路;闵行21路;闵行33路A线;闵行55路,121.368880,31.124661,,[],[],交通设施,上海市,上海市,闵行区
BV10024950,上海体育场(公交站),交通设施服务;公交车站;公交车站相关,150700,15路;178路大站车;315路;44路;733路;770路;808路;824路;927路;92路;932路;957路;958路;大桥六线;春运10线(原315路);隧道二线,121.439575,31.183466,,[],[],交通设施,上海市,上海市,徐汇区
BV10024763,沪闵路虹梅南路(公交站),交通设施服务;公交车站;公交车站相关,150700,122路;131路;166路;257路;50路;50路区间;703路;704路;704路B线;712路;725路;735路;747路;804路;上石线;徐闵夜宵专线;徐闵线;虹桥枢纽1路,121.413955,31.143083,,[],[],交通设施,上海市,上海市,徐汇区
BV10025929,金陵中路龙门路(公交站),交通设施服务;公交车站;公交车站相关,150700,108路;108路区间;23路;455路;455路大站车;775路;782路;783路;789路,121.478273,31.226046,,[],[],交通设施,上海市,上海市,黄浦区
BV10024970,虹桥镇(公交站),交通设施服务;公交车站;公交车站相关,150700,149路;548路;69路;721路;757路;804路;809路;857路;87路;虹桥镇社区巴士;虹桥镇社区巴士内环,121.392685,31.179752,,[],[],交通设施,上海市,上海市,闵行区
BV10031618,汉口路江西中路(公交站),交通设施服务;公交车站;公交车站相关,150700,49路,121.486350,31.236124,,[],[],交通设施,上海市,上海市,黄浦区
BV10038527,外环路地铁站(公交站),交通设施服务;公交车站;公交车站相关,150700,125路;957路;松莘线;松莘线B线;松莘线区间,121.392109,31.120304,,[],[],交通设施,上海市,上海市,闵行区
BV10026538,成都北路南京西路(公交站),交通设施服务;公交车站;公交车站相关,150700,36路;869路;933路;95路;沪嘉专线,121.466853,31.232253,,[],[],交通设施,上海市,上海市,黄浦区
BV10033404,顾戴路秀波路(公交站),交通设施服务;公交车站;公交车站相关,150700,125路B线;189路;196路;759路;91路;春运14线(原虹桥枢纽4路);春运临2线(原虹桥枢纽4路);虹桥枢纽4路;虹桥枢纽5路;闵行21路;闵行21路B线;闵行33路A线;闵行33路B线;闵行55路,121.360291,31.130499,,[],[],交通设施,上海市,上海市,闵行区
BV10459091,大韩民国临时政府旧址(公交站),交通设施服务;公交车站;公交车站相关,150700,都市观光旅游1线,121.474808,31.217225,,[],[],交通设施,上海市,上海市,黄浦区
BV11356274,中山公园(万航渡路)(公交站),交通设施服务;公交车站;公交车站相关,150700,20路,121.418794,31.223582,,[],[],交通设施,上海市,上海市,长宁区
BV10029788,西藏中路北京东路(公交站),交通设施服务;公交车站;公交车站相关,150700,108路;108路区间;18路;312路;318路;46路;51路;537路;930路,121.473831,31.236818,,[],[],交通设施,上海市,上海市,黄浦区
BV10025198,西区汽车站(公交站),交通设施服务;公交车站;公交车站相关,150700,186路;224路;224路大站车;48路;548路;808路;857路;87路,121.420135,31.188793,,[],[],交通设施,上海市,上海市,徐汇区
BV10947166,外滩·海关大楼(公交站),交通设施服务;公交车站;公交车站相关,150700,旅游10号线;都市观光旅游1线,121.490116,31.237623,,[],[],交通设施,上海市,上海市,黄浦区
BV11043397,中山公园(公交站),交通设施服务;公交车站;公交车站相关,150700,316路/316路(夜宵线);330路;519路;54路;737路;765路;941路;946路;947路;春运22线(原316路),121.418403,31.218433,,[],[],交通设施,上海市,上海市,长宁区
BV10024944,龙吴路龙漕路(公交站),交通设施服务;公交车站;公交车站相关,150700,111路;178路;178路大站车;342路;56路;714路;720路;733路;770路;824路;932路;956路;957路;958路;DZ403线,121.445071,31.169346,,[],[],交通设施,上海市,上海市,徐汇区
BV10024603,长寿路常德路(公交站),交通设施服务;公交车站;公交车站相关,150700,105路;106路;13路;316路/316路(夜宵线);319路;36路;63路;740路;768路;830路;837路;941路;966路;春运22线(原316路);春运26线(原319路),121.436700,31.239426,,[],[],交通设施,上海市,上海市,普陀区
BV10025262,曹杨路白玉路(公交站),交通设施服务;公交车站;公交车站相关,150700,01路;323路;44路;62路;63路;717路;737路;740路;742路;876路;923路;948路,121.417873,31.237656,,[],[],交通设施,上海市,上海市,普陀区
BV10031489,瑞金医院(公交站),交通设施服务;公交车站;公交车站相关,150700,104路;146路内圈;301路;41路;864路;955路;955路大站车;96路,121.466392,31.209639,,[],[],交通设施,上海市,上海市,黄浦区
BV10025630,漕河泾(公交站),交通设施服务;公交车站;公交车站相关,150700,1204路;1204路B线;120路;157路;166路;186路;198路;218路;301路;315路;43路;50路;703路;704路;704路B线;718路;809路;92路;徐闵夜宵专线;徐闵线;春运10线(原315路);春运4线(原301路),121.432549,31.168224,,[],[],交通设施,上海市,上海市,徐汇区
BV10343205,天钥桥路辛耕路(徐家汇)(公交站),交通设施服务;公交车站;公交车站相关,150700,15路;315路;44路;572路;72路;732路;770路;864路;927路;958路;徐闵夜宵专线;春运10线(原315路);隧道夜宵一线,121.441638,31.192613,,[],[],交通设施,上海市,上海市,徐汇区
BV10025129,中山北路曹杨路(公交站),交通设施服务;公交车站;公交车站相关,150700,216路;224路;309路;44路;69路;837路;846路;876路;909路;94路,121.414722,31.237773,,[],[],交通设施,上海市,上海市,普陀区
BV10031495,陕西南路永嘉路(公交站),交通设施服务;公交车站;公交车站相关,150700,104路;146路外圈;24路;301路;304路;41路;786路;864路;955路;春运4线(原301路),121.461276,31.211519,,[],[],交通设施,上海市,上海市,黄浦区
BV10031594,重庆南路复兴中路(公交站),交通设施服务;公交车站;公交车站相关,150700,36路;780路;781路;786路;869路;932路;933路;95路;974路;986路;986路(区间);大桥一线高峰车;隧道八线,121.470718,31.214745,,[],[],交通设施,上海市,上海市,黄浦区
BV10024837,虹梅南路梅陇路(公交站),交通设施服务;公交车站;公交车站相关,150700,131路;218路;50路;50路区间;725路;729路;731路;735路;755路;865路;闵行22路,121.415639,31.134806,,[],[],交通设施,上海市,上海市,闵行区
BV10033516,忻康里(公交站),交通设施服务;公交车站;公交车站相关,150700,23路;824路,121.430972,31.229145,,[],[],交通设施,上海市,上海市,静安区
BV10025645,天山路娄山关路(公交站),交通设施服务;公交车站;公交车站相关,150700,1250路(71路支线1);141路;190路;311路;519路;72路;808路;856路;941路,121.402756,31.211267,,[],[],交通设施,上海市,上海市,长宁区
BV10025889,打浦桥(公交站),交通设施服务;公交车站;公交车站相关,150700,146路内圈;146路外圈;17路;218路;303路;41路;43路;786路;955路;955路大站车;96路;985路;徐川专线;春运24线(原303路);隧道一线;隧道一线区间;隧道夜宵一线,121.468866,31.205470,,[],[],交通设施,上海市,上海市,黄浦区
BV10032370,上中西路镇西路(公交站),交通设施服务;公交车站;公交车站相关,150700,156路;180路;720路;867路;闵行20路,121.410247,31.130202,,[],[],交通设施,上海市,上海市,闵行区
BV10029789,西藏北路海宁路(公交站),交通设施服务;公交车站;公交车站相关,150700,108路;108路区间;18路;312路;315路;318路;455路;455路大站车;46路;51路;春运10线(原315路);隧道三线;隧道夜宵线,121.471512,31.242899,,[],[],交通设施,上海市,上海市,静安区
BV10024831,龙川北路百色路(公交站),交通设施服务;公交车站;公交车站相关,150700,192路;718路;810路;820路;824路;957路;973路;DZ206路;南南线,121.438861,31.141525,,[],[],交通设施,上海市,上海市,徐汇区
BV10025751,漕宝路星中路(公交站),交通设施服务;公交车站;公交车站相关,150700,186路;198路;735路;739路;763路;92路,121.370026,31.158165,,[],[],交通设施,上海市,上海市,闵行区
BV10024874,西藏南路淮海东路(公交站),交通设施服务;公交车站;公交车站相关,150700,135路;17路;18路;23路;318路;324路;451路;454路;537路;775路;781路;782路;789路;930路;969路;春运12线(原324路),121.480905,31.224490,,[],[],交通设施,上海市,上海市,黄浦区
BV10024875,中山东一路广东路(公交站),交通设施服务;公交车站;公交车站相关,150700,123路;135路;307路;317路;576路;868路,121.491547,31.233967,,[],[],交通设施,上海市,上海市,黄浦区
BV10024764,虹漕南路江安路(公交站),交通设施服务;公交车站;公交车站相关,150700,122路;257路;43路;712路;725路;731路;735路;755路;804路;810路,121.417374,31.148559,,[],[],交通设施,上海市,上海市,徐汇区
BV10030826,七莘路华中路(公交站),交通设施服务;公交车站;公交车站相关,150700,189路;196路;803路;91路;春运14线(原虹桥枢纽4路);春运临2线(原虹桥枢纽4路);虹桥枢纽4路;闵行33路A线;闵行33路B线,121.362950,31.135031,,[],[],交通设施,上海市,上海市,闵行区
BV10025650,天山路天中路(公交站),交通设施服务;公交车站;公交车站相关,150700,1250路(71路支线1);141路;158路;190路;311路;316路/316路(夜宵线);54路;72路;855路;春运22线(原316路);普陀社区巴士,121.388222,31.214722,,[],[],交通设施,上海市,上海市,长宁区
BV10025299,中山东二路金陵东路(公交站),交通设施服务;公交车站;公交车站相关,150700,305路;317路;33路;55路;576路;65路;868路;春运6线(原305路),121.493671,31.231346,,[],[],交通设施,上海市,上海市,黄浦区
BV10029174,福泉路天山西路(公交站),交通设施服务;公交车站;公交车站相关,150700,1205路;74路;815路;846路;876路;新泾1路(休息日);新泾1路(节假日),121.358406,31.219471,,[],[],交通设施,上海市,上海市,长宁区
BV10025392,水城路仙霞路(公交站),交通设施服务;公交车站;公交车站相关,150700,1217路;1251路(71路支线2);519路;700路;757路;827路;856路;861路;941路,121.391085,31.204727,,[],[],交通设施,上海市,上海市,长宁区
BV10025983,肇嘉浜路大木桥路(公交站),交通设施服务;公交车站;公交车站相关,150700,104路;146路外圈;17路;205路;218路;301路;303路;327路;41路;43路;45路;786路;864路;985路;春运24线(原303路);春运4线(原301路);隧道夜宵一线,121.463234,31.203186,,[],[],交通设施,上海市,上海市,徐汇区
BV10860390,西藏中路(快速公交站),交通设施服务;公交车站;快速公交站,150704,71路,121.478859,31.229067,,[],[],交通设施,上海市,上海市,黄浦区
BV11113526,外滩(南京东路)(公交站),交通设施服务;公交车站;公交车站相关,150700,DZ414线;旅游7线(申城观光1号线);旅游8线(申城旅游2号线),121.490091,31.238525,,[],[],交通设施,上海市,上海市,黄浦区
BV10032593,龙川北路上中路(公交站),交通设施服务;公交车站;公交车站相关,150700,718路;810路;820路;824路;973路;南南线,121.440015,31.139527,,[],[],交通设施,上海市,上海市,徐汇区
BV10030144,鲁班路斜土路(公交站),交通设施服务;公交车站;公交车站相关,150700,36路;780路;781路;869路;932路;933路;95路;974路;隧道八线,121.474699,31.204968,,[],[],交通设施,上海市,上海市,黄浦区
BV10026167,中山北路陆家宅(公交站),交通设施服务;公交车站;公交车站相关,150700,129路;224路;321路;40路;737路;743路;826路;876路;909路;陆安线(高速);陆安线(高速)B,121.422394,31.243265,,[],[],交通设施,上海市,上海市,普陀区
BV10028067,梅陇(公交站),交通设施服务;公交车站;公交车站相关,150700,南梅线;松梅专线,121.412822,31.141290,,[],[],交通设施,上海市,上海市,徐汇区
BV10029770,九江路浙江中路(公交站),交通设施服务;公交车站;公交车站相关,150700,167路;20路;330路;37路;49路;805路/805路旅游观光环线,121.478229,31.234408,,[],[],交通设施,上海市,上海市,黄浦区
BV11600184,卢浦大桥(公交站),交通设施服务;公交车站;公交车站相关,150700,146路内圈;146路外圈;17路;205路;36路;733路;95路;DZ414线;隧道八线,121.478935,31.194441,,[],[],交通设施,上海市,上海市,黄浦区
BV10024643,恒丰路汉中路(公交站),交通设施服务;公交车站;公交车站相关,150700,104路;109路;185路;301路;324路;41路;64路;741路;845路;927路;春运12线(原324路);春运4线(原301路),121.455712,31.243177,,[],[],交通设施,上海市,上海市,静安区
BV10024680,江宁路康定路(公交站),交通设施服务;公交车站;公交车站相关,150700,112路;112路区间;19路;316路/316路(夜宵线);36路;738路;740路;春运22线(原316路),121.452056,31.234979,,[],[],交通设施,上海市,上海市,静安区
BV10963571,龙华东路制造局路(公交站),交通设施服务;公交车站;公交车站相关,150700,111路;306路;327路;45路;66路;66路区间;915路;春运7线(原306路);浦西滨江1路,121.489547,31.195852,,[],[],交通设施,上海市,上海市,黄浦区
BV10025127,长风公园(公交站),交通设施服务;公交车站;公交车站相关,150700,1227路;216路;44路;67路;754路;765路;766路;837路;846路;856路;858路;876路;947路;94路,121.400521,31.232105,,[],[],交通设施,上海市,上海市,普陀区
BV10024681,江宁路海防路(公交站),交通设施服务;公交车站;公交车站相关,150700,112路;112路区间;19路;206路;316路/316路(夜宵线);328路;54路;68路;738路;740路;春运22线(原316路),121.449057,31.238155,,[],[],交通设施,上海市,上海市,静安区
BV10405654,沪闵路报春路(公交站),交通设施服务;公交车站;公交车站相关,150700,150路;166路;700路;704路B线;712路;747路;徐闵夜宵专线;徐闵线;闵行20路;闵行6路,121.395119,31.125010,,[],[],交通设施,上海市,上海市,闵行区
BV10439621,康城(北大门)(公交站),交通设施服务;公交车站;公交车站相关,150700,莘庄2路,121.357903,31.108025,,[],[],交通设施,上海市,上海市,闵行区
BV10024583,武宁新村(公交站),交通设施服务;公交车站;公交车站相关,150700,01路;105路;106路;319路;321路;36路;40路;63路;742路;768路;837路;838路;876路;948路;94路;951路;春运26线(原319路),121.423468,31.238508,,[],[],交通设施,上海市,上海市,普陀区
BV10384074,吴中路虹井路(公交站),交通设施服务;公交车站;公交车站相关,150700,776路;87路;闵行18路;闵行33路B线,121.366212,31.170339,,[],[],交通设施,上海市,上海市,闵行区
BV09363540,华展路平驰路(公交站),交通设施服务;公交车站;公交车站相关,150700,718路;闵行12路;闵行DZ9路,121.445980,31.111266,,[],[],交通设施,上海市,上海市,闵行区
BV10030493,延安西路虹许路(公交站),交通设施服务;公交车站;公交车站相关,150700,(停运)虹桥机场夜宵巴士;320路;春运23线(原320路);机场守航夜宵线,121.387321,31.194036,,[],[],交通设施,上海市,上海市,长宁区
BV10031451,南辅路西环路(公交站),交通设施服务;公交车站;公交车站相关,150700,196路;闵行12路;闵行15路,121.364768,31.115060,,[],[],交通设施,上海市,上海市,闵行区
BV10024679,北京西路泰兴路(公交站),交通设施服务;公交车站;公交车站相关,150700,112路;112路区间;15路;21路;301路;315路;41路;927路;春运10线(原315路);春运4线(原301路),121.459148,31.231833,,[],[],交通设施,上海市,上海市,静安区
BV09159358,龙腾大道龙文路(公交站),交通设施服务;公交车站;公交车站相关,150700,(停运)DZ416路;浦西滨江1路,121.464818,31.159800,,[],[],交通设施,上海市,上海市,徐汇区
BV10024604,长寿路叶家宅路(公交站),交通设施服务;公交车站;公交车站相关,150700,105路;106路;13路;316路/316路(夜宵线);319路;36路;40路;54路;63路;717路;768路;837路;941路;966路;春运22线(原316路);春运26线(原319路),121.431409,31.236202,,[],[],交通设施,上海市,上海市,普陀区
BV10025318,昌里路长清路(公交站),交通设施服务;公交车站;公交车站相关,150700,1131路;338路;454路;572路;604路;871路;浦东97路;隧道二线;隧道夜宵一线,121.491208,31.173590,,[],[],交通设施,上海市,上海市,浦东新区
BV10025306,交通大学(公交站),交通设施服务;公交车站;公交车站相关,150700,26路;320路;72路;923路;926路;946路;大桥六线;春运23线(原320路),121.436172,31.201216,,[],[],交通设施,上海市,上海市,徐汇区
BV10025395,娄山关路天山路(公交站),交通设施服务;公交车站;公交车站相关,150700,309路;519路;69路;737路;88路,121.404262,31.210386,,[],[],交通设施,上海市,上海市,长宁区
BV10341877,徐家汇(华山路)(公交站),交通设施服务;公交车站;公交车站相关,150700,320路;923路;926路;946路;958路;春运23线(原320路),121.437325,31.197348,,[],[],交通设施,上海市,上海市,徐汇区
BV10025265,江苏路愚园路(公交站),交通设施服务;公交车站;公交车站相关,150700,01路;323路;44路;62路;737路;923路,121.430421,31.221224,,[],[],交通设施,上海市,上海市,长宁区
BV10031678,襄阳北路长乐路(公交站),交通设施服务;公交车站;公交车站相关,150700,94路,121.455421,31.218242,,[],[],交通设施,上海市,上海市,徐汇区
BV10028202,上浦路济阳路(公交站),交通设施服务;公交车站;公交车站相关,150700,583路;755路;761路;873路;955路;955路大站车;973路;986路,121.489540,31.144770,,[],[],交通设施,上海市,上海市,浦东新区
BV10025066,徐浦大桥(公交站),交通设施服务;公交车站;公交车站相关,150700,178路;178路大站车;342路;714路;731路;755路;770路;820路;956路;958路;上奉专线,121.455597,31.128004,,[],[],交通设施,上海市,上海市,徐汇区
BV10029719,田林路柳州路(公交站),交通设施服务;公交车站;公交车站相关,150700,120路;166路;712路;732路;820路;830路;89路;927路;93路;946路;徐闵夜宵专线,121.422122,31.171355,,[],[],交通设施,上海市,上海市,徐汇区
BV10025753,漕宝路龙茗路(公交站),交通设施服务;公交车站;公交车站相关,150700,186路;198路;735路;763路;92路,121.380777,31.157438,,[],[],交通设施,上海市,上海市,闵行区
BV10025644,天山路芙蓉江路(公交站),交通设施服务;公交车站;公交车站相关,150700,1250路(71路支线1);141路;158路;190路;311路;316路/316路(夜宵线);54路;72路;757路;808路;855路;856路;941路;春运22线(原316路),121.393928,31.213505,,[],[],交通设施,上海市,上海市,长宁区
BV10860399,娄山关路(快速公交站),交通设施服务;公交车站;快速公交站,150704,71路;71路区间,121.404110,31.201802,,[],[],交通设施,上海市,上海市,长宁区
BV10860389,定西路(快速公交站),交通设施服务;公交车站;快速公交站,150704,1250路(71路支线1);71路;71路区间,121.422649,31.209548,,[],[],交通设施,上海市,上海市,长宁区
BV10029480,海阳路长清路(公交站),交通设施服务;公交车站;公交车站相关,150700,1012路(环线);174路;782路;981路;浦东37路,121.492152,31.154307,,[],[],交通设施,上海市,上海市,浦东新区
BV10025311,枣阳路杏山路(公交站),交通设施服务;公交车站;公交车站相关,150700,44路;837路;858路;876路;94路,121.405739,31.237900,,[],[],交通设施,上海市,上海市,普陀区
BV10040029,东新桥(公交站),交通设施服务;公交车站;公交车站相关,150700,14路,121.481934,31.232301,,[],[],交通设施,上海市,上海市,黄浦区
BV10025123,真北路金沙江路(公交站),交通设施服务;公交车站;公交车站相关,150700,158路;216路;750路;807路;827路;846路;889路,121.379792,31.231450,,[],[],交通设施,上海市,上海市,普陀区
BV10024937,中山南二路大木桥路(公交站),交通设施服务;公交车站;公交车站相关,150700,111路;327路;41路;456路;45路;572路;734路;933路;大桥六线;隧道一线;隧道一线区间;隧道二线;隧道夜宵一线,121.464219,31.191589,,[],[],交通设施,上海市,上海市,徐汇区
BV10025601,河南南路福佑路(公交站),交通设施服务;公交车站;公交车站相关,150700,306路;66路;66路区间;929路;969路;980路;DZ112线;旅游7线(申城观光1号线);春运7线(原306路),121.487579,31.226641,,[],[],交通设施,上海市,上海市,黄浦区
BV10032848,七莘路黎安路(公交站),交通设施服务;公交车站;公交车站相关,150700,189路;春运14线(原虹桥枢纽4路);春运临2线(原虹桥枢纽4路);虹桥枢纽4路,121.368880,31.124661,,[],[],交通设施,上海市,上海市,闵行区
BV10025602,河南南路复兴东路(公交站),交通设施服务;公交车站;公交车站相关,150700,306路;66路;66路区间;929路;969路;980路;春运7线(原306路),121.489334,31.222733,,[],[],交通设施,上海市,上海市,黄浦区
BV09391938,莘松路莘西路(公交站),交通设施服务;公交车站;公交车站相关,150700,125路;150路;153路;196路;747路;91路;松莘线;莘庄1路;闵虹1线;闵行12路;闵行15路;闵行20路;闵行25路B线;闵行31路;闵行8路,121.373361,31.106323,,[],[],交通设施,上海市,上海市,闵行区
BV10029581,龙华中路东安路(公交站),交通设施服务;公交车站;公交车站相关,150700,50路;734路;818路;徐汇滨江环线;滨江2路,121.456521,31.184800,,[],[],交通设施,上海市,上海市,徐汇区
BV10025997,淞虹路北翟路(公交站),交通设施服务;公交车站;公交车站相关,150700,1205路;121路;190路;808路;836路;876路,121.361351,31.221184,,[],[],交通设施,上海市,上海市,长宁区
BV10340603,真光路梅川路(公交站),交通设施服务;公交车站;公交车站相关,150700,727路;807路;827路;837路;876路;948路;长征1路,121.379860,31.240929,,[],[],交通设施,上海市,上海市,普陀区
BV10025649,延安东路中山东一路(公交站),交通设施服务;公交车站;公交车站相关,150700,311路;316路/316路(夜宵线);320路;春运22线(原316路);春运23线(原320路),121.490913,31.232639,,[],[],交通设施,上海市,上海市,黄浦区
BV11586429,黄陂北路(快速公交站),交通设施服务;公交车站;快速公交站,150704,71路;71路区间,121.473772,31.226363,,[],[],交通设施,上海市,上海市,黄浦区
BV10025246,耀华路长清路(公交站),交通设施服务;公交车站;公交车站相关,150700,314路;456路;734路;761路;786路;82路;860路;隧道一线;隧道一线区间,121.488415,31.176000,,[],[],交通设施,上海市,上海市,浦东新区
BV10338310,桂林路漕宝路(公交站),交通设施服务;公交车站;公交车站相关,150700,131路;166路;303路;43路;712路;732路;763路;804路;830路;946路;春运24线(原303路),121.418798,31.165816,,[],[],交通设施,上海市,上海市,徐汇区
BV10030852,淮海中路西藏南路(公交站),交通设施服务;公交车站;公交车站相关,150700,320路;805路/805路旅游观光环线;911路;911路双层;926路;932路;春运23线(原320路);隧道八线,121.479695,31.225340,,[],[],交通设施,上海市,上海市,黄浦区
BV09372079,上海动物园枢纽(公交站),交通设施服务;公交车站;公交车站相关,150700,1207路;721路;748路(71路支线3);新泾1路;新泾1路(休息日);新泾1路(节假日),121.369333,31.189805,,[],[],交通设施,上海市,上海市,长宁区
BV10030840,淮海东路云南南路(公交站),交通设施服务;公交车站;公交车站相关,150700,320路;911路;911路双层;926路;930路;932路,121.483325,31.226862,,[],[],交通设施,上海市,上海市,黄浦区
BV11600388,龙华医院(公交站),交通设施服务;公交车站;公交车站相关,150700,167路;301路;44路;50路;733路;864路;932路,121.449704,31.187074,,[],[],交通设施,上海市,上海市,徐汇区
BV10025990,香花桥(公交站),交通设施服务;公交车站;公交车站相关,150700,48路;911路;946路,121.425638,31.203475,,[],[],交通设施,上海市,上海市,长宁区
BV10339420,汇成新村(公交站),交通设施服务;公交车站;公交车站相关,150700,131路;192路;720路;957路;973路,121.434640,31.143103,,[],[],交通设施,上海市,上海市,徐汇区
BV10337015,上海火车站(共和路)(公交站),交通设施服务;公交车站;公交车站相关,150700,113路,121.458108,31.243498,,[],[],交通设施,上海市,上海市,静安区
BV10025587,普陀医院(公交站),交通设施服务;公交车站;公交车站相关,150700,319路;63路;858路;948路;春运26线(原319路);普陀社区巴士,121.403191,31.241919,,[],[],交通设施,上海市,上海市,普陀区
BV11466117,黄陂北路(公交站),交通设施服务;公交车站;公交车站相关,150700,71路区间,121.474411,31.227252,,[],[],交通设施,上海市,上海市,黄浦区
BV10025308,曹杨路谈家渡路(公交站),交通设施服务;公交车站;公交车站相关,150700,01路;136路;323路;44路;62路;737路;923路;普陀社区巴士2线,121.421810,31.233064,,[],[],交通设施,上海市,上海市,普陀区
BV10339423,平江路枫林路(公交站),交通设施服务;公交车站;公交车站相关,150700,957路,121.454221,31.199720,,[],[],交通设施,上海市,上海市,徐汇区
BV10029779,天津路河南中路(公交站),交通设施服务;公交车站;公交车站相关,150700,330路;37路,121.483757,31.238382,,[],[],交通设施,上海市,上海市,黄浦区
BV11622911,淡水路金陵中路(公交站),交通设施服务;公交车站;公交车站相关,150700,大桥一线高峰车;沪塘专线,121.472111,31.222783,,[],[],交通设施,上海市,上海市,黄浦区
BV10025685,罗秀路龙川路(公交站),交通设施服务;公交车站;公交车站相关,150700,56路;731路;755路;820路;闵行20路,121.445516,31.133548,,[],[],交通设施,上海市,上海市,徐汇区
BV10030524,老北门(公交站),交通设施服务;公交车站;公交车站相关,150700,11路内圈;17路;320路;736路;911路;911路双层;926路;930路;932路;969路;春运23线(原320路);隧道八线,121.486265,31.228452,,[],[],交通设施,上海市,上海市,黄浦区
BV10033038,罗秀路龙吴路(公交站),交通设施服务;公交车站;公交车站相关,150700,56路;56路区间;755路;820路,121.451599,31.135186,,[],[],交通设施,上海市,上海市,徐汇区
BV11558609,梅陇西南汽车站(公交站),交通设施服务;公交车站;公交车站相关,150700,南梅线,121.412948,31.141371,,[],[],交通设施,上海市,上海市,徐汇区
BV10029767,愚园路安西路(公交站),交通设施服务;公交车站;公交车站相关,150700,20路;330路;88路,121.425910,31.218883,,[],[],交通设施,上海市,上海市,长宁区
BV10025126,金沙江路中江路(公交站),交通设施服务;公交车站;公交车站相关,150700,1227路;216路;67路;765路;766路;837路;858路;876路;94路,121.394779,31.231827,,[],[],交通设施,上海市,上海市,普陀区
BV10536079,曹家渡(长宁路)(公交站),交通设施服务;公交车站;公交车站相关,150700,136路;13路;316路/316路(夜宵线);54路;765路;941路;春运22线(原316路),121.427779,31.227584,,[],[],交通设施,上海市,上海市,静安区
BV10384960,虹桥路程家桥(公交站),交通设施服务;公交车站;公交车站相关,150700,328路;519路;57路;809路;911路;91路;941路,121.373489,31.190994,,[],[],交通设施,上海市,上海市,长宁区
BV10860384,茂名北路(快速公交站),交通设施服务;公交车站;快速公交站,150704,71路;71路区间,121.461402,31.224067,,[],[],交通设施,上海市,上海市,静安区
BV09221725,朱行(公交站),交通设施服务;公交车站;公交车站相关,150700,152路;157路;218路;50路;50路区间;725路;729路;735路;闵行22路,121.424549,31.122557,,[],[],交通设施,上海市,上海市,闵行区
BV10024765,虹漕南路浦北路(公交站),交通设施服务;公交车站;公交车站相关,150700,122路;43路;725路;732路;735路;804路;830路;93路;946路,121.415054,31.152790,,[],[],交通设施,上海市,上海市,徐汇区
BV10028361,曹家渡(公交站),交通设施服务;公交车站;公交车站相关,150700,319路;321路;327路;45路;765路;838路;951路,121.427779,31.227584,,[],[],交通设施,上海市,上海市,静安区
BV10337719,虹许路吴中路(公交站),交通设施服务;公交车站;公交车站相关,150700,700路;757路;809路;865路;上嘉线,121.395059,31.179731,,[],[],交通设施,上海市,上海市,闵行区
BV10025101,新闸路江宁路(公交站),交通设施服务;公交车站;公交车站相关,150700,104路;136路;206路;316路/316路(夜宵线);36路;春运22线(原316路),121.454909,31.232999,,[],[],交通设施,上海市,上海市,静安区
BV10029709,徐家汇路黄陂南路(公交站),交通设施服务;公交车站;公交车站相关,150700,146路内圈;218路;303路;43路;730路;781路;840路;955路;985路;大桥一线高峰车;春运24线(原303路);春运2线(原840路),121.477959,31.209758,,[],[],交通设施,上海市,上海市,黄浦区
BV10338493,上海动物园(虹桥路)(公交站),交通设施服务;公交车站;公交车站相关,150700,739路;807路;911路;91路;941路;虹桥枢纽1路,121.365526,31.190006,,[],[],交通设施,上海市,上海市,长宁区
BV10030281,水城路茅台路(公交站),交通设施服务;公交车站;公交车站相关,150700,1251路(71路支线2);519路;700路;72路;757路;827路;856路;861路;941路,121.390992,31.209412,,[],[],交通设施,上海市,上海市,长宁区
BV10025319,上南路浦东南路(公交站),交通设施服务;公交车站;公交车站相关,150700,1131路;177路;454路;456路;576路;83路;981路;沪塘专线;浦东98路;龙华医院上南航头线,121.494770,31.177348,,[],[],交通设施,上海市,上海市,浦东新区
BV10024935,中山南一路鲁班路(公交站),交通设施服务;公交车站;公交车站相关,150700,111路;327路;45路;780路;96路;大桥六线,121.479540,31.197847,,[],[],交通设施,上海市,上海市,黄浦区
BV10980556,秀波路顾戴路(公交站),交通设施服务;公交车站;公交车站相关,150700,莘庄工业区2路;闵行21路;闵行21路B线,121.362422,31.130642,,[],[],交通设施,上海市,上海市,闵行区
BV10025648,延安东路普安路(公交站),交通设施服务;公交车站;公交车站相关,150700,311路;42路;789路,121.475599,31.226727,,[],[],交通设施,上海市,上海市,黄浦区
BV10031680,济阳路凌兆路(公交站),交通设施服务;公交车站;公交车站相关,150700,1022路;583路;755路;761路;873路;955路;986路,121.490440,31.139873,,[],[],交通设施,上海市,上海市,浦东新区
BV09364277,云绵路晚亭路(公交站),交通设施服务;公交车站;公交车站相关,150700,1022路;163路,121.486480,31.125560,,[],[],交通设施,上海市,上海市,浦东新区
BV10025659,茅台路威宁路(公交站),交通设施服务;公交车站;公交车站相关,150700,1250路(71路支线1);72路;827路;836路;88路,121.386112,31.210651,,[],[],交通设施,上海市,上海市,长宁区
BV10029833,中山西路安顺路(公交站),交通设施服务;公交车站;公交车站相关,150700,141路;224路;328路;48路;72路;754路;808路;855路;857路,121.414904,31.197626,,[],[],交通设施,上海市,上海市,长宁区
BV10026125,七莘路华友路(公交站),交通设施服务;公交车站;公交车站相关,150700,189路;196路;803路;91路;春运14线(原虹桥枢纽4路);春运临2线(原虹桥枢纽4路);虹桥枢纽4路;闵行33路A线,121.360554,31.139529,,[],[],交通设施,上海市,上海市,闵行区
BV09313466,宛平南路瑞宁路(公交站),交通设施服务;公交车站;公交车站相关,150700,818路,121.455245,31.179328,,[],[],交通设施,上海市,上海市,徐汇区
BV10029808,大渡河路梅川路(公交站),交通设施服务;公交车站;公交车站相关,150700,551路;739路;754路;856路;861路;948路;长征1路,121.396532,31.240938,,[],[],交通设施,上海市,上海市,普陀区
BV10024938,中山南二路东安路(公交站),交通设施服务;公交车站;公交车站相关,150700,104路;111路;41路;456路;49路;734路;818路;933路;大桥六线,121.457622,31.187418,,[],[],交通设施,上海市,上海市,徐汇区
BV10030875,桂平路江安路(公交站),交通设施服务;公交车站;公交车站相关,150700,1252路;257路;803路;804路;93路;946路,121.412406,31.148474,,[],[],交通设施,上海市,上海市,徐汇区
BV11665555,淡水路金陵东路(公交站),交通设施服务;公交车站;公交车站相关,150700,青浦DZ9线,121.472133,31.222692,,[],[],交通设施,上海市,上海市,黄浦区
BV10029692,肇嘉浜路东安路(公交站),交通设施服务;公交车站;公交车站相关,150700,171路;205路;303路;43路;50路;864路;927路;957路;徐川专线;春运24线(原303路),121.448650,31.199218,,[],[],交通设施,上海市,上海市,徐汇区
BV10025702,斜土路枫林路(公交站),交通设施服务;公交车站;公交车站相关,150700,171路;301路;303路;49路;572路;72路;733路;89路;932路;徐汇滨江环线;春运24线(原303路);春运4线(原301路);隧道二线;隧道夜宵一线,121.457077,31.196325,,[],[],交通设施,上海市,上海市,徐汇区
BV10025681,长华路华泾路(公交站),交通设施服务;公交车站;公交车站相关,150700,714路;731路;770路;浦西滨江1路,121.448927,31.120107,,[],[],交通设施,上海市,上海市,徐汇区
BV10030490,虹桥路伊犁路(公交站),交通设施服务;公交车站;公交车站相关,150700,320路;827路;836路;上青线;春运29线(原上青线),121.407951,31.197460,,[],[],交通设施,上海市,上海市,长宁区
BV10029690,古美路漕宝路(公交站),交通设施服务;公交车站;公交车站相关,150700,120路;171路;205路;700路;虹桥镇2路,121.399505,31.159201,,[],[],交通设施,上海市,上海市,闵行区
BV09478070,英业达集团(公交站),交通设施服务;公交车站;公交车站相关,150700,Z501路,121.394177,31.169438,,[],[],交通设施,上海市,上海市,徐汇区
BV10026122,七莘路莘北路(公交站),交通设施服务;公交车站;公交车站相关,150700,189路;196路;91路;春运14线(原虹桥枢纽4路);春运临2线(原虹桥枢纽4路);虹桥枢纽4路,121.375591,31.114773,,[],[],交通设施,上海市,上海市,闵行区
BV10029782,南京西路石门一路(公交站),交通设施服务;公交车站;公交车站相关,150700,20路;330路;37路,121.460533,31.230603,,[],[],交通设施,上海市,上海市,静安区
BV10339826,老西门(复兴东路)(公交站),交通设施服务;公交车站;公交车站相关,150700,24路;715路;775路;969路,121.486893,31.220356,,[],[],交通设施,上海市,上海市,黄浦区
BV10025709,斜土路东安路(公交站),交通设施服务;公交车站;公交车站相关,150700,218路;301路;303路;572路;72路;733路;89路;932路;徐闵夜宵专线;春运4线(原301路);隧道二线;隧道夜宵一线,121.451004,31.193697,,[],[],交通设施,上海市,上海市,徐汇区
BV10025748,新镇路吴中路(公交站),交通设施服务;公交车站;公交车站相关,150700,173路;709路;739路;753路,121.356934,31.164558,,[],[],交通设施,上海市,上海市,闵行区
BV10025752,漕宝路虹莘路(公交站),交通设施服务;公交车站;公交车站相关,150700,198路;735路;739路;763路;92路,121.376207,31.157930,,[],[],交通设施,上海市,上海市,闵行区
BV10029785,中山南一路西藏南路(公交站),交通设施服务;公交车站;公交车站相关,150700,111路;23路;318路;715路;96路,121.488581,31.201438,,[],[],交通设施,上海市,上海市,黄浦区
BV10038830,肇嘉浜路高安路(公交站),交通设施服务;公交车站;公交车站相关,150700,徐闵线,121.447938,31.199023,,[],[],交通设施,上海市,上海市,徐汇区
BV10025444,海宁路晋元路(公交站),交通设施服务;公交车站;公交车站相关,150700,315路;332路;510路;58路;930路;春运10线(原315路);春运3线(原隧道夜宵线);隧道三线;隧道夜宵线,121.468333,31.244265,,[],[],交通设施,上海市,上海市,静安区
BV10032375,石龙路地铁站(公交站),交通设施服务;公交车站;公交车站相关,150700,156路;上奉专线,121.443474,31.157452,,[],[],交通设施,上海市,上海市,徐汇区
BV10025312,曹杨六村(公交站),交通设施服务;公交车站;公交车站相关,150700,319路;44路;63路;837路;876路;948路;94路;春运26线(原319路),121.413503,31.239401,,[],[],交通设施,上海市,上海市,普陀区
BV10813517,秀文路园文路(公交站),交通设施服务;公交车站;公交车站相关,150700,125路B线;189路;91路;虹桥枢纽4路;虹桥枢纽5路;闵行21路;闵行33路A线;闵行33路B线;闵行55路,121.366250,31.123255,,[],[],交通设施,上海市,上海市,闵行区
BV10860393,常德路(快速公交站),交通设施服务;公交车站;快速公交站,150704,71路;71路区间,121.448412,31.221545,,[],[],交通设施,上海市,上海市,静安区
BV10030145,成都北路延安东路(公交站),交通设施服务;公交车站;公交车站相关,150700,(停运)E乘巴士006路;109路;36路;840路;869路;933路;95路,121.467883,31.226123,,[],[],交通设施,上海市,上海市,黄浦区
BV10384095,龙水南路天钥桥南路(公交站),交通设施服务;公交车站;公交车站相关,150700,56路区间;733路;932路,121.453230,31.153484,,[],[],交通设施,上海市,上海市,徐汇区
BV10025846,顾戴路龙茗路(公交站),交通设施服务;公交车站;公交车站相关,150700,732路;753路;764路;803路;闵行8路,121.385414,31.138250,,[],[],交通设施,上海市,上海市,闵行区
BV10025200,中山西路天山路(公交站),交通设施服务;公交车站;公交车站相关,150700,190路;224路;224路大站车;309路;519路;69路;754路;856路;857路;909路;941路,121.411990,31.207927,,[],[],交通设施,上海市,上海市,长宁区
BV10025620,长宁路中山西路(公交站),交通设施服务;公交车站;公交车站相关,150700,190路;316路/316路(夜宵线);519路;54路;67路;737路;765路;857路;88路;909路;春运22线(原316路),121.412905,31.217358,,[],[],交通设施,上海市,上海市,长宁区
BV10384919,园南二村(公交站),交通设施服务;公交车站;公交车站相关,150700,720路;824路,121.442418,31.142816,,[],[],交通设施,上海市,上海市,徐汇区
BV10030645,福州路浙江中路(公交站),交通设施服务;公交车站;公交车站相关,150700,980路;隧道三线;隧道六线;隧道夜宵线,121.480057,31.232977,,[],[],交通设施,上海市,上海市,黄浦区
BV10031595,重庆南路建国中路(公交站),交通设施服务;公交车站;公交车站相关,150700,36路;786路;869路;932路;933路;95路;974路;986路;986路(区间);大桥一线高峰车;隧道八线,121.471350,31.211389,,[],[],交通设施,上海市,上海市,黄浦区
BV10026021,梅川路丹巴路(公交站),交通设施服务;公交车站;公交车站相关,150700,837路;947路;948路,121.390602,31.240234,,[],[],交通设施,上海市,上海市,普陀区
BV10031644,重庆北路延安东路(公交站),交通设施服务;公交车站;公交车站相关,150700,780路,121.470271,31.224229,,[],[],交通设施,上海市,上海市,黄浦区
BV10031577,乌鲁木齐北路延安西路(公交站),交通设施服务;公交车站;公交车站相关,150700,113路;321路;40路;48路;93路,121.443420,31.219053,,[],[],交通设施,上海市,上海市,静安区
BV10860378,水城南路(快速公交站),交通设施服务;公交车站;快速公交站,150704,71路;71路区间,121.392183,31.196850,,[],[],交通设施,上海市,上海市,长宁区
BV10024936,中山南一路打浦路(公交站),交通设施服务;公交车站;公交车站相关,150700,111路;205路;327路;45路;781路;933路;大桥六线,121.475417,31.196450,,[],[],交通设施,上海市,上海市,黄浦区
BV10026025,清峪路万镇路(公交站),交通设施服务;公交车站;公交车站相关,150700,551路;727路;765路;876路,121.373815,31.238533,,[],[],交通设施,上海市,上海市,普陀区
BV10033321,老西门(西藏南路)(公交站),交通设施服务;公交车站;公交车站相关,150700,18路;23路;318路;454路;781路;782路;969路,121.484217,31.216677,,[],[],交通设施,上海市,上海市,黄浦区
BV10025133,天山西路剑河路(公交站),交通设施服务;公交车站;公交车站相关,150700,141路;216路;316路/316路(夜宵线);750路;808路;846路;855路;855路(区间);889路;91路;春运22线(原316路),121.370330,31.217391,,[],[],交通设施,上海市,上海市,长宁区
BV10491002,莲花路地铁站(南方商城)(公交站),交通设施服务;公交车站;公交车站相关,150700,757路,121.401360,31.130920,,[],[],交通设施,上海市,上海市,闵行区
BV10338347,春申路畹町路(公交站),交通设施服务;公交车站;公交车站相关,150700,703路;759路;873路;莘庄3路B线;闵行25路B线;闵行31路,121.400528,31.105788,,[],[],交通设施,上海市,上海市,闵行区
B0FFGL09SO,龙华寺地面停车场,交通设施服务;停车场;公共停车场,150904,龙华路2787号(龙华地铁站5号口步行280米),121.452393,31.175458,,[],[],交通设施,上海市,上海市,徐汇区
B0FFGCHSGG,豫园停车场,交通设施服务;停车场;公共停车场|交通设施服务;停车场;路边停车场,150904|150906,侯家路91弄(豫园地铁站3B口步行430米),121.490025,31.226574,18916889340,[],[],交通设施,上海市,上海市,黄浦区
B0FFF5U96Y,外滩停车库,交通设施服务;停车场;公共停车场,150904,中山东一路49号,121.490732,31.240362,,[],[],交通设施,上海市,上海市,黄浦区
B0FFGWHLTQ,莘庄梅园停车场,交通设施服务;停车场;公共停车场,150904,虹莘路688号莘庄梅园,121.391125,31.116317,,[],[],交通设施,上海市,上海市,闵行区
B00156CYQV,上海南站北广场地下停车场,交通设施服务;停车场;公共停车场,150904,漕河泾镇上海南站(上海南站地铁站4号入口步行350米),121.426671,31.152766,,[],[],交通设施,上海市,上海市,徐汇区
B0H2VCV9QH,上海东方体育中心P1停车场,交通设施服务;停车场;公共停车场,150904,耀体路上海东方体育中心,121.477676,31.153783,021-20238307,[],[],交通设施,上海市,上海市,浦东新区
B0K11COEQ0,Gate M西岸梦中心地下停车场,交通设施服务;停车场;公共停车场,150904,龙腾大道2266号Gate M西岸梦中心,121.465366,31.160932,,[],[],交通设施,上海市,上海市,徐汇区
B0FFKCTV0Q,闵行文化公园2号门停车场,交通设施服务;停车场;公共停车场,150904,吴中路2019号上海闵行文化公园(西北角),121.357818,31.166245,,[],[],交通设施,上海市,上海市,闵行区
B0FFG94DFI,上海南站南广场地下停车场,交通设施服务;停车场;公共停车场,150904,石龙路750-3号(上海南站地铁站2号口步行160米),121.431546,31.151269,,[],[],交通设施,上海市,上海市,徐汇区
B0HU1ZB8MQ,前滩太古里停车场,交通设施服务;停车场;公共停车场,150904,东育路500弄(东方体育中心地铁站2号口步行330米),121.482630,31.151987,,[],[],交通设施,上海市,上海市,浦东新区
B0K165VJ9M,上海荟聚停车场,交通设施服务;停车场;公共停车场,150904,金钟路788号上海荟聚(淞虹路地铁站5号口步行390米),121.357645,31.221973,,[],[],交通设施,上海市,上海市,长宁区
B0HKKCOGHX,世博文化公园P1停车场,交通设施服务;停车场;公共停车场,150904,世博大道2095号,121.476318,31.184211,,[],[],交通设施,上海市,上海市,浦东新区
B0J22ZO2GA,龙华会地下停车场,交通设施服务;停车场;公共停车场,150904,龙华路2778号龙华会(龙华地铁站出入口旁),121.452513,31.172452,,[],[],交通设施,上海市,上海市,徐汇区
B0HRR7VJQM,复旦大学附属儿科医院西停车场,交通设施服务;停车场;公共停车场,150904,万源路399号复旦大学附属儿科医院,121.392828,31.139109,,[],[],交通设施,上海市,上海市,闵行区
B0FFIGGCWB,宁国禅寺停车点,交通设施服务;停车场;公共停车场,150904,长华路宁国禅寺(西北角),121.449141,31.120511,,[],[],交通设施,上海市,上海市,徐汇区
B0G3D50SLW,闵行体育公园1号门停车场,交通设施服务;停车场;公共停车场,150904,新镇路456号(新镇路东侧),121.365919,31.145176,,[],[],交通设施,上海市,上海市,闵行区
B0FFG77KMO,上海长风公园停车场,交通设施服务;停车场;公共停车场,150904,大渡河路451号海底世界(长风公园4号门内)长风公园·长风海洋世界,121.397595,31.221381,,[],[],交通设施,上海市,上海市,普陀区
B0H6MRHTMN,环贸iapm地下停车场,交通设施服务;停车场;公共停车场,150904,淮海中路999号环贸iapm商场B4,121.457260,31.214699,,[],[],交通设施,上海市,上海市,徐汇区
B0GKOM741Y,新世界新丸中心地下停车场,交通设施服务;停车场;公共停车场,150904,新世界新丸中心NEW ONE(南京东路地铁站出入口旁),121.485703,31.238463,,5.0,[],交通设施,上海市,上海市,黄浦区
B0L6NMTB34,世博天地地下停车场,交通设施服务;停车场;公共停车场,150904,世博大道1467号世博天地,121.489152,31.185104,,[],[],交通设施,上海市,上海市,浦东新区
B0FFH7FRHS,前滩休闲公园12号门停车场,交通设施服务;停车场;公共停车场,150904,前滩大道与桐晚路交叉口东北80米,121.467649,31.150925,,[],[],交通设施,上海市,上海市,浦东新区
B0HRTM5H60,复旦大学附属中山医院东院区地下停车场,交通设施服务;停车场;公共停车场,150904,小木桥路268弄1-2号枫林路179号5号门,121.456093,31.198072,,[],[],交通设施,上海市,上海市,徐汇区
B0G02Z2I8M,港汇恒隆广场地下停车场,交通设施服务;停车场;公共停车场,150904,虹桥路1号上海港汇恒隆广场,121.437387,31.193972,,[],[],交通设施,上海市,上海市,徐汇区
B0FFF00JAH,上南路地面停车场,交通设施服务;停车场;公共停车场,150904,博成路1221号(中华艺术宫地铁站4号口步行100米),121.493693,31.186029,,[],[],交通设施,上海市,上海市,浦东新区
B0FFM8O96X,前滩体育公园停车场,交通设施服务;停车场;公共停车场,150904,前滩大道735号前滩体育公园(西北角),121.464291,31.147911,,[],[],交通设施,上海市,上海市,浦东新区
B0FFKH9Q1Q,世博文化公园双子山P4停车场,交通设施服务;停车场;公共停车场,150904,通耀路555号,121.482431,31.177001,,[],[],交通设施,上海市,上海市,浦东新区
B0FFG4IIVV,上海长途客运南站停车场,交通设施服务;停车场;公共停车场,150904,石龙路666号上海长途客运南站,121.434038,31.153052,,[],[],交通设施,上海市,上海市,徐汇区
B0GK7A0N9J,上海静安大悦城地下停车场,交通设施服务;停车场;公共停车场,150904,西藏北路166号上海大悦城1期B3层,121.472562,31.243749,,[],[],交通设施,上海市,上海市,静安区
B0G0T1G507,环球港地下停车场,交通设施服务;停车场;公共停车场,150904,中山北路3300号上海环球港B3,121.411997,31.233192,,[],[],交通设施,上海市,上海市,普陀区
B0KR6CXPX6,南京东路步行街地下停车场,交通设施服务;停车场;公共停车场,150904,南京东路558号南京路步行街,121.480772,31.235540,,[],[],交通设施,上海市,上海市,黄浦区
B0KG3ZHUSR,上海市第六人民医院地面停车场,交通设施服务;停车场;公共停车场,150904,宜山路600号上海交通大学医学院附属第六人民医院(徐汇院区),121.420851,31.178460,,[],[],交通设施,上海市,上海市,徐汇区
B0FFGE6B16,闵行文化公园3号门停车场,交通设施服务;停车场;公共停车场,150904,吴中路2019号上海闵行文化公园内(南侧),121.363008,31.158702,,[],[],交通设施,上海市,上海市,闵行区
B0IG7SOYQQ,复旦大学附属华山医院地面停车场,交通设施服务;停车场;公共停车场,150904,乌鲁木齐中路12号复旦大学附属华山医院,121.444011,31.216301,,[],[],交通设施,上海市,上海市,静安区
B00155KT4G,上海动物园西停车场,交通设施服务;停车场;公共停车场,150904,虹桥路2381号上海动物园内(南侧),121.364077,31.189737,,[],[],交通设施,上海市,上海市,长宁区
B0GKCRV5WW,百联南方购物中心立体停车场,交通设施服务;停车场;公共停车场,150904,沪闵路7388号百联南方购物中心F2,121.401471,31.132522,,[],[],交通设施,上海市,上海市,闵行区
B0GK27K6QP,兴业太古汇地下停车场,交通设施服务;停车场;公共停车场,150904,石门一路288号P2(南京西路地铁站6号口步行50米),121.463351,31.228888,,[],[],交通设施,上海市,上海市,静安区
B0H2G7V8GH,汉口路-道路停车位,交通设施服务;停车场;路边停车场,150906,汉口路,121.489349,31.236760,,[],[],交通设施,上海市,上海市,黄浦区
B0H1NU9IKO,上海交通大学医学院附属第九人民医院南部地下停车场,交通设施服务;停车场;公共停车场,150904,制造局路639号上海交通大学医学院附属第九人民医院(南部院区),121.486911,31.201567,,[],[],交通设施,上海市,上海市,黄浦区
B0FFKNKD00,出租车蓄车场,交通设施服务;停车场;专用停车场,150905,虹桥路辅路与迎宾二路交叉口东北100米,121.356379,31.188754,,[],[],交通设施,上海市,上海市,长宁区
B0GKKCX7MI,正大乐城停车场,交通设施服务;停车场;公共停车场,150904,龙华中路上海绿地中心(龙华中路地铁站1号口步行230米),121.459027,31.185973,,[],[],交通设施,上海市,上海市,徐汇区
B0G0TRFPI9,日月光中心地下停车场,交通设施服务;停车场;公共停车场,150904,徐家汇路618号日月光中心B3(打浦桥地铁站2号口旁),121.469443,31.205901,,[],[],交通设施,上海市,上海市,黄浦区
B0G07C52KT,近铁城市广场北区停车场,交通设施服务;停车场;公共停车场,150904,真江路近铁城市广场(真北路地铁站1号口步行130米),121.382734,31.233295,,[],[],交通设施,上海市,上海市,普陀区
B0G0RCEOTN,龙之梦城市生活中心地下停车场,交通设施服务;停车场;公共停车场,150904,长宁路1018号(中山公园地铁站出入口旁),121.415858,31.218927,,[],[],交通设施,上海市,上海市,长宁区
B0IRP75YLN,复旦大学附属儿科医院地面停车场,交通设施服务;停车场;公共停车场,150904,万源路399号复旦大学附属儿科医院,121.395969,31.140310,,[],[],交通设施,上海市,上海市,闵行区
B0G0RCDF2X,晶品地下停车场,交通设施服务;停车场;公共停车场,150904,CP静安(静安寺地铁站6号口步行320米),121.446972,31.226189,,[],[],交通设施,上海市,上海市,静安区
B0H2K56TYK,中庚·漫游城地下停车场,交通设施服务;停车场;公共停车场,150904,闵虹路8号中庚漫游城,121.397577,31.131357,,[],[],交通设施,上海市,上海市,闵行区
B0H2VCWIIC,上海东方体育中心P2停车场,交通设施服务;停车场;公共停车场,150904,耀体路701号东方体育中心,121.473957,31.154839,,[],[],交通设施,上海市,上海市,浦东新区
B0HDKUDL8Q,龙华寺内部停车场,交通设施服务;停车场;专用停车场,150905,龙华路2853号(近龙华西路)龙华寺(东北角),121.452366,31.175660,,[],[],交通设施,上海市,上海市,徐汇区
B0G394L3F6,七宝古镇1号停车场,交通设施服务;停车场;公共停车场,150904,七宝镇新镇路三佳花苑旁,121.358332,31.153554,,[],[],交通设施,上海市,上海市,闵行区
B0GKNU83YA,美罗城地下停车场,交通设施服务;停车场;公共停车场,150904,肇嘉浜路1111号美罗城B2,121.440522,31.193502,,[],[],交通设施,上海市,上海市,徐汇区
B0FFGJO7F5,上海新天地南里地下停车场,交通设施服务;停车场;公共停车场,150904,兴业路123弄1-7号新天地南里B1,121.474978,31.219088,,[],[],交通设施,上海市,上海市,黄浦区
B0H6M7HAX9,长宁来福士地下停车场,交通设施服务;停车场;公共停车场,150904,周家桥街道长宁路1139号长宁来福士,121.414155,31.215375,021-62639875,[],[],交通设施,上海市,上海市,长宁区
B00155KUKQ,五原路-道路停车位,交通设施服务;停车场;路边停车场,150906,五原路与乌鲁木齐中路交叉口东140米,121.447393,31.213036,,[],[],交通设施,上海市,上海市,徐汇区
B0HR5ZA56N,复旦大学附属中山医院西院区地下停车场,交通设施服务;停车场;公共停车场,150904,枫林路180号复旦大学附属中山医院(西院区),121.452747,31.198943,,[],[],交通设施,上海市,上海市,徐汇区
B0H6Y7BNUD,静安嘉里中心地下停车场,交通设施服务;停车场;公共停车场,150904,南京西路1515号上海静安嘉里中心B1,121.450570,31.223669,,[],[],交通设施,上海市,上海市,静安区
B00155ND4Y,淞虹路站P+R停车场,交通设施服务;停车场;换乘停车场,150903,金钟路631弄3号(淞虹路地铁站5号口步行170米),121.358911,31.219478,,[],[],交通设施,上海市,上海市,长宁区
B0G0XD1QB6,第一百货商业中心地下停车场,交通设施服务;停车场;公共停车场,150904,南京东路800号C馆B2,121.475268,31.235694,,[],[],交通设施,上海市,上海市,黄浦区
B0J6UALHB3,城隍庙地面停车场,交通设施服务;停车场;公共停车场,150904,昼锦路123号,121.489607,31.224090,,[],[],交通设施,上海市,上海市,黄浦区
B0HR57C5UC,上海长征医院地下停车场,交通设施服务;停车场;公共停车场,150904,凤阳路415号上海长征医院内,121.467603,31.231816,,[],[],交通设施,上海市,上海市,黄浦区
B0KBNSFSIF,上海市徐汇区牙病防治所地面停车场,交通设施服务;停车场;公共停车场,150904,枫林路500号,121.459100,31.189863,,[],[],交通设施,上海市,上海市,徐汇区
B0G0TRGBZZ,徐家汇ITC商场地下停车场,交通设施服务;停车场;公共停车场,150904,华山路1901号One ITC商场落客区(昭平路),121.438431,31.197822,,[],[],交通设施,上海市,上海市,徐汇区
B0LBDCQMLP,上海万象城地下停车场,交通设施服务;停车场;公共停车场,150904,吴中路1599号上海万象城,121.370140,31.170854,,[],[],交通设施,上海市,上海市,闵行区
B0HRL71MLE,上海交通大学医学院附属儿童医院泸定路院区地下停车场,交通设施服务;停车场;公共停车场,150904,泸定路345弄1号,121.387191,31.226237,,[],[],交通设施,上海市,上海市,普陀区
B0KKFCQN59,前滩公园巷停车场,交通设施服务;停车场;公共停车场,150904,钱家滩路12号,121.473886,31.153596,,[],[],交通设施,上海市,上海市,浦东新区
B00156ENCV,梅赛德斯-奔驰文化中心地下停车场,交通设施服务;停车场;公共停车场,150904,世博大道1200号梅赛德斯-奔驰文化中心,121.493246,31.188004,,[],[],交通设施,上海市,上海市,浦东新区
B00157GVIM,瞿溪路-道路停车位,交通设施服务;停车场;路边停车场,150906,瞿溪路503号附近,121.484264,31.202066,,[],[],交通设施,上海市,上海市,黄浦区
B0HR5HALJO,龙华医院停车场,交通设施服务;停车场;公共停车场,150904,宛平南路725号上海中医药大学附属龙华医院(徐汇院区),121.450403,31.187699,,[],[],交通设施,上海市,上海市,徐汇区
B0G0RCCSM0,仲盛世界商城地下停车场,交通设施服务;停车场;公共停车场,150904,都市路5001号仲盛世界商城B3,121.385487,31.106680,021-62605244,[],[],交通设施,上海市,上海市,闵行区
B00155QC3B,南京西路-道路停车位,交通设施服务;停车场;路边停车场,150906,南京西路88号(人民广场地铁站7号口步行70米),121.473292,31.234283,,[],[],交通设施,上海市,上海市,黄浦区
B00156YMUT,上海文化广场地下停车场,交通设施服务;停车场;公共停车场,150904,瑞金二路街道陕西南路225号,121.461422,31.212195,021-54619961;021-64729000,[],[],交通设施,上海市,上海市,黄浦区
B0FFG69ZVY,襄阳北路-道路停车位,交通设施服务;停车场;路边停车场,150906,淮海中路1008号(陕西南路地铁站10号口步行370米),121.456200,31.216848,,[],[],交通设施,上海市,上海市,徐汇区
B0FFHGY328,桃江路-道路停车位,交通设施服务;停车场;路边停车场,150906,桃江路启华大厦南侧约130米,121.449151,31.209482,,[],[],交通设施,上海市,上海市,徐汇区
B0GK7H0CAS,上海来福士广场地下停车场,交通设施服务;停车场;公共停车场,150904,西藏中路268号B2/B3(汉口路进),121.476511,31.232300,,[],[],交通设施,上海市,上海市,黄浦区
B0KUYCUMGU,芒果广场地下停车场,交通设施服务;停车场;公共停车场,150904,龙爱路7号,121.463883,31.160987,,[],[],交通设施,上海市,上海市,徐汇区
B0K1D7E8SF,世博文化公园世界花艺园P5地下停车场,交通设施服务;停车场;公共停车场,150904,通耀路55号,121.471552,31.174393,,[],[],交通设施,上海市,上海市,浦东新区
B0H6R58FJA,豫园鄂尔多斯广场停车场,交通设施服务;停车场;公共停车场,150904,福佑路333号豫园鄂尔多斯广场B1,121.490274,31.228650,,[],[],交通设施,上海市,上海市,黄浦区
B0G0XU1KYJ,中信泰富广场地下停车场,交通设施服务;停车场;公共停车场,150904,南京西路1168号中信泰富广场b2层,121.455239,31.228846,,[],[],交通设施,上海市,上海市,静安区
B0GKCRUKE1,星游城地下停车场,交通设施服务;停车场;公共停车场,150904,天钥桥路580号(上海体育场地铁站3号口步行100米),121.442082,31.184702,,[],[],交通设施,上海市,上海市,徐汇区
B0LRY5VZLR,徐汇万科广场地下停车场,交通设施服务;停车场;公共停车场,150904,沪闵路9191号徐汇万科广场,121.431588,31.157662,021-61198560;021-61210713,[],[],交通设施,上海市,上海市,徐汇区
B0H0LZEJ7C,制造局路584号立体停车场,交通设施服务;停车场;公共停车场,150904,制造局路与西凌家宅路交叉口西北40米,121.484254,31.203908,,[],[],交通设施,上海市,上海市,黄浦区
B0HRR5UVLN,上海交通大学医学院附属瑞金医院地下停车场,交通设施服务;停车场;公共停车场,150904,瑞金医院院内11号楼旁边,121.468280,31.211899,,[],[],交通设施,上海市,上海市,黄浦区
B00155KRPU,侯家路-道路停车位,交通设施服务;停车场;路边停车场,150906,侯家路文化弄小区(豫园地铁站3号口步行430米),121.489386,31.226571,,[],[],交通设施,上海市,上海市,黄浦区
B0H6ZUSDI2,绿地缤纷城徐汇店地下停车场,交通设施服务;停车场;公共停车场,150904,斜土路街道东安路562号绿地缤纷城购物广场B3,121.456618,31.183416,,[],[],交通设施,上海市,上海市,徐汇区
B0FFHTX4IT,漕宝立体停车场,交通设施服务;停车场;公共停车场,150904,虹莘路3579号,121.372096,31.163732,,[],[],交通设施,上海市,上海市,闵行区
B0JGRR7W0U,MOHO地下停车场,交通设施服务;停车场;公共停车场,150904,江宁路699号,121.448177,31.238479,,[],[],交通设施,上海市,上海市,静安区
B0G09UPDLF,虹桥南丰城地下停车场,交通设施服务;停车场;公共停车场,150904,遵义路100号虹桥南丰城,121.408159,31.206792,,[],[],交通设施,上海市,上海市,长宁区
B0G0LCI1TB,上海恒隆广场地下停车场,交通设施服务;停车场;公共停车场,150904,南京西路1266号恒隆广场B2,121.453372,31.227562,,[],[],交通设施,上海市,上海市,静安区
B0GKXZDU1T,金虹桥商业广场地下停车场,交通设施服务;停车场;公共停车场,150904,茅台路179号金虹桥商场(娄山关路地铁站3号口步行340米),121.402860,31.208255,,[],[],交通设施,上海市,上海市,长宁区
B0G0X526LP,久光百货地下停车场,交通设施服务;停车场;公共停车场,150904,南京西路1618号久光百货(静安寺地铁站出入口步行200米),121.445647,31.224301,021-32174838,[],[],交通设施,上海市,上海市,静安区
B00155HPNU,世纪广场停车场,交通设施服务;停车场;公共停车场,150904,九江路518号(进口靠近福建中路),121.480288,31.235143,,[],[],交通设施,上海市,上海市,黄浦区
B0H67A1NCS,世博源3区停车场,交通设施服务;停车场;公共停车场,150904,世博大道1368号世博源3区,121.492056,31.183126,,[],[],交通设施,上海市,上海市,浦东新区
B0H2G7U7RN,天津路-道路停车位,交通设施服务;停车场;路边停车场,150906,天津路与龙泉园路交叉口东40米,121.479020,31.236845,,[],[],交通设施,上海市,上海市,黄浦区
B0GKMRS9I2,莘庄维璟印象城地下停车场,交通设施服务;停车场;公共停车场,150904,莘庄镇七莘路1507号维璟广场B1,121.363706,31.130315,,[],[],交通设施,上海市,上海市,闵行区
B0015721UB,上海八达停车库管理有限公司南京路车库,交通设施服务;停车场;停车场相关,150900,浙江中路288号(人民广场地铁站14号口步行360米),121.478971,31.234428,021-63600660,[],[],交通设施,上海市,上海市,黄浦区
B00156YLI7,思南公馆地下停车场,交通设施服务;停车场;公共停车场,150904,思南路53号思南公馆酒店,121.469056,31.213353,,[],[],交通设施,上海市,上海市,黄浦区
B0KK4AUPVN,国际传媒港M地块地下停车场,交通设施服务;停车场;公共停车场,150904,龙腾大道2171号国际传媒港,121.462941,31.159183,,[],[],交通设施,上海市,上海市,徐汇区
B0GKVA33AO,晶耀前滩北区地下停车场,交通设施服务;停车场;公共停车场,150904,平家桥路50弄(东方体育中心地铁站4号口步行180米),121.477955,31.152673,,[],[],交通设施,上海市,上海市,浦东新区
B0GKKCXU57,外滩SOHO地下停车场,交通设施服务;停车场;公共停车场,150904,新开河北路10号外滩SOHO(豫园地铁站7号口步行390米),121.494110,31.229949,,[],[],交通设施,上海市,上海市,黄浦区
B0GKC5TBAX,世博源地下停车场,交通设施服务;停车场;公共停车场,150904,世博大道1368号世博源,121.492099,31.183016,,[],[],交通设施,上海市,上海市,浦东新区
B0G095QLMU,LU·ONE凯德晶萃广场地下停车场,交通设施服务;停车场;公共停车场,150904,徐家汇路268号LU·ONE凯德晶萃广场,121.477248,31.210587,,[],[],交通设施,上海市,上海市,黄浦区
B0KUPS2OAM,复旦大学附属肿瘤医院徐汇院区地下停车场,交通设施服务;停车场;公共停车场,150904,东安路270号复旦大学附属肿瘤医院(徐汇院区),121.452173,31.191211,,[],[],交通设施,上海市,上海市,徐汇区
B0IGTCKWG9,上海千古情景区停车场,交通设施服务;停车场;公共停车场,150904,世博大道1750号上海千古情景区,121.483284,31.185731,,[],[],交通设施,上海市,上海市,浦东新区
B0GK4ANU29,长风大悦城地下停车场,交通设施服务;停车场;公共停车场,150904,大渡河路196号上海长风大悦城,121.394825,31.221944,,[],[],交通设施,上海市,上海市,普陀区
B0FFG69PHV,昭化路-道路停车位,交通设施服务;停车场;路边停车场,150906,昭化路321-4号附近,121.427515,31.212353,,[],[],交通设施,上海市,上海市,长宁区
B0HRSCPNLJ,地铁15号线虹梅南路站地面停车场,交通设施服务;停车场;公共停车场,150904,老沪闵路1526号(虹梅南路路口),121.431543,31.108278,,[],[],交通设施,上海市,上海市,闵行区
B0GRN796H0,全季酒店(上海长寿路店),住宿服务;宾馆酒店;经济型连锁酒店|交通设施服务;停车场;公共停车场,100105|150904,长寿路798号(地铁13号线武宁路站附近),121.430830,31.236432,021-62301999,4.3,[],交通设施,上海市,上海市,普陀区
B0KRAA3DQL,太平洋新天地商业中心地下停车场,交通设施服务;停车场;公共停车场,150904,太仓路新天地东台里,121.479480,31.222235,,[],[],交通设施,上海市,上海市,黄浦区
B0G0OUVR2S,爱琴海购物中心地下停车场,交通设施服务;停车场;公共停车场,150904,虹井路185号1楼(近龙柏新村地铁站)附近,121.372990,31.175584,,[],[],交通设施,上海市,上海市,闵行区
B0G0LUJANB,1788广场地下停车场,交通设施服务;停车场;公共停车场,150904,静安寺地铁站1号口步行290米,121.443012,31.222742,,[],[],交通设施,上海市,上海市,静安区
B0G0254QJ4,上海广场停车场,交通设施服务;停车场;公共停车场,150904,淮海中路138号无限度广场内,121.477620,31.224726,,[],[],交通设施,上海市,上海市,黄浦区
B0FFH5ATB2,绍兴路-道路停车位,交通设施服务;停车场;路边停车场,150906,绍兴路9-2号附近,121.463800,31.209230,,[],[],交通设施,上海市,上海市,黄浦区
B0IGR7XLL1,上海四行仓库抗战纪念馆立体停车场,交通设施服务;停车场;公共停车场,150904,国庆路四行仓库(曲阜路地铁站3号口步行290米),121.471044,31.240451,,[],[],交通设施,上海市,上海市,静安区
B0GKCRV5WY,百联南方购物中心地下停车场,交通设施服务;停车场;公共停车场,150904,沪闵路7388号百联南方购物中心F4,121.401604,31.133092,,[],[],交通设施,上海市,上海市,闵行区
B0I3699JUO,上海苏河湾万象天地西里地下停车场,交通设施服务;停车场;公共停车场,150904,苏河湾万象天地-西里(天潼路地铁站5号口步行460米),121.478066,31.242563,,[],[],交通设施,上海市,上海市,静安区
B00155KI8C,自忠路-道路停车位,交通设施服务;停车场;路边停车场,150906,一大会址·新天地地铁站1号口步行300米,121.475340,31.218490,,[],[],交通设施,上海市,上海市,黄浦区
B00157GGU8,汉口路-道路停车位,交通设施服务;停车场;路边停车场,150906,汉口路(南京东路地铁站4号口步行260米),121.481659,31.234823,,[],[],交通设施,上海市,上海市,黄浦区
B0FFJGRRV7,热带风暴停车场,交通设施服务;停车场;公共停车场,150904,七宝镇新镇路70号(近顾戴路),121.372205,31.137337,,[],[],交通设施,上海市,上海市,闵行区
B0GK0S8JBT,上海世茂广场地下停车场,交通设施服务;停车场;公共停车场,150904,九江路768号(人民广场地铁站20号口步行150米),121.475729,31.234121,,[],[],交通设施,上海市,上海市,黄浦区
B0H1CC3YLW,上海市胸科医院地面停车场,交通设施服务;停车场;公共停车场,150904,徐家汇街道淮海西路241号(虹桥路地铁站4号口步行390米),121.425537,31.197351,,[],[],交通设施,上海市,上海市,徐汇区
B0GKKUYFCQ,光启城北地面停车场,交通设施服务;停车场;公共停车场,150904,宜山路455号光启城(宜山路地铁站出入口步行160米),121.428855,31.184386,,[],[],交通设施,上海市,上海市,徐汇区
B0FFH9ATU2,淮海中路-道路停车位,交通设施服务;停车场;路边停车场,150906,思南路(淮海中路地铁站1号口步行170米),121.465982,31.219192,,[],[],交通设施,上海市,上海市,黄浦区
B0JURS8MBV,鑫耀·光环Live(光里)地下停车场,交通设施服务;停车场;公共停车场,150904,苍梧路6-12号鑫耀·光环Live,121.413635,31.169075,,[],[],交通设施,上海市,上海市,徐汇区
B0FFGCHQO6,巨鹿路-道路停车位,交通设施服务;停车场;路边停车场,150906,华山路250号(静安寺地铁站8号口步行490米),121.449123,31.218802,,[],[],交通设施,上海市,上海市,静安区
B0GKVU5LOZ,上海中环广场地下停车场,交通设施服务;停车场;公共停车场,150904,淮海中路381号中环广场B2,121.472726,31.221750,,[],[],交通设施,上海市,上海市,黄浦区
B0IGU943WJ,宛平剧院地下停车场,交通设施服务;停车场;公共停车场,150904,枫林路街道中山南二路857-859号宛平剧院,121.451486,31.184827,,[],[],交通设施,上海市,上海市,徐汇区
B0FFFZQW2L,太原路-道路停车位,交通设施服务;停车场;路边停车场,150906,太原路汾阳路112弄小区东南侧约40米,121.454080,31.209939,,[],[],交通设施,上海市,上海市,徐汇区
B0GKC5TIP7,世博源南区停车场,交通设施服务;停车场;公共停车场,150904,周家渡路与耀华路交叉口东北60米,121.493148,31.178794,,[],[],交通设施,上海市,上海市,浦东新区
B00156GMVW,上海人民广场武胜路地面停车场,交通设施服务;停车场;公共停车场,150904,武胜路206(一大会址·黄陂南路地铁站5号口步行470米),121.476526,31.228497,,[],[],交通设施,上海市,上海市,黄浦区
B0H2G7UE31,泰安路-道路停车位,交通设施服务;停车场;路边停车场,150906,泰安路与兴国路交叉口东80米,121.438155,31.205915,,[],[],交通设施,上海市,上海市,徐汇区
B0HKY5XVRY,七浦路服装批发市场停车场,交通设施服务;停车场;公共停车场,150904,七浦路303号七浦路服装批发市场,121.479098,31.244726,,[],[],交通设施,上海市,上海市,静安区
B001570GC8,嘉善路-道路停车位,交通设施服务;停车场;路边停车场,150906,嘉善路与永康路交叉口北60米,121.459317,31.211812,,[],[],交通设施,上海市,上海市,徐汇区
B0H045BO8J,宜家家居上海徐汇商场店地下停车场,交通设施服务;停车场;公共停车场,150904,漕溪路126号IKEA宜家家居(上海徐汇商场),121.434486,31.177303,,[],[],交通设施,上海市,上海市,徐汇区
B0HGB5QHZG,芮欧百货地下停车场,交通设施服务;停车场;公共停车场,150904,南京西路1601号芮欧百货(静安寺地铁站9号口步行80米),121.448268,31.222701,,[],[],交通设施,上海市,上海市,静安区
B0HRHS42O1,成都南路-道路停车位,交通设施服务;停车场;路边停车场,150906,成都南路26号,121.467570,31.222628,,[],[],交通设施,上海市,上海市,黄浦区
B0H2G7UDUQ,宁波路-道路停车位,交通设施服务;停车场;路边停车场,150906,宁波路与江西中路交叉口东60米,121.486492,31.239688,,[],[],交通设施,上海市,上海市,黄浦区
B0H2KS82XH,宝龙城-西区地下停车场,交通设施服务;停车场;公共停车场,150904,漕宝路3299弄15号宝龙城,121.355073,31.157687,,[],[],交通设施,上海市,上海市,闵行区
B0FFLF8DYB,黎安路近七莘路公共地面停车场,交通设施服务;停车场;停车场相关,150900,黎安路659号,121.368112,31.127922,,[],[],交通设施,上海市,上海市,闵行区
B0GK7L3DB7,上海k11购物艺术中心立体停车场,交通设施服务;停车场;公共停车场,150904,淮海中路街道淮海中路300号K11购物艺术中心F9层,121.473757,31.223731,021-23103188,[],[],交通设施,上海市,上海市,黄浦区
B0H2G7UDWA,永康路-道路停车位,交通设施服务;停车场;路边停车场,150906,太原路太原小区,121.454633,31.209713,,[],[],交通设施,上海市,上海市,徐汇区
B0GKKUY8IV,光启城地下停车场,交通设施服务;停车场;公共停车场,150904,宜山路455号光启城(宜山路地铁站8号口步行180米),121.427980,31.183603,,[],[],交通设施,上海市,上海市,徐汇区
B0HKTMZRXC,上海宾馆停车场,交通设施服务;停车场;公共停车场,150904,乌鲁木齐北路与华山路交叉口北80米,121.443776,31.217829,,[],[],交通设施,上海市,上海市,静安区
B0GKHR3A78,徐汇日月光中心地下停车场,交通设施服务;停车场;公共停车场,150904,漕宝路33号徐汇日月光中心B3(漕宝路地铁站出入口旁),121.432941,31.169099,,[],[],交通设施,上海市,上海市,徐汇区
B00157GGZN,山西南路-道路停车位,交通设施服务;停车场;路边停车场,150906,山西南路与福州路交叉口西北60米,121.483370,31.234662,,[],[],交通设施,上海市,上海市,黄浦区
B00156TK9C,永福路-道路停车位,交通设施服务;停车场;路边停车场,150906,永福路57-59号附近,121.444042,31.211074,,[],[],交通设施,上海市,上海市,徐汇区
B0H2G7UEF9,云南南路-道路停车位,交通设施服务;停车场;路边停车场,150906,云南南路190-1号附近(大世界地铁站5号口步行250米),121.482115,31.225401,,[],[],交通设施,上海市,上海市,黄浦区
B0GKVR3S70,宏伊国际广场地下停车场,交通设施服务;停车场;公共停车场,150904,南京东路288号宏伊国际广场B2(南京东路地铁站3号口旁),121.484265,31.236969,021-63521100,[],[],交通设施,上海市,上海市,黄浦区
B00155KQE9,新会路-道路停车位,交通设施服务;停车场;路边停车场,150906,新会路与江宁路交叉口西南80米,121.443899,31.242596,,[],[],交通设施,上海市,上海市,普陀区
B0GU9ATCJF,龙华寺地面停车场(出入口),交通设施服务;停车场;停车场出入口,150909,龙华路2787号龙华寺地面停车场,121.452674,31.176114,,[],[],交通设施,上海市,上海市,徐汇区
B0FFHUICIS,福佑路-道路停车位,交通设施服务;停车场;路边停车场,150906,福佑路427号福佑门商厦(豫园地铁站1号口步行180米),121.488206,31.227890,,[],[],交通设施,上海市,上海市,黄浦区
B0FFGC3J08,恒基名人购物中心地下停车场,交通设施服务;停车场;公共停车场,150904,南京东路300号恒基名人购物中心B2,121.484241,31.238027,,[],[],交通设施,上海市,上海市,黄浦区
B0GKHSZHEG,万象城地下停车场,交通设施服务;停车场;公共停车场,150904,吴中路1599号万象城B2,121.369513,31.170247,,[],[],交通设施,上海市,上海市,闵行区
B0FFKCUA7E,上生新所停车场,交通设施服务;停车场;公共停车场,150904,,121.426979,31.207772,,[],[],交通设施,上海市,上海市,长宁区
B0H2G7VN8J,六合路-道路停车位,交通设施服务;停车场;路边停车场,150906,六合路泛太平洋国际大厦(人民广场地铁站19号口步行390米),121.474489,31.237215,,[],[],交通设施,上海市,上海市,黄浦区
B0H2G7VFGH,天津路-道路停车位,交通设施服务;停车场;路边停车场,150906,滇池路万国博览建筑群,121.489116,31.239389,,[],[],交通设施,上海市,上海市,黄浦区
B00155QNUQ,徐家汇公园地下停车场,交通设施服务;停车场;公共停车场,150904,肇嘉浜路940号(徐家汇地铁站14号口步行480米),121.443153,31.196904,,[],[],交通设施,上海市,上海市,徐汇区
B0IGU5X6W5,上海大剧院地下停车场,交通设施服务;停车场;公共停车场,150904,人民大道300号上海大剧院,121.471464,31.229691,,[],[],交通设施,上海市,上海市,黄浦区
B0FFME477C,上海博物馆停车点,交通设施服务;停车场;公共停车场,150904,人民大道201号上海博物馆,121.474983,31.227569,,[],[],交通设施,上海市,上海市,黄浦区
B0FFGJSEJR,复旦大学附属眼耳鼻喉科医院停车场,交通设施服务;停车场;公共停车场,150904,汾阳路83号复旦大学附属眼耳鼻喉科医院内,121.453011,31.208870,,[],[],交通设施,上海市,上海市,徐汇区
B0H2G7VG0X,香山路-道路停车位,交通设施服务;停车场;路边停车场,150906,香山路与思南路交叉口西100米,121.466106,31.215874,,[],[],交通设施,上海市,上海市,黄浦区
B0HRL51YN0,上海市同仁医院地面停车场,交通设施服务;停车场;公共停车场,150904,仙霞路1111号上海交通大学医学院附属同仁医院(仙霞路院区),121.376512,31.208425,,[],[],交通设施,上海市,上海市,长宁区
B0FFKF6P85,外环路P+R停车场,交通设施服务;停车场;停车场相关,150900,梅陇西路1345号(外环路地铁站南1口步行210米),121.394412,31.121756,,[],[],交通设施,上海市,上海市,闵行区
B00155Q7K9,众贤路停车场,交通设施服务;停车场;专用停车场,150905,莘庄镇(莘庄地铁站北2口步行270米),121.383946,31.110475,,[],[],交通设施,上海市,上海市,闵行区
B0G0FD9OV5,新世界城地下停车场,交通设施服务;停车场;公共停车场,150904,南京西路2-68号新世界城B1,121.473458,31.235488,,[],[],交通设施,上海市,上海市,黄浦区
B0FFGCHPM2,南汇路-道路停车位,交通设施服务;停车场;路边停车场,150906,奉贤路223号(南京西路地铁站1号口步行240米),121.457190,31.229516,,[],[],交通设施,上海市,上海市,静安区
B0FFG7LRVS,山西南路-道路停车位,交通设施服务;停车场;路边停车场,150906,山西南路239号(南京东路地铁站1号口步行130米),121.482216,31.237329,,[],[],交通设施,上海市,上海市,黄浦区
B0GKKUY1I1,光启城东地面停车场,交通设施服务;停车场;公共停车场,150904,宜山路455号光启城(宜山路地铁站7号口步行170米),121.429038,31.184208,,[],[],交通设施,上海市,上海市,徐汇区
B0IALSTOST,漕河泾印象城地下停车场,交通设施服务;停车场;公共停车场,150904,漕宝路1011号漕河泾印象城,121.400732,31.162934,,[],[],交通设施,上海市,上海市,徐汇区
B0G0XD13TG,中海环宇荟停车场,交通设施服务;停车场;公共停车场,150904,黄陂南路838弄中海环宇荟(马当路地铁站5号口步行90米),121.476741,31.211046,,[],[],交通设施,上海市,上海市,黄浦区
B0FFGN6MHN,外滩停车库(入口),交通设施服务;停车场;停车场入口,150907,中山东一路49号外滩停车库,121.492461,31.233171,,[],[],交通设施,上海市,上海市,黄浦区
B00156E4TI,太仓路-道路停车位,交通设施服务;停车场;路边停车场,150906,太仓路(一大会址·黄陂南路地铁站1号口步行210米),121.473068,31.220838,,[],[],交通设施,上海市,上海市,黄浦区
B0IGU931FT,丰盛里地下停车场,交通设施服务;停车场;公共停车场,150904,茂名北路237号丰盛里(南京西路地铁站13号口旁),121.459246,31.227749,,[],[],交通设施,上海市,上海市,静安区
B0H0F5KWLR,博荟广场ONE EAST地下停车场,交通设施服务;停车场;公共停车场,150904,龙华东路325号博荟广场ONE EAST,121.480774,31.196646,,[],[],交通设施,上海市,上海市,黄浦区
B0HRCCM68E,上海交通大学医学院附属国际和平妇幼保健院停车场,交通设施服务;停车场;公共停车场,150904,华山路1961号上海交通大学医学院附属国际和平妇幼保健院,121.439147,31.195899,,[],[],交通设施,上海市,上海市,徐汇区
B00156CQ1A,安亭路-道路停车位,交通设施服务;停车场;路边停车场,150906,安亭路与永嘉路交叉口南60米,121.447639,31.203713,,[],[],交通设施,上海市,上海市,徐汇区
B00155KQZA,慈云街-道路停车位,交通设施服务;停车场;路边停车场,150906,慈云街与天钥桥路交叉口西40米,121.441531,31.188180,,[],[],交通设施,上海市,上海市,徐汇区
B0FFG7U2PA,巨鹿路-道路停车位,交通设施服务;停车场;路边停车场,150906,巨鹿路242-4号附近(淮海中路地铁站3号口步行380米),121.461795,31.222956,,[],[],交通设施,上海市,上海市,黄浦区
B0H2G7W24F,余庆路-道路停车位,交通设施服务;停车场;路边停车场,150906,天平路与淮海中路交叉口东南160米,121.438657,31.202678,,[],[],交通设施,上海市,上海市,徐汇区
B0HBBM1O6V,七宝中学地面停车场,交通设施服务;停车场;公共停车场,150904,闵行体育公园3号门东侧,121.368189,31.149375,,[],[],交通设施,上海市,上海市,闵行区
B0LB5C1ITW,百联西郊购物中心地下停车场,交通设施服务;停车场;公共停车场,150904,仙霞西路88号百联西郊购物中心,121.369935,31.209025,,[],[],交通设施,上海市,上海市,长宁区
B0FFJMC218,上海动物园公交枢纽站停车场,交通设施服务;停车场;公共停车场,150904,虹桥路2360号(上海动物园地铁站2号口步行80米),121.368349,31.189968,,[],[],交通设施,上海市,上海市,长宁区
B0H6P7QI5X,我格广场地下停车场,交通设施服务;停车场;公共停车场,150904,长寿路街道武宁路101号我格广场B3,121.423651,31.237268,,[],[],交通设施,上海市,上海市,普陀区
B0GKKCY2D1,正大乐城地下停车场,交通设施服务;停车场;公共停车场,150904,斜土路街道船厂路183-12号西南50米,121.458986,31.186804,,[],[],交通设施,上海市,上海市,徐汇区
B0FFLEXGVV,上海久事公共交通集团有限公司曹杨路停车场,交通设施服务;停车场;公共停车场,150904,曹杨路750号(枫桥路地铁站2号口步行330米),121.414223,31.241621,,[],[],交通设施,上海市,上海市,普陀区
B0FFG7LRVW,侯家路-道路停车位,交通设施服务;停车场;路边停车场,150906,侯家路91弄1-3号(豫园地铁站3号口步行330米),121.489247,31.227473,,[],[],交通设施,上海市,上海市,黄浦区
B0IKAHOWTU,IM Shanghai长宁国际地下停车场,交通设施服务;停车场;公共停车场,150904,凯旋路1398号IM Shanghai长宁国际,121.421327,31.200058,,[],[],交通设施,上海市,上海市,长宁区
B0HGB5QA1Q,上海高岛屋地下停车场,交通设施服务;停车场;公共停车场,150904,虹桥路1438号高岛屋百货B3,121.403433,31.198288,,[],[],交通设施,上海市,上海市,长宁区
B0K3SHOH6W,城隍庙停车场,交通设施服务;停车场;公共停车场,150904,河南南路301号(豫园地铁站3号口步行310米),121.488409,31.224970,,[],[],交通设施,上海市,上海市,黄浦区
B00155KHOS,皋兰路-道路停车位,交通设施服务;停车场;路边停车场,150906,皋兰路与思南路交叉口西100米,121.465789,31.216838,,[],[],交通设施,上海市,上海市,黄浦区
B0H2G7VFW8,高邮路-道路停车位,交通设施服务;停车场;路边停车场,150906,复兴西路与华山路交叉口东南180米,121.438202,31.210022,,[],[],交通设施,上海市,上海市,徐汇区
B0FFHC60WX,九江路137号停车库,交通设施服务;停车场;停车场相关,150900,九江路137号(强生物业旁坡道入库),121.487755,31.237077,021-63291141,[],[],交通设施,上海市,上海市,黄浦区
B0HKJC31OF,上海中医药大学附属曙光医院(西院)停车场,交通设施服务;停车场;公共停车场,150904,普安路185号上海中医药大学附属曙光医院(西院),121.478911,31.223145,,[],[],交通设施,上海市,上海市,黄浦区
B0G0TRGJCK,恒基688广场地下停车场,交通设施服务;停车场;公共停车场,150904,南京西路688临(688广场),121.464528,31.232231,,[],[],交通设施,上海市,上海市,静安区
B0H27SVDO9,GATE M 西岸凤巢停车场,交通设施服务;停车场;公共停车场,150904,GATE M西岸凤巢(龙耀路地铁站1号口步行260米),121.459814,31.162629,,[],[],交通设施,上海市,上海市,徐汇区
B0H1KS1RH2,上海交通大学医学院附属精神卫生中心停车场,交通设施服务;停车场;公共停车场,150904,宛平南路600号上海市精神卫生中心,121.449324,31.186954,,[],[],交通设施,上海市,上海市,徐汇区
B0FFMAF6S2,外滩停车库-进口,交通设施服务;停车场;停车场相关,150900,中山东二路与延安东路交叉口东40米,121.492478,31.233122,,[],[],交通设施,上海市,上海市,黄浦区
B0H2G7UDZG,大渡河路辅路-道路停车位,交通设施服务;停车场;路边停车场,150906,大渡河路160号附近,121.397702,31.219839,,[],[],交通设施,上海市,上海市,普陀区
B00156CS0J,久旺地面停车场,交通设施服务;停车场;公共停车场,150904,天山支路160-3号,121.396232,31.214526,,[],[],交通设施,上海市,上海市,长宁区
B00155QGQ4,闵行体育公园1号门东停车场,交通设施服务;停车场;公共停车场,150904,新镇路456号闵行体育公园,121.367528,31.142983,,[],[],交通设施,上海市,上海市,闵行区
B0G02R6JBU,海兴广场地下停车场,交通设施服务;停车场;公共停车场,150904,瑞金南路1-8附近(打浦桥地铁站3号口步行380米),121.467653,31.204374,021-64181001,[],[],交通设施,上海市,上海市,黄浦区
B0GKMRTAVB,仙乐斯广场地下停车场,交通设施服务;停车场;公共停车场,150904,南京西路388号仙乐斯广场B3室,121.468599,31.231619,,[],[],交通设施,上海市,上海市,黄浦区
B0G0R5E86Y,汇金百货地下停车场,交通设施服务;停车场;公共停车场,150904,肇嘉浜路1000号汇金百货,121.440233,31.195880,,[],[],交通设施,上海市,上海市,徐汇区
B0G07Z19KM,凯德闵行商业中心地下停车场,交通设施服务;停车场;公共停车场,150904,沪闵路6088号凯德龙之梦B3,121.378942,31.107653,,[],[],交通设施,上海市,上海市,闵行区
B0K2FM4NL2,前滩L+PLAZA地下停车场,交通设施服务;停车场;公共停车场,150904,东育路345号前滩L+PLAZA,121.482979,31.156444,,[],[],交通设施,上海市,上海市,浦东新区
B0KAJMVR0J,力波·九坊停车场,交通设施服务;停车场;公共停车场,150904,虹梅南路379弄力波·九坊,121.414676,31.133724,,[],[],交通设施,上海市,上海市,闵行区
B0FFHO19XR,福德路南侧地面停车场,交通设施服务;停车场;公共停车场,150904,福德路福德商务楼,121.490381,31.244808,,[],[],交通设施,上海市,上海市,虹口区
B0JR55X1ZY,仁慧苑地下停车场,交通设施服务;停车场;公共停车场,150904,五里桥路28弄仁慧苑,121.482721,31.203817,,[],[],交通设施,上海市,上海市,黄浦区
B0KR4MUQP4,昼锦路85号停车场,交通设施服务;停车场;停车场相关,150900,昼锦路与三牌楼路交叉口西60米,121.491718,31.224475,,[],[],交通设施,上海市,上海市,黄浦区
B0H6GL4515,华盛大厦地下停车场,交通设施服务;停车场;公共停车场,150904,汉口路与山东中路交叉口311号,121.482866,31.235591,,3.5,[],交通设施,上海市,上海市,黄浦区
B0G0TRFA13,嘉华中心停车场,交通设施服务;停车场;公共停车场,150904,淮海中路1010号(近东湖路)嘉华中心,121.455893,31.216130,,[],[],交通设施,上海市,上海市,徐汇区
B0GK35THO0,龙湖上海华泾天街地下停车场,交通设施服务;停车场;公共停车场,150904,华泾路459号,121.455076,31.119277,,[],[],交通设施,上海市,上海市,徐汇区
B0J10ACGZ1,上海闵行文化公园地下停车场,交通设施服务;停车场;公共停车场,150904,新镇路1766号闵行文化公园西大门,121.357875,31.162171,,[],[],交通设施,上海市,上海市,闵行区
B0G0R5CZ4T,金玉兰广场地下停车场,交通设施服务;停车场;公共停车场,150904,打浦桥地铁站2号口步行190米,121.470634,31.204575,021-53961023,[],[],交通设施,上海市,上海市,黄浦区
B0FFIY7BHU,莘庄商务区配套停车场,交通设施服务;停车场;停车场相关,150900,顾戴路2897号,121.357010,31.128606,,[],[],交通设施,上海市,上海市,闵行区
B0HATSY1FA,上海世博展览馆地面停车场,交通设施服务;停车场;公共停车场,150904,东浩兰生上海世博展览馆,121.489417,31.183737,,[],[],交通设施,上海市,上海市,浦东新区
B0FFLP7M8Y,体汇+红馆华港健康生活馆停车场(航南路),交通设施服务;停车场;公共停车场,150904,航南路211号(航中路地铁站2号口步行460米),121.356790,31.169445,,[],[],交通设施,上海市,上海市,闵行区
B0I1SHJP1Q,世博文化公园P2地下停车场,交通设施服务;停车场;公共停车场,150904,济坤路50号(世博大道地铁站4号口步行230米),121.482240,31.184295,,[],[],交通设施,上海市,上海市,浦东新区
B0H2G7V886,江西中路-道路停车位,交通设施服务;停车场;路边停车场,150906,江西中路与香港路交叉口南60米,121.485099,31.241720,,[],[],交通设施,上海市,上海市,黄浦区
B0FFIAQQTN,上海交通大学医学院附属瑞金医院地面停车场,交通设施服务;停车场;公共停车场,150904,瑞金二路192附近,121.466770,31.211990,,[],[],交通设施,上海市,上海市,黄浦区
B00156NWPG,中华艺术宫地面停车场,交通设施服务;停车场;公共停车场,150904,上南路205号上海美术馆(中华艺术宫),121.490689,31.180286,,[],[],交通设施,上海市,上海市,浦东新区
B0GKMRTHDC,尚嘉中心地下停车场,交通设施服务;停车场;公共停车场,150904,仙霞路99号(近紫云西路)尚嘉中心B3,121.407635,31.205694,,[],[],交通设施,上海市,上海市,长宁区
B0G03UFSWK,万辉国际广场立体停车场,交通设施服务;停车场;公共停车场,150904,虹梅南路863号万辉国际广场,121.422488,31.123836,,[],[],交通设施,上海市,上海市,闵行区
B0IGU94J8B,复旦大学附属眼耳鼻喉科医院汾阳院区地面停车场,交通设施服务;停车场;公共停车场,150904,汾阳路83号复旦大学附属眼耳鼻喉科医院(汾阳院区),121.453343,31.209790,,[],[],交通设施,上海市,上海市,徐汇区
B0HBKZOST4,上海滩商厦地下停车场,交通设施服务;停车场;公共停车场,150904,人民路388号上海滩商厦(豫园地铁站7号口步行160米),121.491753,31.230009,,[],[],交通设施,上海市,上海市,黄浦区
B0H2G7VG2P,石门一路-道路停车位,交通设施服务;停车场;路边停车场,150906,石门一路中凯城市之光(南京西路地铁站8号口步行200米),121.463240,31.225798,,[],[],交通设施,上海市,上海市,静安区
B0G0VHML0N,博华广场地下停车场,交通设施服务;停车场;公共停车场,150904,山海关路388号博华广场,121.461850,31.236152,,[],[],交通设施,上海市,上海市,静安区
