id,name,type,typecode,address,lng,lat,tel,rating,cost,group,pname,cityname,adname
B0FFK78AI5,三菱电机智能制造科创中心,公司企业;公司;机械电子|购物服务;家电电子卖场;家电电子卖场,170204|060300,伊犁南路566号(伊犁路地铁站1号口步行320米),121.406053,31.197198,021-23223030,4.5,[],购物菜场|科技体验,上海市,上海市,长宁区
B0FFJ2TZVA,荣耀授权专卖店(黄浦区浙江中路店),购物服务;家电电子卖场;手机销售,060305,浙江中路156号(福州路罗森店旁边),121.479577,31.233050,021-63353312;15921598088,4.6,[],购物菜场|科技体验,上海市,上海市,黄浦区
B00156NVZG,上海自然博物馆,科教文化服务;博物馆;博物馆,140100,北京西路510号,121.462672,31.235021,021-62620116;021-68622000,4.8,[],文化地标|科技体验,上海市,上海市,静安区
B00154DR4O,上海航宇科普中心,科教文化服务;博物馆;博物馆,140100,沪闵路7900号,121.406043,31.136452,021-64806759;021-54809490,4.7,[],文化地标|科技体验,上海市,上海市,闵行区
B00156EGYU,钱学森图书馆,科教文化服务;博物馆;博物馆,140100,华山路1800号,121.435504,31.201055,021-62932068,4.6,[],文化地标|风景名胜|科技体验,上海市,上海市,徐汇区
B0015211AD,中国蓝印花布馆,科教文化服务;展览馆;展览馆|科教文化服务;博物馆;博物馆,140200|140100,长乐路637弄1-24号(近华亭路),121.450339,31.216682,021-54037947,4.3,[],文化地标|科技体验,上海市,上海市,徐汇区
B0G2AODU45,URBANCROSS Gallery城市交集,科教文化服务;展览馆;展览馆|科教文化服务;博物馆;博物馆,140200|140100,淮海中路1846号(交通大学地铁站7号口步行420米),121.438336,31.204323,,4.2,[],文化地标|科技体验,上海市,上海市,徐汇区
B001542F38,上海展览中心,科教文化服务;展览馆;展览馆,140200,延安中路1000号(静安寺地铁站8号口步行340米),121.452760,31.224701,021-22162216,4.9,[],文化地标|科技体验,上海市,上海市,静安区
B0K1LLB089,GM巨人展,科教文化服务;展览馆;展览馆,140200,淮海中路HAUS NOWHERE门店2层,121.462771,31.218518,,4.9,[],文化地标|科技体验,上海市,上海市,黄浦区
B00156E4HB,东浩兰生上海世博展览馆,科教文化服务;展览馆;展览馆,140200,上海市上钢新村街道国展路1099号上海世博展览馆内,121.489956,31.182650,021-20225188;021-20893555;021-20893600,4.8,[],文化地标|科技体验,上海市,上海市,浦东新区
B0LUZ7YXUM,LV路易威登非凡之旅,科教文化服务;展览馆;展览馆,140200,南京西路789号兴业太古汇N129(南京西路地铁站5号口旁),121.462262,31.229963,4006588555,4.8,[],文化地标|科技体验,上海市,上海市,静安区
B001546728,上海城市规划展示馆,科教文化服务;展览馆;展览馆,140200,人民大道100号,121.475551,31.231444,021-63184477,4.8,[],文化地标|科技体验,上海市,上海市,黄浦区
B00156F687,上海跨国采购会展中心,科教文化服务;会展中心;会展中心|科教文化服务;展览馆;展览馆,140300|140200,光复西路2739号,121.392164,31.221351,021-60290070,4.4,[],文化地标|科技体验,上海市,上海市,普陀区
B0015358EB,上海世贸展馆,科教文化服务;展览馆;展览馆,140200,兴义路99号(红宝石路地铁站4号口步行490米),121.400624,31.202270,021-62366888,4.7,[],文化地标|科技体验,上海市,上海市,长宁区
B0LU7SXO0F,路易威登非凡之旅展览,科教文化服务;展览馆;展览馆,140200,南京西路789号兴业太古汇N129(南京西路地铁站5号口旁),121.462334,31.229976,4006588555,4.8,[],文化地标|科技体验,上海市,上海市,静安区
B0FFI0Z6U1,八号桥艺术空间,科教文化服务;展览馆;展览馆,140200,上海市南京东路街道南苏州路1247号2楼,121.466472,31.240041,13482723131,4.6,[],文化地标|科技体验,上海市,上海市,黄浦区
B0015513HA,上海杜莎夫人蜡像馆,科教文化服务;展览馆;展览馆,140200,南京西路2-68号新世界城L10层,121.473346,31.234660,4000988966,4.7,[],文化地标|科技体验,上海市,上海市,黄浦区
B0GKX1HH5Z,虹桥古玩花卉城,购物服务;花鸟鱼虫市场;花卉市场|购物服务;专卖店;古玩字画店|科教文化服务;展览馆;展览馆,060501|061201|140200,金汇路528号,121.374891,31.182261,13816643545;13916000328,4.7,[],文化地标|科技体验,上海市,上海市,闵行区
B0K2OC4JMY,东浩兰生上海世博展览馆H1馆,科教文化服务;展览馆;展览馆,140200,国展路1099号(中华艺术宫地铁站3号口步行440米),121.489949,31.182351,021-20893600,4.6,[],文化地标|科技体验,上海市,上海市,浦东新区
B0FFLF8U4V,上海工匠馆,科教文化服务;展览馆;展览馆,140200,北海路上海市工人文化宫(人民广场地铁站1号口步行220米),121.477846,31.230437,021-63520361,4.6,[],文化地标|科技体验,上海市,上海市,黄浦区
B00155KH6J,上海农业展览馆,科教文化服务;展览馆;展览馆,140200,虹桥路2268号,121.375905,31.191305,021-62376448,4.6,[],文化地标|科技体验,上海市,上海市,长宁区
B0FFK5UAUI,上海展览中心友谊会堂,科教文化服务;展览馆;展览馆,140200,延安中路1000号上海展览中心,121.452263,31.225743,,4.5,[],文化地标|科技体验,上海市,上海市,静安区
B0FFK9GV63,沪港银行历史展览馆,科教文化服务;展览馆;展览馆,140200,四川中路299号(近九江路口),121.488130,31.237207,021-23273670,4.4,[],文化地标|科技体验,上海市,上海市,黄浦区
B0HDC7L861,百空间香港路,科教文化服务;展览馆;展览馆,140200,香港路117号,121.485570,31.242348,15021604371,4.4,[],文化地标|科技体验,上海市,上海市,黄浦区
B00155HPYW,百空间卜内门洋行,科教文化服务;展览馆;展览馆,140200,四川中路133号,121.488900,31.234667,021-33359295,4.5,[],文化地标|科技体验,上海市,上海市,黄浦区
B0G297R27E,贝浩登PERROTIN,科教文化服务;展览馆;展览馆,140200,虎丘路27号3层(南京东路地铁站6号口步行430米),121.487049,31.241267,021-63211234,4.3,[],文化地标|科技体验,上海市,上海市,黄浦区
B0FFHUJR0I,上海钟表文化科普馆,科教文化服务;展览馆;展览馆,140200,中山南二路520号,121.460699,31.189354,021-54106727,4.3,[],文化地标|科技体验,上海市,上海市,徐汇区
B0FFFEEHZT,上海世博展览馆4号馆,科教文化服务;展览馆;展览馆,140200,国展路1099号B1层,121.489804,31.182296,021-20893600,4.5,[],文化地标|科技体验,上海市,上海市,浦东新区
B0FFKWQ77V,阿尔敏·莱希(Almine Rech)画廊,科教文化服务;展览馆;展览馆,140200,虎丘路27号202(南京东路地铁站6号口步行440米),121.487241,31.241296,021-63120260,4.2,[],文化地标|科技体验|独处品质空间,上海市,上海市,黄浦区
B00154DJ77,上海市长宁区革命文物陈列馆,科教文化服务;展览馆;展览馆,140200,愚园路1376弄34号,121.422985,31.219764,021-62511415,4.3,[],文化地标|科技体验,上海市,上海市,长宁区
B0I23HZ93O,愚见观池空间,科教文化服务;展览馆;展览馆,140200,愚园路1088弄48号C1(江苏路地铁站8号口步行350米),121.428228,31.219624,021-62269068,4.5,[],文化地标|科技体验,上海市,上海市,长宁区
B0LDACGJWQ,上海劳动模范风采馆,科教文化服务;展览馆;展览馆,140200,中山东一路14号,121.489956,31.237128,021-63613953,4.3,[],文化地标|科技体验,上海市,上海市,黄浦区
B00156O8V0,虹桥古玩城鲜花市场,购物服务;专卖店;古玩字画店|购物服务;花鸟鱼虫市场;花卉市场|科教文化服务;展览馆;展览馆,061201|060501|140200,金汇路528号B1层G101(近红松路),121.374888,31.181595,13916000328,4.2,[],文化地标|科技体验,上海市,上海市,闵行区
B0FFFRMPOF,上海展览中心西一馆W1,科教文化服务;展览馆;展览馆,140200,延安中路1000号上海展览中心,121.452857,31.223656,021-22162216,4.4,[],文化地标|科技体验,上海市,上海市,静安区
B0K2ASRTEJ,中国国家地理探索极致发现科学艺术影像展,科教文化服务;展览馆;展览馆,140200,苏河湾万象天地(天潼路地铁站5号口步行290米),121.479775,31.242925,,[],[],文化地标|科技体验,上海市,上海市,静安区
B0J30SA162,虹桥历史文化陈列馆,科教文化服务;展览馆;展览馆,140200,合川路3051号D幢1层,121.378503,31.180644,,4.3,[],文化地标|科技体验,上海市,上海市,闵行区
B0JDGMQVW8,大田秀则画廊,科教文化服务;展览馆;展览馆,140200,虎丘路78号1层QL106单元洛克·外滩源,121.487640,31.242228,021-33681321,4.3,[],文化地标|科技体验|独处品质空间,上海市,上海市,黄浦区
B0JUP5Z5TZ,上海蜂巢当代艺术中心,科教文化服务;展览馆;展览馆,140200,北京东路270号(南京东路地铁站6号口步行260米),121.484859,31.240650,,4.4,[],文化地标|科技体验,上海市,上海市,黄浦区
B0JUVLCR4L,零艺术馆红厅(LU·ONE凯德晶萃广场),科教文化服务;展览馆;展览馆|科教文化服务;美术馆;美术馆,140200|140400,徐家汇路268号LU·ONE凯德晶萃广场F2层02-24,121.477183,31.210337,021-63129126,4.0,[],文化地标|科技体验|独处品质空间,上海市,上海市,黄浦区
B0GKYHHXXS,宋庆龄文化空间,科教文化服务;展览馆;展览馆,140200,徐汇区五原路300号一层,121.442941,31.212088,,4.3,[],文化地标|科技体验,上海市,上海市,徐汇区
B0FFFK31RD,田子坊艺术中心,科教文化服务;展览馆;展览馆,140200,打浦桥街道泰康路210弄2号乙二楼(田子坊前行50米),121.469151,31.208221,,4.2,[],文化地标|科技体验,上海市,上海市,黄浦区
B0K1GHWVKK,BAPE Gallery(Gate M西岸梦中心),科教文化服务;展览馆;展览馆,140200,龙腾大道2266号Gate M西岸梦中心1F层,121.466079,31.161004,,[],[],文化地标|科技体验,上海市,上海市,徐汇区
B00156GLUU,国际饭店文史馆,科教文化服务;展览馆;展览馆,140200,南京西路170号国际饭店1层回廊,121.471630,31.233583,021-63580522,4.0,[],文化地标|科技体验,上海市,上海市,黄浦区
B0K2GBFZRX,上海苏河湾万象天地东里LG2展厅,科教文化服务;展览馆;展览馆,140200,苏河湾万象天地,121.479345,31.242604,,4.5,[],文化地标|科技体验,上海市,上海市,静安区
B0FFG0HQQ7,中国历史文化名街陕西北路展示咨询中心,科教文化服务;展览馆;展览馆,140200,陕西北路604号,121.451970,31.232548,,4.1,[],文化地标|科技体验,上海市,上海市,静安区
B0LGFOUNYG,中国艺术品收藏展览中心,科教文化服务;展览馆;展览馆,140200,凯旋路1020号(近延安西路),121.417316,31.207342,18017221976,4.3,[],文化地标|科技体验,上海市,上海市,长宁区
B0J15NV6YZ,馆空间(不存在艺术中心环球港店),科教文化服务;展览馆;展览馆|体育休闲服务;体育休闲服务场所;体育休闲服务场所,140200|080000,中山北路3300号上海月星环球港5层世界港口小镇(环球港B座瑞幸咖啡旁电梯五层直达),121.412574,31.232753,15394453214,3.9,[],文化地标|科技体验,上海市,上海市,普陀区
B0HBYUI8GK,YELLOWKORNER(兴业太古汇),科教文化服务;展览馆;展览馆,140200,石门一路288号兴业太古汇L2层,121.462616,31.229031,021-52556625,4.1,[],文化地标|科技体验,上海市,上海市,静安区
B00150A1D8,上海国际农展中心,科教文化服务;展览馆;展览馆,140200,虹桥路2268号,121.376143,31.191092,021-62376018;021-62376448,4.4,[],文化地标|科技体验,上海市,上海市,长宁区
B0FFGYMWE6,云艺术中心,科教文化服务;展览馆;展览馆,140200,宜山路407号喜盈门国际建材品牌中心3楼,121.429034,31.186403,021-54503282,3.3,[],文化地标|科技体验,上海市,上海市,徐汇区
B0MBFD551R,2025影像上海艺术博览会,科教文化服务;展览馆;展览馆,140200,西环道与延安中路交叉口北100米,121.452275,31.223875,,1.4,[],文化地标|科技体验,上海市,上海市,静安区
B00156R4Q0,瑞金医院院史陈列馆,科教文化服务;展览馆;展览馆,140200,瑞金二路197号瑞金医院16号楼,121.467487,31.212132,,4.3,[],文化地标|科技体验,上海市,上海市,黄浦区
B0M6M7VO38,第三届上海诺亚设计展,科教文化服务;展览馆;展览馆,140200,南京西路2号-88号新世界城,121.473588,31.235102,,3.7,[],文化地标|科技体验,上海市,上海市,黄浦区
B0G3LCJC09,嘉禧国际艺术中心(JIAXI),科教文化服务;展览馆;展览馆,140200,北京东路99号2楼L202室,121.488573,31.240572,,4.0,[],文化地标|科技体验,上海市,上海市,黄浦区
B0FFFSOXOI,上海展览中心东一馆E1,科教文化服务;展览馆;展览馆,140200,延安中路1000号上海展览中心,121.453777,31.224482,,4.3,[],文化地标|科技体验,上海市,上海市,静安区
B0FFHR43YG,Hi艺术中心hiart space,科教文化服务;展览馆;展览馆,140200,龙腾大道3398号龙美术馆西配楼,121.464729,31.184009,,3.4,[],文化地标|科技体验,上海市,上海市,徐汇区
B0FFG6APTL,上海展览中心-东二馆E2,科教文化服务;展览馆;展览馆,140200,延安中路1000号上海展览中心,121.453432,31.225356,021-22162216,4.3,[],文化地标|科技体验,上海市,上海市,静安区
B0FFGOE6K7,羊羊红木艺术馆(古北大成公馆店),购物服务;家居建材市场;建材五金市场|购物服务;家居建材市场;家具城|科教文化服务;展览馆;展览馆,060603|060602|140200,古北大成公馆东北门西60米,121.404813,31.188739,,4.3,[],文化地标|科技体验,上海市,上海市,闵行区
B00155HZDG,上海市工人文化宫展览中心,科教文化服务;展览馆;展览馆,140200,西藏中路120号上海市工人文化宫3层,121.477673,31.23051,,4.0,[],文化地标|科技体验,上海市,上海市,黄浦区
B00155LXAO,旌盛艺术馆,科教文化服务;展览馆;展览馆,140200,北苏州路20号,121.48964,31.244319,,4.1,[],文化地标|科技体验,上海市,上海市,虹口区
B0JRTZVWTO,XIN ART SPACE新艺空间,科教文化服务;展览馆;展览馆,140200,北京东路270号中一大楼2楼,121.484860,31.240669,,3.4,[],文化地标|科技体验,上海市,上海市,黄浦区
B00157GIDE,TOPS上海它博会-上海世博展览馆,科教文化服务;展览馆;展览馆,140200,国展路1099号上海世博展览馆内,121.489947,31.182657,,4.2,[],文化地标|科技体验,上海市,上海市,浦东新区
B0L04SX30Q,三生万序·非遗数字共生艺术展(前滩太古里店),科教文化服务;展览馆;展览馆,140200,浦东新区东育路500弄1-9号前滩太古里石区L1层S-L1-28 SPECTRUM堂砾,121.482809,31.152276,,4.0,[],文化地标|科技体验,上海市,上海市,浦东新区
B0I1UCZRBT,吴昌硕海派艺术空间,科教文化服务;展览馆;展览馆,140200,海文大楼4层,121.467308,31.244909,,3.6,[],文化地标|科技体验,上海市,上海市,静安区
B00157I2HF,马德里案例馆,科教文化服务;展览馆;展览馆,140200,南车站路600弄1号,121.494586,31.203332,,4.3,[],文化地标|科技体验,上海市,上海市,黄浦区
B0JK5Z3F0N,阆风艺术LEVANT ART,科教文化服务;展览馆;展览馆,140200,高青西路777号2层02-01单元,121.484462,31.150221,,4.1,[],文化地标|科技体验|独处品质空间,上海市,上海市,浦东新区
B00155KRWM,沪西革命史陈列馆,风景名胜;风景名胜;红色景区|科教文化服务;展览馆;展览馆,110210|140200,曹杨路520号(沪西工人文化宫内),121.420322,31.238477,021-62442218;021-62449799,4.2,[],文化地标|风景名胜|科技体验,上海市,上海市,普陀区
B0FFF2F7AH,上海展览中心-小黄楼,科教文化服务;展览馆;展览馆,140200,延安中路1000号,121.452071,31.225022,,3.9,[],文化地标|科技体验,上海市,上海市,静安区
B0K1JH3ADM,上海手表博物馆,科教文化服务;展览馆;展览馆,140200,南京西路591弄138号一楼前门,121.466107,31.228673,13641905778,4.2,[],文化地标|科技体验,上海市,上海市,静安区
B0H3J75KFM,复兴·雅(徐汇店),科教文化服务;展览馆;展览馆,140200,复兴中路118号B楼(老西门地铁站4号口步行290米),121.479975,31.218232,,4.3,[],文化地标|科技体验,上海市,上海市,黄浦区
B00157I13A,上海欧豪年艺术馆,科教文化服务;展览馆;展览馆,140200,宋园路32号,121.413715,31.194213,13621694669,3.9,[],文化地标|科技体验,上海市,上海市,长宁区
B0FFG8QL2X,上海展览中心-中央大厅,科教文化服务;展览馆;展览馆,140200,延安中路1000号上海展览中心附近,121.452516,31.224638,021-22162216,4.2,[],文化地标|科技体验,上海市,上海市,静安区
B0FFG8HOFS,上海世博展览馆制证中心,科教文化服务;展览馆;展览馆,140200,东浩兰生上海世博展览馆,121.490151,31.181233,,4.3,[],文化地标|科技体验,上海市,上海市,浦东新区
B00155L9RG,上海工人第三次武装起义发布命令地点,风景名胜;风景名胜;风景名胜|科教文化服务;展览馆;展览馆,110200|140200,自忠路361号(一大会址·新天地地铁站6号口步行290米),121.473885,31.218108,,3.8,[],文化地标|风景名胜|科技体验,上海市,上海市,黄浦区
B0KD5ZPRV0,IFS China上海国际紧固件展-上海世博展览馆,科教文化服务;展览馆;展览馆,140200,国展路1099号上海世博展览馆内,121.490477,31.181482,,4.0,[],文化地标|科技体验,上海市,上海市,浦东新区
B0LA6ZB7HP,中国共产党无线电密码通信工作诞生地历史陈列展,科教文化服务;展览馆;展览馆,140200,延安西路396-2号,121.437869,31.218424,,4.1,[],文化地标|科技体验,上海市,上海市,静安区
B0I3FHO38E,Art Labor,科教文化服务;展览馆;展览馆,140200,乌鲁木齐中路19弄2号,121.444583,31.216091,021-62456963,4.1,[],文化地标|科技体验,上海市,上海市,静安区
B0M6967HX9,爱马仕之家,科教文化服务;展览馆;展览馆,140200,瑞金一路与淮海中路交叉口北140米,121.464175,31.220075,,[],[],文化地标|科技体验,上海市,上海市,黄浦区
B0KRAMAIAG,北鱼艺术馆,科教文化服务;展览馆;展览馆,140200,南宁路710号,121.438069,31.161673,15694521282,3.9,[],文化地标|科技体验,上海市,上海市,徐汇区
B0L0LXBMU3,2025上海国际情趣生活及健康产业博览会(成人展),科教文化服务;展览馆;展览馆,140200,中江路与光复西路交叉口西北200米,121.392125,31.221375,,[],[],文化地标|科技体验,上海市,上海市,普陀区
B0I6JU38TF,积庆堂,风景名胜;风景名胜;风景名胜|科教文化服务;展览馆;展览馆,110200|140200,武康路372号,121.439612,31.206817,,4.1,[],文化地标|科技体验,上海市,上海市,徐汇区
B0JUPSV7I2,蜂巢·生成上海空间,科教文化服务;展览馆;展览馆|公司企业;公司;公司,140200|170200,北京东路211号(南京东路地铁站6号口步行250米),121.486027,31.240500,,4.4,[],文化地标|科技体验,上海市,上海市,黄浦区
B0FFFCOK3Y,沪上·生态家,科教文化服务;展览馆;展览馆,140200,南车站路600弄18号,121.493989,31.202975,,4.0,[],文化地标|科技体验,上海市,上海市,黄浦区
B0L26UFAO4,YUANLINK,科教文化服务;展览馆;展览馆,140200,茂名北路258号张园L1层,121.460450,31.227557,,3.9,[],文化地标|科技体验,上海市,上海市,静安区
B00156GM0V,上海体育博物馆陈列室,科教文化服务;展览馆;展览馆,140200,南京西路150号体育大厦2层(近国际饭店),121.471874,31.233828,,3.8,[],文化地标|科技体验,上海市,上海市,黄浦区
BY0001P5EQ,中华艺术宫下沉广场,科教文化服务;展览馆;展览馆,140200,上南路205号中华艺术宫,121.494725,31.184375,,3.3,[],文化地标|科技体验,上海市,上海市,浦东新区
B0FFK2NXZ4,弘越中国艺术收藏品展览中心,购物服务;家电电子卖场;数码电子|科教文化服务;展览馆;展览馆,060306|140200,凯旋路1020号静安寺锐欧百货大厦(近延安西路),121.417351,31.207234,18017221976,4.2,[],文化地标|科技体验,上海市,上海市,长宁区
B0L3MHK36A,2025可持续全球领导者大会,科教文化服务;展览馆;展览馆,140200,世博园区局门路689号,121.486627,31.194574,,[],[],文化地标|科技体验,上海市,上海市,黄浦区
B0JUKC45RK,上海星际之旅航天艺术展,科教文化服务;展览馆;展览馆,140200,南京东路830号第一百货商业中心A馆F4层,121.474810,31.235930,,3.9,[],文化地标|科技体验,上海市,上海市,黄浦区
B0FFJHVRI1,芊荷艺术空间,科教文化服务;展览馆;展览馆,140200,愚园路716号101室(江苏路地铁站2号口步行260米),121.435379,31.221089,021-52231736,4.1,[],文化地标|科技体验,上海市,上海市,长宁区
B0L2C5HC5Q,半马苏河艺术空间,科教文化服务;展览馆;展览馆,140200,云岭东路985弄2号楼,121.377646,31.224571,,4.2,[],文化地标|科技体验,上海市,上海市,普陀区
B0KBFRVY91,走进大秦展览馆(上海店),科教文化服务;展览馆;展览馆,140200,中山南一路788号博荟广场地下二层大米先生旁,121.479625,31.196685,,3.9,[],文化地标|科技体验,上海市,上海市,黄浦区
B0L2CMHH3O,CHERUBY HOUSE,科教文化服务;展览馆;展览馆,140200,长乐路758号,121.451252,31.217245,021-63539059,4.1,[],文化地标|科技体验,上海市,上海市,静安区
B00157469X,中国船舶馆(建设中),科教文化服务;展览馆;展览馆,140200,苗江路800号对面,121.493132,31.196067,18137757927,4.5,[],文化地标|科技体验,上海市,上海市,黄浦区
B0FFLH7D4C,华侨城当代艺术中心上海馆(暂停开放),科教文化服务;展览馆;展览馆,140200,曲阜路9弄B1层(曲阜路地铁站5号口步行350米),121.475708,31.242291,021-66085119;021-66085180,4.2,[],文化地标|科技体验,上海市,上海市,静安区
B0FFJDK5PK,Fiu Gallery(暂停开放),科教文化服务;展览馆;展览馆|购物服务;服装鞋帽皮具店;服装鞋帽皮具店,140200|061100,愚园路1175号,121.426550,31.218705,13620226435,4.3,[],文化地标|科技体验,上海市,上海市,长宁区
B0FFFWULBU,ALIGHT ROOM拉法耶文化艺术中心(暂停开放),科教文化服务;展览馆;展览馆,140200,复兴中路323号(一大会址·新天地地铁站2号口旁),121.476027,31.216404,021-63150965,4.6,[],文化地标|科技体验,上海市,上海市,黄浦区
B00155KK3J,上海国际展览中心(暂停开放),科教文化服务;展览馆;展览馆,140200,兴义路77号,121.403990,31.203167,021-62755800,4.4,[],文化地标|科技体验,上海市,上海市,长宁区
B00156F5DZ,上海意大利中心(暂停开放),科教文化服务;展览馆;展览馆,140200,世博大道2095号(近塘子泾路),121.475806,31.183757,15000905462,4.3,[],文化地标|科技体验,上海市,上海市,浦东新区
B0L2CSGVN7,WDCC2025世界设计之都大会(暂停开放),科教文化服务;展览馆;展览馆,140200,局门路689号,121.486501,31.194439,,4.6,[],文化地标|科技体验,上海市,上海市,黄浦区
B0H1U902G9,沪西工人半日学校史料陈列馆,科教文化服务;展览馆;展览馆,140200,西苏州路1037号(江宁路地铁站2号口步行370米),121.448356,31.243601,,4.3,[],文化地标|科技体验,上海市,上海市,普陀区
B0H12S90QQ,复兴颂,科教文化服务;展览馆;展览馆,140200,复兴中路118号(老西门地铁站4号口步行330米),121.479789,31.218060,,4.2,[],文化地标|科技体验,上海市,上海市,黄浦区
B001574RM5,国家电网馆(装修中),科教文化服务;展览馆;展览馆,140200,五里桥街道五里桥街道五里桥街道五里桥街道卢湾区浦西世博园D片区局门路,121.485488,31.195541,,4.4,[],文化地标|科技体验,上海市,上海市,黄浦区
B0I1VGUPBF,陈伯吹国际儿童文学奖原创插画展五周年特展,科教文化服务;展览馆;展览馆,140200,天钥桥路与龙华西路交叉口西北200米,121.446975,31.174275,,0.3,[],文化地标|科技体验,上海市,上海市,徐汇区
B0FFG94UUJ,源臻艺术馆,科教文化服务;展览馆;展览馆,140200,剑河路679号,121.369689,31.204275,13818415968,4.3,[],文化地标|科技体验,上海市,上海市,长宁区
B0FFHLMGDW,军史陈列馆,风景名胜;风景名胜;纪念馆|科教文化服务;展览馆;展览馆,110204|140200,常德路与新闸路交叉口南100米,121.446240,31.228563,,4.1,[],文化地标|风景名胜|科技体验,上海市,上海市,静安区
B00156NVHT,国宝鲁庵印泥制作技艺传习所,科教文化服务;培训机构;培训机构|科教文化服务;展览馆;展览馆,141400|140200,石门一路11-15、15之1-2,121.463024,31.224295,,3.4,[],文化地标|科技体验,上海市,上海市,静安区
B0FFGJ9EF8,金城艺术画廊,科教文化服务;展览馆;展览馆,140200,文定路218号C栋C127承接大型壁画酒店家居配画个性化私人定制,121.431353,31.186146,18317032098,3.9,[],文化地标|科技体验|独处品质空间,上海市,上海市,徐汇区
B0JKL75SK7,上海涌禄·极合展厅,科教文化服务;展览馆;展览馆,140200,文定路258号,121.430795,31.185245,15618631949,4.1,[],文化地标|科技体验,上海市,上海市,徐汇区
B0JRC5C1YJ,太空漫步航天艺术展,科教文化服务;展览馆;展览馆,140200,南京东路830号第一百货商业中心A馆F4层,121.474772,31.235955,,2.9,[],文化地标|科技体验,上海市,上海市,黄浦区
B0LUXZL6XM,进博市集Expo.club,科教文化服务;展览馆;展览馆,140200,上海环球港五楼L549-550,121.412908,31.232877,,4.0,[],文化地标|科技体验,上海市,上海市,普陀区
B0KRYU1PZP,国家地理百年魅力·天生出彩经典影像大展上海站,科教文化服务;展览馆;展览馆,140200,淮海中路939号巴黎春天6楼(陕西南路地铁站1号口旁),121.459594,31.216210,13559234131,3.7,[],文化地标|科技体验,上海市,上海市,黄浦区
B0H27SV5OF,新泾镇民间文化艺术展示馆(装修中),科教文化服务;展览馆;展览馆,140200,哈密路1358号2层,121.367091,31.200731,021-33030665;021-62393670,3.9,[],文化地标|科技体验,上海市,上海市,长宁区
B0LKSCIY41,外滩建筑与金融展示馆,科教文化服务;展览馆;展览馆,140200,广学大楼西门旁,121.487675,31.242975,,3.2,[],文化地标|科技体验,上海市,上海市,黄浦区
B0FFFPW3G3,IN ART WE LIVE(上海k11购物艺术中心),科教文化服务;展览馆;展览馆,140200,淮海中路300号上海k11购物艺术中心B1层,121.473577,31.223445,,3.2,[],文化地标|科技体验,上海市,上海市,黄浦区
B0FFKSLQOC,上海展览中心·展览馆,科教文化服务;展览馆;展览馆,140200,延安中路1000号,121.451975,31.224675,,4.2,[],文化地标|科技体验,上海市,上海市,静安区
B0L35SDW0X,再现大师-世界名画感映艺术大展,科教文化服务;展览馆;展览馆,140200,南京东路第一人民百货C馆8F,121.475294,31.235488,17717865847,[],[],文化地标|科技体验,上海市,上海市,黄浦区
B0IU9DU64U,Dest Gallery,科教文化服务;展览馆;展览馆,140200,陕西北路808号陕康里8号楼,121.450086,31.235071,,3.6,[],文化地标|科技体验,上海市,上海市,静安区
B0L0JXGG48,路易·艾黎微展厅,科教文化服务;展览馆;展览馆,140200,愚园路与安西路交叉口西120米,121.424226,31.218797,,3.3,[],文化地标|科技体验,上海市,上海市,长宁区
B0KUR99VG4,鎏婳书香文化展厅,科教文化服务;展览馆;展览馆,140200,九江路501号一楼112室(南京东路地铁站4号口步行60米),121.482057,31.235527,15555549962,2.9,[],文化地标|科技体验,上海市,上海市,黄浦区
B00155R14H,中国省区市联合馆,科教文化服务;展览馆;展览馆,140200,上南路205号上海美术馆(中华艺术宫),121.494780,31.184657,,3.2,[],文化地标|科技体验,上海市,上海市,浦东新区
B0FFJ0AN17,上海婚姻文化展示馆,科教文化服务;展览馆;展览馆,140200,曹杨路510号(曹杨路地铁站2号口步行190米),121.418614,31.237587,,3.5,[],文化地标|科技体验,上海市,上海市,普陀区
B00155G8QE,上海市房地资源展示厅,科教文化服务;展览馆;展览馆,140200,北京西路95号房地大厦(新闸路地铁站6号口步行330米),121.471294,31.236363,,3.1,[],文化地标|科技体验,上海市,上海市,黄浦区
B00154016D,汉光陶瓷艺术馆(上海旅游品商厦店),购物服务;专卖店;礼品饰品店|科教文化服务;展览馆;展览馆|科教文化服务;美术馆;美术馆,061209|140200|140400,南京东路558号上海旅游品商厦,121.479729,31.235869,021-54033880,[],[],文化地标|科技体验,上海市,上海市,黄浦区
B0LRXSYDDV,大水花艺术展(装修中),科教文化服务;展览馆;展览馆,140200,陕西北路600号,121.451903,31.232793,,3.6,[],文化地标|科技体验,上海市,上海市,静安区
B0L3ACVKO9,星火农场基地农展厅,科教文化服务;展览馆;展览馆,140200,可乐路与福泉路交叉口东80米,121.360527,31.206216,,2.3,[],文化地标|科技体验,上海市,上海市,长宁区
B0LUA7HWLQ,上海世博会全球环境基金馆,科教文化服务;展览馆;展览馆,140200,蒙自路与局门路交叉口西北140米,121.482354,31.194293,,2.7,[],文化地标|科技体验,上海市,上海市,黄浦区
B0LU2CUWTF,上海体育博物馆-冬奥主题临展,科教文化服务;展览馆;展览馆,140200,南京西路150号上海体育博物馆,121.471993,31.233764,,3.4,[],文化地标|科技体验,上海市,上海市,黄浦区
B0FFGE6BYT,上海师范大学徐汇校区西部校史馆,科教文化服务;展览馆;展览馆,140200,桂林路100号上海师范大学徐汇校区西部内,121.419360,31.160419,,3.8,[],文化地标|科技体验,上海市,上海市,徐汇区
B00155QIKT,韵艺艺术馆,科教文化服务;展览馆;展览馆,140200,淮海中路1131号(常熟路地铁站2号口步行270米),121.454396,31.214499,,3.1,[],文化地标|科技体验,上海市,上海市,徐汇区
B0K6ADOXPI,苏东坡新媒体数字艺术展,科教文化服务;展览馆;展览馆,140200,龙华东路325号博荟广场ONE EAST,121.479945,31.196795,,2.6,[],文化地标|科技体验,上海市,上海市,黄浦区
B0FFK693OK,大师非遗馆,科教文化服务;展览馆;展览馆,140200,安平街与福佑路交叉口北80米(豫园地铁站7号口步行280米),121.492080,31.228468,,2.4,[],文化地标|科技体验,上海市,上海市,黄浦区
B0LGOG5EEL,库比森画廊Cub ism_Artspace,科教文化服务;展览馆;展览馆,140200,四川中路与延安东路交叉口西北80米,121.489425,31.233075,,[],[],文化地标|科技体验,上海市,上海市,黄浦区
B0LKJG1629,上海柏涛建筑规划设计有限公司,科教文化服务;展览馆;展览馆,140200,梅富路与兴梅路交叉口西北100米,121.416142,31.108323,,[],[],文化地标|科技体验,上海市,上海市,闵行区
B001579JFS,天下一家会馆,科教文化服务;展览馆;展览馆,140200,思南路49号,121.468169,31.214823,,4.1,[],文化地标|科技体验,上海市,上海市,黄浦区
B0JARZZR99,Gallery Func,科教文化服务;展览馆;展览馆,140200,新乐路19号3层30室(新乐路17号小区内),121.457365,31.218136,021-63330612,3.9,[],文化地标|科技体验,上海市,上海市,徐汇区
B0JU1SM0F5,齐泉钱币展览馆,科教文化服务;展览馆;展览馆,140200,漕宝路1625号12栋,121.373381,31.159230,13901815556,2.9,[],文化地标|科技体验,上海市,上海市,闵行区
B0H1MAWSAX,Fibre艺术空间,科教文化服务;展览馆;展览馆,140200,胶州路273弄60号104室,121.442304,31.228592,,3.4,[],文化地标|科技体验,上海市,上海市,静安区
B0LKZPEFQT,上海设计周,科教文化服务;展览馆;展览馆,140200,武定路与胶州路交叉口西南100米,121.441979,31.229273,,3.1,[],文化地标|科技体验,上海市,上海市,静安区
B0LDDH473Q,上海长宁区东方收藏艺术馆,科教文化服务;展览馆;展览馆,140200,仙霞路579弄38号305室,121.388700,31.208651,,3.6,[],文化地标|科技体验,上海市,上海市,长宁区
B0LKLP88HM,上海伍司景观设计有限公司,科教文化服务;展览馆;展览馆,140200,丽园路与蒙自路交叉口东40米,121.477775,31.206775,,[],[],文化地标|科技体验,上海市,上海市,黄浦区
B0L267F4FU,外滩111艺术空间,科教文化服务;展览馆;展览馆,140200,九江路111号上投大厦(南京东路地铁站2号口步行380米),121.487845,31.237105,,4.1,[],文化地标|科技体验,上海市,上海市,黄浦区
B0M60GLJ29,ARCHIVISM SHOWROOM,科教文化服务;展览馆;展览馆,140200,胶州路与新闸路交叉口西北80米,121.442814,31.228598,,3.1,[],文化地标|科技体验,上海市,上海市,静安区
B0L2B5K6ZU,东浩兰生上海世博展览馆制证中心缴费处,科教文化服务;展览馆;展览馆,140200,三林镇上海浦东新区博成路850号(东门)上海世博展览馆购物中心,121.490162,31.181521,,[],[],文化地标|科技体验,上海市,上海市,浦东新区
B0M6DX827J,弄堂和弄堂文化摄影艺术展,科教文化服务;展览馆;展览馆,140200,世博大道1368号世博源3区(中华艺术宫地铁站出入口旁),121.492475,31.183925,,[],[],文化地标|科技体验,上海市,上海市,浦东新区
B0KKRLSRX7,亚洲插画年度大赏10周年特展,科教文化服务;展览馆;展览馆,140200,延安西路2299号上海世贸商城,121.402025,31.201975,,1.6,[],文化地标|科技体验,上海市,上海市,长宁区
B0LK7Z2IS5,绿色产业与可持续消费博览会,科教文化服务;展览馆;展览馆,140200,局门路与龙华东路交叉口东南220米,121.486043,31.194352,,2.0,[],文化地标|科技体验,上海市,上海市,黄浦区
B0M6M7VM0F,上海寤园建筑景观设计有限公司,科教文化服务;展览馆;展览馆,140200,中江路与云岭东路交叉口西南140米,121.391925,31.222175,,[],[],文化地标|科技体验,上海市,上海市,普陀区
B0MB4KXQ8J,上海博初建筑景观设计有限公司,科教文化服务;展览馆;展览馆,140200,云岭东路与中江路交叉口西南140米,121.391922,31.222169,,[],[],文化地标|科技体验,上海市,上海市,普陀区
B0MB4KY32V,城方·租住生活展馆,科教文化服务;展览馆;展览馆,140200,耀龙路与德恒路交叉口北80米,121.474693,31.167390,,2.2,[],文化地标|科技体验,上海市,上海市,浦东新区
B0LU6LHHKO,SANTU GALLERY,科教文化服务;展览馆;展览馆,140200,瑞金二路与泰康路交叉口西北80米,121.466550,31.207829,,2.2,[],文化地标|科技体验,上海市,上海市,黄浦区
B0L0PC0TAE,眼镜蛇画廊,科教文化服务;展览馆;展览馆,140200,沙美大楼(南京东路地铁站7号口步行490米),121.486542,31.240807,,3.4,[],文化地标|科技体验|独处品质空间,上海市,上海市,黄浦区
B0L3A1Y4PU,博雅方略旅游景观规划设计院(上海分院),科教文化服务;展览馆;展览馆,140200,中山北路辅路与华夏路交叉口西北160米,121.409362,31.229346,,2.0,[],文化地标|科技体验,上海市,上海市,普陀区
B0MGN9R8IZ,奈美兔KISSPOWER张戈个人艺术展,科教文化服务;展览馆;展览馆,140200,广西北路与汕头路交叉口北40米,121.478697,31.232041,,0.3,[],文化地标|科技体验,上海市,上海市,黄浦区
B0LKVC5N9N,中国物产展,科教文化服务;展览馆;展览馆,140200,玛瑙路与红宝石路交叉口西北120米,121.403043,31.197802,,1.8,[],文化地标|科技体验,上海市,上海市,长宁区
B0L13S6GOE,梵雅堂(鎏金佛像馆)虹桥古玩城,科教文化服务;展览馆;展览馆,140200,金汇路与红松东路交叉口东南180米,121.374927,31.181434,,3.3,[],文化地标|科技体验,上海市,上海市,闵行区
B00155L36V,科学会堂(雁荡路),科教文化服务;会展中心;会展中心,140300,雁荡路84号,121.469303,31.218563,021-53822040,[],[],文化地标|科技体验,上海市,上海市,黄浦区
B0FFGK1HNI,朵云轩艺术中心,科教文化服务;会展中心;会展中心|科教文化服务;美术馆;美术馆,140300|140400,天钥桥路1180号,121.447380,31.174122,021-64681020,4.6,[],文化地标|科技体验|独处品质空间,上海市,上海市,徐汇区
B00155GER6,科学会堂国际会议厅,科教文化服务;会展中心;会展中心,140300,瑞金二路街道南昌路57号(淮海中路地铁站1号口步行370米),121.467308,31.218154,021-53822040,4.5,[],文化地标|科技体验,上海市,上海市,黄浦区
B001515E5C,上海社会科学会堂,科教文化服务;会展中心;会展中心,140300,漕溪北路41号汇嘉大厦4层,121.43951,31.192219,,[],[],文化地标|科技体验,上海市,上海市,徐汇区
B00156NT05,华东师范大学普陀校区科学会堂,科教文化服务;会展中心;会展中心,140300,中山北路3663号华华东师范大学普陀校区,121.406615,31.226774,,[],[],文化地标|科技体验,上海市,上海市,普陀区
B0FFJGOAFY,西岸美术馆,科教文化服务;美术馆;美术馆,140400,龙腾大道2600号,121.463841,31.167682,021-31011015,4.7,[],文化地标|科技体验|独处品质空间,上海市,上海市,徐汇区
B0FFF2YL75,龙美术馆(西岸馆),科教文化服务;美术馆;美术馆,140400,龙腾大道3398号,121.464761,31.183954,021-64227636,4.8,[],文化地标|科技体验|独处品质空间,上海市,上海市,徐汇区
B0FFF9ZXZW,刘海粟美术馆,科教文化服务;美术馆;美术馆,140400,延安西路1609号(延安西路地铁站2号口步行400米),121.419424,31.209504,021-62701018,4.8,[],文化地标|科技体验|独处品质空间,上海市,上海市,长宁区
B0FFH82JEM,上海宝龙美术馆,科教文化服务;美术馆;美术馆,140400,漕宝路3055号,121.357859,31.158382,021-62219111,4.7,[],文化地标|科技体验|独处品质空间,上海市,上海市,闵行区
B00155QH3P,上海外滩美术馆,科教文化服务;美术馆;美术馆,140400,虎丘路20号,121.487612,31.241209,021-33109985;021-63213352,4.6,[],文化地标|科技体验|独处品质空间,上海市,上海市,黄浦区
B00155932C,长宁文化艺术中心,科教文化服务;美术馆;美术馆,140400,仙霞路650号,121.387774,31.205901,021-62612818,4.6,[],文化地标|科技体验|独处品质空间,上海市,上海市,长宁区
B0FFLJMRIQ,梵高星空艺术馆,科教文化服务;美术馆;美术馆,140400,南京东路第一百货c馆8层,121.475289,31.235487,17717865847,4.4,[],文化地标|科技体验|独处品质空间,上海市,上海市,黄浦区
B0KDUD7IDH,罗丹艺术中心,科教文化服务;美术馆;美术馆,140400,上海市上钢新村街道世博大道1929号,121.479032,31.184665,13162558160,4.7,[],文化地标|科技体验,上海市,上海市,浦东新区
B00155LXQP,上海虹桥当代艺术馆,科教文化服务;美术馆;美术馆,140400,仙霞路650号,121.387754,31.205925,021-62618834,4.3,[],文化地标|科技体验|独处品质空间,上海市,上海市,长宁区
B0H0USLCSP,START星美术馆,科教文化服务;美术馆;美术馆,140400,瑞宁路111号,121.470273,31.187793,021-33632872,4.7,[],文化地标|科技体验|独处品质空间,上海市,上海市,徐汇区
B00153E97D,上海市徐汇区艺术馆,科教文化服务;美术馆;美术馆,140400,淮海中路1413号(常熟路地铁站7号口步行330米),121.448216,31.210155,021-64336516;021-64313738,4.4,[],文化地标|科技体验|独处品质空间,上海市,上海市,徐汇区
B00155KHGE,上海中国画院美术馆,科教文化服务;美术馆;美术馆,140400,岳阳路197号,121.452796,31.204502,021-64749977,4.6,[],文化地标|科技体验|独处品质空间,上海市,上海市,徐汇区
B001574S4B,chi K11 art museum美术馆(上海K11购物艺术中心),科教文化服务;美术馆;美术馆,140400,淮海中路300号上海K11购物艺术中心B3层,121.473459,31.223705,021-23103132,4.3,[],文化地标|科技体验|独处品质空间,上海市,上海市,黄浦区
B00157I5HO,上海市闵行区群众艺术馆,科教文化服务;美术馆;美术馆,140400,莘松路350号,121.372165,31.106342,021-60292300;021-64880324,4.5,[],文化地标|科技体验|独处品质空间,上海市,上海市,闵行区
B0FFF092LB,美博艺术中心,科教文化服务;美术馆;美术馆|科教文化服务;培训机构;培训机构,140400|141400,黎明路88号,121.379800,31.129560,13381608928,4.4,[],文化地标|科技体验|独处品质空间,上海市,上海市,闵行区
B0FFJMROU8,外滩18号久事艺术空间,科教文化服务;美术馆;美术馆,140400,中山东一路18号2层,121.489683,31.238393,13611730930,4.4,[],文化地标|科技体验|独处品质空间,上海市,上海市,黄浦区
B0IATZNFYM,上海久事美术馆,科教文化服务;美术馆;美术馆,140400,外滩一号(原亚细亚大楼),121.491265,31.233372,13774471354,4.5,[],文化地标|科技体验|独处品质空间,上海市,上海市,黄浦区
B0FFFTCSPN,上海明圆美术馆,科教文化服务;美术馆;美术馆,140400,复兴中路1199号明园商务中心A座地下一层,121.458872,31.212709,,4.3,[],文化地标|科技体验|独处品质空间,上海市,上海市,徐汇区
B0FFF9ZV3V,敬华艺术空间,科教文化服务;美术馆;美术馆,140400,铜仁路92号(静安寺地铁站6号口步行360米),121.450812,31.224533,021-62716969,4.4,[],文化地标|科技体验|独处品质空间,上海市,上海市,静安区
B0FFLHT2P1,上海市闵行区蔡兵美术馆,科教文化服务;美术馆;美术馆,140400,伟业路881号,121.400620,31.116792,,4.4,[],文化地标|科技体验|独处品质空间,上海市,上海市,闵行区
B0HKDZX2F2,上海春美术馆,科教文化服务;美术馆;美术馆,140400,福州路655号2层(人民广场地铁站15号口步行290米),121.478545,31.232250,,4.6,[],文化地标|科技体验|独处品质空间,上海市,上海市,黄浦区
B0FFHGOWN5,Capsule,科教文化服务;美术馆;美术馆,140400,安福路275弄16号1层,121.441872,31.212759,021-64170700,4.2,[],文化地标|科技体验|独处品质空间,上海市,上海市,徐汇区
B0FFFDILEQ,上海皓古文化艺术馆,科教文化服务;美术馆;美术馆,140400,黄家阙路111号(陆家浜路地铁站1号口步行330米),121.487925,31.214648,,4.2,[],文化地标|科技体验|独处品质空间,上海市,上海市,黄浦区
B0HAP5TTY6,上海杨培明宣传画收藏艺术馆,科教文化服务;美术馆;美术馆,140400,延安西路726号7楼K座,121.433762,31.215361,021-62111845,4.4,[],文化地标|科技体验|独处品质空间,上海市,上海市,长宁区
B0FFI3R6BR,上海苏宁艺术馆,科教文化服务;美术馆;美术馆,140400,丹巴路99号C3座,121.379036,31.222870,021-31013151,4.1,[],文化地标|科技体验|独处品质空间,上海市,上海市,普陀区
B0LAXRZ02B,山也美术馆,科教文化服务;美术馆;美术馆,140400,番禺路222弄上生新所(东南角),121.428287,31.207632,,4.4,[],文化地标|科技体验|独处品质空间,上海市,上海市,长宁区
B0FFKQOPRF,秋海堂艺术馆,科教文化服务;美术馆;美术馆|科教文化服务;培训机构;培训机构,140400|141400,衡山路525号凯文公寓副楼2层,121.443970,31.200601,13585668808,4.3,[],文化地标|科技体验|独处品质空间,上海市,上海市,徐汇区
B0J3DKBGLQ,柒艺术馆,科教文化服务;美术馆;美术馆,140400,江宁路与淮安路交叉口南60米,121.448371,31.238211,,3.6,[],文化地标|科技体验|独处品质空间,上海市,上海市,静安区
B0FFH71HIC,外滩艺术馆,科教文化服务;美术馆;美术馆,140400,汉口路201号(南京东路地铁站3号口步行320米),121.486197,31.235699,,4.4,[],文化地标|科技体验|独处品质空间,上海市,上海市,黄浦区
B0H35748L2,上海长宁华萃当代美术馆,科教文化服务;美术馆;美术馆,140400,长宁路1978号,121.401277,31.218727,021-52726307,4.3,[],文化地标|科技体验|独处品质空间,上海市,上海市,长宁区
B0IGSH3LYI,上海久事艺术沙龙,科教文化服务;美术馆;美术馆|生活服务;美容美发店;美容美发店,140400|071100,北京东路230号1层(南京东路地铁站6号口步行330米),121.486023,31.240734,,4.4,[],文化地标|科技体验|独处品质空间,上海市,上海市,黄浦区
B0FFG3BMJ4,上海博源美术馆(世博源5区),科教文化服务;美术馆;美术馆,140400,世博大道1368号世博源5区B层,121.493528,31.180491,13301638226,4.2,[],文化地标|科技体验|独处品质空间,上海市,上海市,浦东新区
B0KADCTUR8,上海正好美术馆,科教文化服务;美术馆;美术馆,140400,番禺路300弄7号B幢,121.428370,31.204495,13918927754,4.4,[],文化地标|科技体验|独处品质空间,上海市,上海市,长宁区
B0G0KSRN55,艺文轩,科教文化服务;美术馆;美术馆,140400,上海油画雕塑院东南门西南60米,121.400044,31.198434,,[],[],文化地标|科技体验,上海市,上海市,长宁区
B0LGPUN8LZ,沪申美术馆,科教文化服务;美术馆;美术馆,140400,中山东一路3号3楼(近广东路),121.490765,31.234156,021-62493137,4.3,[],文化地标|科技体验|独处品质空间,上海市,上海市,黄浦区
B0KUSC3NYC,曜星艺术馆,科教文化服务;美术馆;美术馆,140400,虹许路482号,121.396512,31.189187,13611713474,4.4,[],文化地标|科技体验|独处品质空间,上海市,上海市,闵行区
B0K2VCA4J2,Gallery OM,科教文化服务;美术馆;美术馆,140400,四川中路33号创业大楼815室(8楼左转到底)(豫园地铁站6号口步行460米),121.489455,31.232992,,3.9,[],文化地标|科技体验|独处品质空间,上海市,上海市,黄浦区
B0FFFY63FU,田子坊美术馆,科教文化服务;美术馆;美术馆,140400,210弄9号站(打浦桥地铁站1号口步行160米),121.469027,31.208676,15915555598,4.2,[],文化地标|科技体验|独处品质空间,上海市,上海市,黄浦区
B00155KN1X,上海虹庙艺术,科教文化服务;美术馆;美术馆,140400,南京东路496号,121.480706,31.236278,,[],[],文化地标|科技体验,上海市,上海市,黄浦区
B0J02SP3J5,DOSE画廊,科教文化服务;美术馆;美术馆,140400,五原路212弄7号底楼花园(常熟路地铁站8号口步行430米),121.445396,31.212973,19121363485,4.1,[],文化地标|科技体验|独处品质空间,上海市,上海市,徐汇区
B0FFG84LAI,翠湖天地生活艺术馆,科教文化服务;美术馆;美术馆,140400,湖滨路150号企业天地5号楼F31层,121.478775,31.221425,,3.8,[],文化地标|科技体验|独处品质空间,上海市,上海市,黄浦区
B0J10ZELMN,九点水美术馆树屋馆,科教文化服务;美术馆;美术馆,140400,桂林路406号华鑫中心F1层,121.416592,31.172965,,4.2,[],文化地标|科技体验|独处品质空间,上海市,上海市,徐汇区
B0JBXURPY1,海派美术馆,科教文化服务;美术馆;美术馆,140400,七浦路607号2楼(曲阜路地铁站5号口步行240米),121.473562,31.243857,021-61701311,4.0,[],文化地标|科技体验|独处品质空间,上海市,上海市,静安区
B0IR5Z0GHV,上海油罐艺术中心美术馆,科教文化服务;美术馆;美术馆,140400,龙腾大道2380号,121.464475,31.164505,,4.2,[],文化地标|科技体验|独处品质空间,上海市,上海市,徐汇区
B0KGDUU827,J7 Art(青云七号美术馆),科教文化服务;美术馆;美术馆,140400,瑞金二路街道茂名南路7号,121.460691,31.222312,19945660025,4.4,[],文化地标|科技体验|独处品质空间,上海市,上海市,黄浦区
B0FFK9TN8C,墨琛画廊,科教文化服务;美术馆;美术馆,140400,新华路430号,121.424170,31.204082,13247760255,4.0,[],文化地标|科技体验|独处品质空间,上海市,上海市,长宁区
B0LKJH1MCU,原野上美术馆·KONG-Art Gallery,科教文化服务;美术馆;美术馆,140400,法华镇路525号二楼,121.425548,31.205145,,3.8,[],文化地标|科技体验|独处品质空间,上海市,上海市,长宁区
B0FFHDC5L8,莫索新艺术,科教文化服务;美术馆;美术馆,140400,七莘路50号乾锦创业园9号楼1008-1009号室,121.379240,31.110529,021-34712332,3.6,[],文化地标|科技体验|独处品质空间,上海市,上海市,闵行区
B0KU2SZ8DG,上海海派书画艺术馆,科教文化服务;美术馆;美术馆,140400,北渔路95号(北新泾地铁站3号口旁),121.372356,31.216472,,3.7,[],文化地标|科技体验|独处品质空间,上海市,上海市,长宁区
B0FFH114GW,折扇艺术馆,科教文化服务;美术馆;美术馆,140400,陕西北路454号,121.453008,31.230491,13611897936,3.8,[],文化地标|科技体验|独处品质空间,上海市,上海市,静安区
B00155IL0O,上海学生美术馆,科教文化服务;美术馆;美术馆,140400,愚园路1136弄4-61号(江苏路地铁站6号口步行500米),121.427155,31.219682,,3.7,[],文化地标|科技体验|独处品质空间,上海市,上海市,长宁区
B00155M0PV,华东师范大学普陀校区美术馆,科教文化服务;美术馆;美术馆,140400,中山北路3663号华东师范大学中山北路校区,121.405989,31.230578,,3.3,[],文化地标|科技体验|独处品质空间,上海市,上海市,普陀区
B0JKSO57G0,金雀华人美术馆,科教文化服务;美术馆;美术馆,140400,龙文路69号1-M2(龙耀路地铁站2号口步行340米),121.463043,31.159800,,3.6,[],文化地标|科技体验|独处品质空间,上海市,上海市,徐汇区
B0L0U1WPD2,ANTENNA-TENNA画廊,科教文化服务;美术馆;美术馆,140400,曲阜路与浙江北路交叉口西南80米,121.475496,31.242546,,3.3,[],文化地标|科技体验|独处品质空间,上海市,上海市,静安区
B0MBM57K3S,宋洋美术馆,科教文化服务;美术馆;美术馆,140400,淮海中路523号TX淮海F2层,121.469311,31.220687,,2.2,[],文化地标|科技体验|独处品质空间,上海市,上海市,黄浦区
B0MG6NH8BS,上海市徐汇区兆明工艺美术品经营部,科教文化服务;美术馆;美术馆,140400,大木桥路与医学院路交叉口西北80米,121.461038,31.201076,,1.7,[],文化地标|科技体验,上海市,上海市,徐汇区
B0FFHUD4BQ,上海油罐艺术中心,科教文化服务;美术馆;美术馆,140400,龙腾大道2380号,121.464321,31.164519,,4.8,[],文化地标|科技体验|独处品质空间,上海市,上海市,徐汇区
B00155LMIA,上海当代艺术馆,科教文化服务;美术馆;美术馆,140400,南京西路231号(人民广场地铁站10号口步行240米),121.472804,31.231407,021-63279900,4.4,[],文化地标|科技体验,上海市,上海市,黄浦区
B0FFFFROYU,西岸艺术中心,科教文化服务;美术馆;美术馆,140400,龙腾大道2555号(近丰谷路),121.461939,31.167719,,4.8,[],文化地标|科技体验|独处品质空间,上海市,上海市,徐汇区
B0KA3ARP4N,上海民生现代美术馆,科教文化服务;美术馆;美术馆,140400,威海路48号5-6层,121.470334,31.228449,021-60256700,4.6,[],文化地标|科技体验|独处品质空间,上海市,上海市,黄浦区
B0JA9MFYWG,西岸艺术中心N馆,科教文化服务;美术馆;美术馆,140400,龙腾大道2763号,121.462019,31.170546,,4.6,[],文化地标|科技体验|独处品质空间,上海市,上海市,徐汇区
B0G1B1AYZK,上海黄浦区东一美术馆,科教文化服务;美术馆;美术馆,140400,中山东一路1号1-3层,121.491257,31.233458,021-63306716,4.4,[],文化地标|科技体验|独处品质空间,上海市,上海市,黄浦区
B0HBBD3UW5,上海静安尤伦斯美术馆(暂停开放),科教文化服务;美术馆;美术馆,140400,西藏北路88号盈凯文创广场2层,121.472034,31.242110,021-66286861,4.6,[],文化地标|科技体验|独处品质空间,上海市,上海市,静安区
B00156EI00,上海油画雕塑院美术馆(暂停开放),科教文化服务;美术馆;美术馆,140400,金珠路111号(红宝石路地铁站2号口步行280米),121.400147,31.198708,021-62708433;021-62759930,4.4,[],文化地标|科技体验|独处品质空间,上海市,上海市,长宁区
B0FFMH4KQS,上海市徐汇区图书馆(徐家汇书院),科教文化服务;图书馆;图书馆,140500,漕溪北路158号(徐家汇地铁站出入口旁),121.437082,31.190430,021-64271320,[],[],文化地标|科技体验,上海市,上海市,徐汇区
B00155KHES,上海图书馆(淮海路馆),科教文化服务;图书馆;图书馆,140500,淮海中路1555号,121.444753,31.207334,021-64455555,[],[],文化地标|科技体验,上海市,上海市,徐汇区
B0FFK08VJI,上海少年儿童图书馆(长风馆),科教文化服务;图书馆;图书馆,140500,光复西路2500号,121.398286,31.220883,021-31063808,[],[],文化地标|科技体验,上海市,上海市,普陀区
B00155Q8KO,闵行区图书馆,科教文化服务;图书馆;图书馆,140500,名都路85号,121.388787,31.105340,021-64604108;021-64605993,[],[],文化地标|科技体验,上海市,上海市,闵行区
B0FFJ2U14Q,上海市黄浦区图书馆,科教文化服务;图书馆;图书馆,140500,福州路655号(人民广场地铁站15号口步行290米),121.478640,31.232282,021-63510176;021-63528877,[],[],文化地标|科技体验,上海市,上海市,黄浦区
B00155G6OZ,长宁区图书馆(天山总馆),科教文化服务;图书馆;图书馆,140500,天山路356号,121.388633,31.214930,021-33538801;021-33538868,4.1,[],文化地标|科技体验,上海市,上海市,长宁区
B00150E486,上海图书馆(徐家汇藏书楼),科教文化服务;图书馆;图书馆,140500,漕溪北路80号(徐家汇地铁站8号口步行70米),121.437753,31.192096,021-64874072;021-64874095,4.3,[],文化地标|科技体验,上海市,上海市,徐汇区
B0FFFHCE4P,塞万提斯图书馆,科教文化服务;图书馆;图书馆,140500,安福路208号,121.443692,31.214166,021-54670098,[],[],文化地标|科技体验,上海市,上海市,徐汇区
B0FFH0HNY0,长宁区少年儿童图书馆(东馆),科教文化服务;图书馆;图书馆,140500,愚园路1188号(江苏路地铁站6号口步行460米),121.426804,31.218996,021-62121696,[],[],文化地标|科技体验,上海市,上海市,长宁区
B0FFGFP11M,上海市静安区图书馆(新闸路馆),科教文化服务;图书馆;图书馆,140500,新闸路1708号,121.445129,31.228935,021-62530932,[],[],文化地标|科技体验,上海市,上海市,静安区
B00155LH6L,徐汇区漕河泾街道图书馆,科教文化服务;图书馆;图书馆,140500,康健路135号,121.425605,31.165499,021-64751197,[],[],文化地标|科技体验,上海市,上海市,徐汇区
B0IRRUGB7S,一见图书馆(滨江馆),科教文化服务;图书馆;图书馆,140500,瑞平路230号B1-005,121.455366,31.181667,,[],[],文化地标|科技体验,上海市,上海市,徐汇区
B00155KLGY,华东师范大学普陀校区图书馆,科教文化服务;图书馆;图书馆,140500,中山北路3663号,121.406582,31.228318,021-62232397;021-62232317,[],[],文化地标|科技体验,上海市,上海市,普陀区
B001559MWE,古美路街道图书馆,科教文化服务;图书馆;图书馆,140500,古美街道平阳路256号古美文化中心,121.405381,31.142372,021-54933850,[],[],文化地标|科技体验,上海市,上海市,闵行区
B001572JF5,浦东新区上钢新村街道图书馆,科教文化服务;图书馆;图书馆,140500,历城路75号,121.492774,31.175815,021-50898692,[],[],文化地标|科技体验,上海市,上海市,浦东新区
B00156NSI9,上海市黄浦区明复图书馆,科教文化服务;图书馆;图书馆,140500,陕西南路235号,121.461927,31.209047,021-64370835,4.3,[],文化地标|科技体验,上海市,上海市,黄浦区
B0FFFTTKJP,长征镇图书馆,科教文化服务;图书馆;图书馆,140500,梅川路1255号,121.382672,31.241514,021-52686809,[],[],文化地标|科技体验,上海市,上海市,普陀区
B00155LWRO,上海交通大学徐汇校区包兆龙图书馆,科教文化服务;图书馆;图书馆,140500,华山路1954号,121.433096,31.199802,021-62933225,[],[],文化地标|科技体验,上海市,上海市,徐汇区
B0JAF5N08C,蒲公英儿童图书馆(上海馆),科教文化服务;图书馆;图书馆,140500,嘉陵路与石龙路交叉口东南120米,121.431366,31.147893,13801640853,[],[],文化地标|科技体验,上海市,上海市,徐汇区
B0FFFP6URM,凌云路街道图书馆,科教文化服务;图书馆;图书馆,140500,梅陇路417号,121.419010,31.138181,,[],[],文化地标|科技体验,上海市,上海市,徐汇区
B00156QCKW,上海市中医文献馆,科教文化服务;图书馆;图书馆|科教文化服务;档案馆;档案馆,140500|140900,瑞金二路156号(近瑞金医院),121.466198,31.209586,021-64371505,[],[],文化地标|科技体验,上海市,上海市,黄浦区
B0K13Y55BM,一见图书馆(虹桥馆),科教文化服务;图书馆;图书馆,140500,仙霞西路88号百联西郊购物中心4层028号,121.370076,31.209045,,[],[],文化地标|科技体验,上海市,上海市,长宁区
B00155MY13,华东理工大学徐汇校区图书馆,科教文化服务;图书馆;图书馆,140500,梅陇路130号华东理工大学内,121.422055,31.142897,021-64253196,[],[],文化地标|科技体验,上海市,上海市,徐汇区
B0G2U967UW,江宁路街道图书馆,科教文化服务;图书馆;图书馆,140500,昌平路710号2层(昌平路地铁站5号口步行140米),121.442398,31.234829,,[],[],文化地标|科技体验,上海市,上海市,静安区
B0J1VD1KW2,北站艺术图书馆,科教文化服务;图书馆;图书馆,140500,西藏北路79号,121.471366,31.241902,,[],[],文化地标|科技体验,上海市,上海市,静安区
B0J35MVY65,徐家汇街道图书馆,科教文化服务;图书馆;图书馆,140500,南丹东路与天钥桥路交叉口东北140米,121.443109,31.190862,,[],[],文化地标|科技体验,上海市,上海市,徐汇区
B0JA9BFQRJ,闵行城市书房(益梅馆),科教文化服务;图书馆;图书馆,140500,益梅路91号5-102室,121.411690,31.133302,,4.0,[],文化地标|科技体验,上海市,上海市,闵行区
B0H099O117,黑石公寓·牧云记书院,科教文化服务;图书馆;图书馆,140500,复兴中路1331号黑石公寓一楼,121.452430,31.211038,,4.7,[],文化地标|科技体验,上海市,上海市,徐汇区
B00155GNST,新华街道图书馆,科教文化服务;图书馆;图书馆,140500,法华镇路453号,121.426913,31.204418,021-52300070;021-62947773,[],[],文化地标|科技体验,上海市,上海市,长宁区
B00156CPLJ,黄浦区半淞园路街道社区图书馆,科教文化服务;图书馆;图书馆,140500,西藏南路1360号二楼,121.486796,31.206934,021-63165937,[],[],文化地标|科技体验,上海市,上海市,黄浦区
B00155M0RI,江苏路街道图书馆,科教文化服务;图书馆;图书馆,140500,安西路45号4层,121.425898,31.219664,021-61253125,[],[],文化地标|科技体验,上海市,上海市,长宁区
B0L2MZYZHC,华东师范大学出版社24小时阅读空间,科教文化服务;图书馆;图书馆,140500,中山北路3663号华东师范大学逸夫楼一层,121.406666,31.226269,,[],[],文化地标|科技体验,上海市,上海市,普陀区
B0FFF2GK4Y,长桥街道图书馆,科教文化服务;图书馆;图书馆,140500,罗香路237号4层(罗秀路地铁站3号口步行460米),121.436710,31.134340,,[],[],文化地标|科技体验,上海市,上海市,徐汇区
B00155KR4W,华东政法大学长宁校区图书馆,科教文化服务;图书馆;图书馆,140500,万航渡路1575号华东政法大学,121.416678,31.225160,021-62071651,[],[],文化地标|科技体验,上海市,上海市,长宁区
B00155LTNQ,北新泾街道图书馆,科教文化服务;图书馆;图书馆,140500,新泾一村144号3楼,121.369109,31.218374,021-52175201,[],[],文化地标|科技体验,上海市,上海市,长宁区
B00156ZIGK,长宁区虹桥街道图书馆,科教文化服务;图书馆;图书馆,140500,虹桥路1115弄19号(宋园路地铁站1号口步行270米),121.410547,31.197599,021-22850783,[],[],文化地标|科技体验,上海市,上海市,长宁区
B001513483,浩清图书馆,科教文化服务;图书馆;图书馆,140500,田林东路588号,121.424829,31.172509,021-64755708,[],[],文化地标|科技体验,上海市,上海市,徐汇区
B0FFFZR64N,斜土路社区图书馆,科教文化服务;图书馆;图书馆,140500,大木桥路461号斜土社区文化活动中心2层,121.463041,31.195629,021-64165687,[],[],文化地标|科技体验,上海市,上海市,徐汇区
B00155M4E3,华阳路街道图书馆,科教文化服务;图书馆;图书馆,140500,安化路500号华阳社区文化中心3楼,121.420041,31.215691,021-62516559,[],[],文化地标|科技体验,上海市,上海市,长宁区
B0K30AUQIG,虹梅街道图书馆,科教文化服务;图书馆;图书馆,140500,全州路81号,121.407525,31.166098,021-34690389,[],[],文化地标|科技体验,上海市,上海市,徐汇区
B0FFFZJPQC,上海师范大学徐汇校区西部新图书馆,科教文化服务;图书馆;图书馆,140500,桂林路400号,121.415061,31.162499,021-64321055,[],[],文化地标|科技体验,上海市,上海市,徐汇区
B0FFKYAYLG,老西门街道社区图书馆,科教文化服务;图书馆;图书馆,140500,中华路990号,121.491019,31.214587,,[],[],文化地标|科技体验,上海市,上海市,黄浦区
B00155KWYZ,上海市中心图书馆长风新村街道服务点,科教文化服务;图书馆;图书馆,140500,枣阳路251弄-100,121.39908,31.234806,021-52669760,[],[],文化地标|科技体验,上海市,上海市,普陀区
B00155LHCT,东华大学延安路校区图书馆,科教文化服务;图书馆;图书馆,140500,延安西路1882号东华大学延安路校区,121.414521,31.204316,021-62373223;021-62373224,[],[],文化地标|科技体验,上海市,上海市,长宁区
B0FFHTMBU6,五里桥街道图书馆,科教文化服务;图书馆;图书馆,140500,龙华东路与富润路交叉口东南40米,121.475975,31.193975,021-63015135,[],[],文化地标|科技体验,上海市,上海市,黄浦区
B0FFK97O4V,闵行城市书房(春江悦馆),科教文化服务;图书馆;图书馆,140500,古美西路750号,121.386946,31.131792,021-54933850,4.2,[],文化地标|科技体验,上海市,上海市,闵行区
B0JDZA93SY,梅陇镇图书馆,科教文化服务;图书馆;图书馆,140500,高兴路108号5层、6层,121.405425,31.113825,,[],[],文化地标|科技体验,上海市,上海市,闵行区
B0FFFVL3QH,明天广场金威万豪酒店-图书馆,科教文化服务;图书馆;图书馆,140500,南京西路399号明天广场金威万豪酒店60层,121.469853,31.230433,,[],[],文化地标|科技体验,上海市,上海市,黄浦区
B00155LV9I,上海交通大学徐汇校区老图书馆,科教文化服务;图书馆;图书馆,140500,华山路1954号上海交通大学徐汇校区,121.435872,31.198923,021-62933281,[],[],文化地标|科技体验,上海市,上海市,徐汇区
B00155KKB0,南京东路街道社区图书馆,科教文化服务;图书馆;图书馆,140500,牯岭路111号,121.471792,31.236136,021-63581297,[],[],文化地标|科技体验,上海市,上海市,黄浦区
B0FFKV10TA,南京西路街道少年儿童图书馆,科教文化服务;图书馆;图书馆,140500,延安中路602号(南京西路地铁站8号口步行430米),121.462689,31.224193,021-63811165,[],[],文化地标|科技体验,上海市,上海市,静安区
B0FFF37AA5,上海交通大学医学院西区图书馆,科教文化服务;图书馆;图书馆,140500,重庆南路280号上海交通大学医学院西区,121.470518,31.211486,,[],[],文化地标|科技体验,上海市,上海市,黄浦区
B001525BC8,沪杏科技图书馆,科教文化服务;图书馆;图书馆,140500,虹桥路2216号(近虹梅路),121.379062,31.192828,021-62629080,[],[],文化地标|科技体验,上海市,上海市,长宁区
B0FFI18RDS,上海应用技术大学图书馆,科教文化服务;图书馆;图书馆,140500,漕宝路120号应用技术学院内(近漕宝路),121.423081,31.166208,021-64941374,[],[],文化地标|科技体验,上海市,上海市,徐汇区
B00156YLDB,复旦大学上海医学院康泉图书馆,科教文化服务;图书馆;图书馆,140500,东安路130号(肇嘉浜路地铁站3号口步行350米),121.449303,31.196010,021-64175173,[],[],文化地标|科技体验,上海市,上海市,徐汇区
B0KAZRKMS2,莘庄图书馆,科教文化服务;图书馆;图书馆,140500,龙茗路128号2层(外环路地铁站北2口步行490米),121.391235,31.124695,,[],[],文化地标|科技体验,上海市,上海市,闵行区
B0FFGIQOPC,上海交通大学徐汇校区图书馆(社科馆),科教文化服务;图书馆;图书馆,140500,华山路1954号上海交通大学新上院109室,121.434314,31.199656,,[],[],文化地标|科技体验,上海市,上海市,徐汇区
B00155LZJ2,石门二路社区图书馆,科教文化服务;图书馆;图书馆,140500,康定东路85号,121.456156,31.237269,021-52135716,[],[],文化地标|科技体验,上海市,上海市,静安区
B00156O2K7,乐乐图书楼,科教文化服务;图书馆;图书馆,140500,陕西南路235号明复图书馆(后面一幢楼),121.461896,31.209251,,[],[],文化地标|科技体验,上海市,上海市,黄浦区
B00156GU29,上海市中心图书馆非物质文化遗产分馆,科教文化服务;图书馆;图书馆,140500,古宜路125号(宜山路地铁站10号口步行320米),121.424736,31.185556,021-54244160,[],[],文化地标|科技体验,上海市,上海市,徐汇区
B0JALPYP9M,滨江文脉园24小时自助图书馆,科教文化服务;图书馆;图书馆,140500,前滩大道与华夏西路辅道交叉口西北240米,121.460104,31.146515,,[],[],文化地标|科技体验,上海市,上海市,浦东新区
B0L2SS5P6M,纯真会客厅,科教文化服务;图书馆;图书馆,140500,恒丰路18号0101室(臻逸恒丰服务式公寓内),121.457875,31.239125,,[],[],文化地标|科技体验,上海市,上海市,静安区
B00156TKVE,上海市徐汇区湖南街道图书馆,科教文化服务;图书馆;图书馆,140500,乌鲁木齐中路164号,121.445039,31.213799,021-64332396,[],[],文化地标|科技体验,上海市,上海市,徐汇区
B0LGHZNXTK,南京西路街道图书馆,科教文化服务;图书馆;图书馆,140500,升平街33号(南京西路地铁站12号口步行300米),121.461346,31.225184,021-63400145,[],[],文化地标|科技体验,上海市,上海市,静安区
B00155G0JA,上海图书馆莘庄书库,科教文化服务;图书馆;图书馆,140500,莘西路402号,121.372624,31.107015,,[],[],文化地标|科技体验,上海市,上海市,闵行区
B0JUMG4XJ0,新页书房非遗主题馆,科教文化服务;图书馆;图书馆,140500,北渔路与天山西路交叉口西南40米,121.372284,31.216757,,3.9,[],文化地标|科技体验|独处品质空间,上海市,上海市,长宁区
B0KA6MGLK4,独角兽图书馆,科教文化服务;图书馆;图书馆,140500,大华清水湾花园西2门旁,121.413158,31.226856,,[],[],文化地标|科技体验,上海市,上海市,普陀区
B0LRGUTOVR,周家桥街道图书馆,科教文化服务;图书馆;图书馆,140500,玉屏南路560弄78号,121.402825,31.215175,,[],[],文化地标|科技体验,上海市,上海市,长宁区
B0K30AUQIH,康健新村街道图书馆,科教文化服务;图书馆;图书馆,140500,浦北路988号三楼,121.413131,31.151902,,[],[],文化地标|科技体验,上海市,上海市,徐汇区
B001507B01,上海图书馆龙吴路书库,科教文化服务;图书馆;图书馆,140500,龙吴路1106号,121.451194,31.145717,,[],[],文化地标|科技体验,上海市,上海市,徐汇区
B0K30AUQIJ,漕河泾街道图书馆石龙分馆,科教文化服务;图书馆;图书馆,140500,龙川北路777号,121.437331,31.151914,,[],[],文化地标|科技体验,上海市,上海市,徐汇区
B00155LXGQ,上海对外经贸大学古北校区图书馆,科教文化服务;图书馆;图书馆,140500,古北路620号上海对外经贸大学古北校区,121.398669,31.207138,021-52067383,[],[],文化地标|科技体验,上海市,上海市,长宁区
B0L3X129LK,徐家汇书院少年儿童馆,科教文化服务;图书馆;图书馆,140500,蒲西路与紫阳路交叉口东南60米(徐家汇地铁站出入口旁),121.437201,31.190521,,[],[],文化地标|科技体验,上海市,上海市,徐汇区
B00157I0YY,新丰社区图书馆,科教文化服务;图书馆;图书馆,140500,外冈镇金沙江路新丰社区金丰新村,121.359151,31.240987,,[],[],文化地标|科技体验,上海市,上海市,嘉定区
B001574Z9K,上海社会科学院-图书馆,科教文化服务;图书馆;图书馆,140500,中山西路1610号,121.422298,31.186051,021-64862266,[],[],文化地标|科技体验,上海市,上海市,徐汇区
B00155E905,上海市工人文化宫图书馆阅览室,科教文化服务;图书馆;图书馆,140500,西藏中路120号上海市工人文化宫4层,121.477673,31.23051,021-63226155,[],[],文化地标|科技体验,上海市,上海市,黄浦区
B0FFFDD5KE,上海交通大学徐汇校区图书馆(储备书库),科教文化服务;图书馆;图书馆,140500,华山路1954号上海交通大学徐汇校区,121.43107,31.198512,,[],[],文化地标|科技体验,上海市,上海市,徐汇区
B00155D62V,上海交通大学七宝校区图书馆,科教文化服务;图书馆;图书馆,140500,七莘路2678号上海交通大学七宝校区内,121.356824,31.148226,,[],[],文化地标|科技体验,上海市,上海市,闵行区
B00155LZ8P,上海戏剧学院图书馆,科教文化服务;图书馆;图书馆,140500,华山路630号上海戏剧学院内(近镇宁路),121.441037,31.217702,021-62482920,[],[],文化地标|科技体验,上海市,上海市,静安区
B00156O1J7,复旦中学图书馆,科教文化服务;图书馆;图书馆,140500,华山路1626号(交通大学地铁站5号口步行210米),121.434157,31.203015,021-62800172,[],[],文化地标|科技体验,上海市,上海市,长宁区
B0FFFZJCK8,上海市中心图书馆徐汇区田林街道服务点,科教文化服务;图书馆;图书馆,140500,田林东路588-2号附近,121.424756,31.172373,,[],[],文化地标|科技体验,上海市,上海市,徐汇区
B0JBXZQ8VX,世博专题图书馆,科教文化服务;图书馆;图书馆,140500,龙华东路418号上海世博会博物馆内,121.481912,31.195357,,[],[],文化地标|科技体验,上海市,上海市,黄浦区
B00157HYEB,上海时尚产业主题图书馆,科教文化服务;图书馆;图书馆,140500,长寿路652号景源时尚产业园上海国际时尚教育中心内F座2层,121.432338,31.238292,021-62771443,[],[],文化地标|科技体验,上海市,上海市,普陀区
B00156OCO8,龙柏西郊幼儿园,科教文化服务;图书馆;图书馆,140500,红松路700弄30号(红松路兰竹路),121.359889,31.179339,021-64494727,0.0,[],文化地标|科技体验,上海市,上海市,闵行区
B00157HY1S,闵行区图书馆城市街区自助图书馆(名都路),科教文化服务;图书馆;图书馆,140500,名都路85附近,121.389189,31.105755,,[],[],文化地标|科技体验,上海市,上海市,闵行区
B0FFGYZ629,上海科技大学岳阳路校区生命科学图书馆,科教文化服务;图书馆;图书馆,140500,上海科技大学岳阳路校区,121.453550,31.202294,,[],[],文化地标|科技体验,上海市,上海市,徐汇区
B0J02AOO82,Push up全都是书双语阅读馆,科教文化服务;图书馆;图书馆,140500,春眺路47、49号,121.471611,31.146593,,[],[],文化地标|科技体验,上海市,上海市,浦东新区
B0IG1RGLC2,龙兆苑阅览室,科教文化服务;图书馆;图书馆,140500,·龙兆苑西北1门东110米(龙漕路地铁站7号口步行370米),121.446994,31.170887,,[],[],文化地标|科技体验,上海市,上海市,徐汇区
B00155I9CK,四明居委图书室,科教文化服务;图书馆;图书馆,140500,愚园路520弄28号,121.438746,31.222176,,[],[],文化地标|科技体验,上海市,上海市,静安区
B0HKVH9ECB,上海师范大学徐汇校区西部老图书馆,科教文化服务;图书馆;图书馆,140500,桂林路100号上海师范大学徐汇校区,121.415175,31.161925,,[],[],文化地标|科技体验,上海市,上海市,徐汇区
B0LBCC9WM3,无尽意图书馆,科教文化服务;图书馆;图书馆,140500,龙华路与后马路交叉口西120米,121.451657,31.174042,,[],[],文化地标|科技体验,上海市,上海市,徐汇区
B0GKGC9V4O,上海音乐学院汾阳校区图书馆,科教文化服务;图书馆;图书馆,140500,汾阳路20号上海音乐学院(汾阳校区),121.454875,31.212975,,[],[],文化地标|科技体验,上海市,上海市,徐汇区
B00155MVK5,狮城居委会廉政文化图书室,科教文化服务;图书馆;图书馆,140500,龙吴路90-94号附近,121.445102,31.170158,,[],[],文化地标|科技体验,上海市,上海市,徐汇区
B0M6967I11,古美图书馆(西馆),科教文化服务;图书馆;图书馆,140500,合川路与顾戴路交叉口北160米,121.391325,31.141775,,[],[],文化地标|科技体验,上海市,上海市,闵行区
B0JRXR4SLD,上海纽约大学图书馆,科教文化服务;图书馆;图书馆,140500,高青西路600号5楼、6楼,121.481846,31.149190,021-20595000,[],[],文化地标|科技体验,上海市,上海市,浦东新区
B0FFG8UA1G,古美高级中学图书馆,科教文化服务;图书馆;图书馆,140500,古美高级中学西南门旁,121.383436,31.149723,,[],[],文化地标|科技体验,上海市,上海市,闵行区
B001543697,上海少年儿童图书馆(南西馆),科教文化服务;图书馆;图书馆,140500,南京西路962号(南京西路地铁站1号口步行50米),121.457973,31.229835,,[],[],文化地标|科技体验,上海市,上海市,静安区
B00155HM1Y,虹桥文化中心图书馆,科教文化服务;图书馆;图书馆,140500,万源路2800虹桥文化中心2层,121.386609,31.174039,,[],[],文化地标|科技体验,上海市,上海市,闵行区
B0L0D6LGZE,ASE艺术图书馆,科教文化服务;图书馆;图书馆,140500,茂名南路与复兴中路交叉口东南100米,121.463125,31.213425,,[],[],文化地标|科技体验,上海市,上海市,黄浦区
B0J1VY7JTO,华东师范大学普陀校区老图书馆,科教文化服务;图书馆;图书馆,140500,中山北路3663号华东师范大学普陀校区,121.405929,31.228919,,[],[],文化地标|科技体验,上海市,上海市,普陀区
B0M6VHJ1LH,曹家渡街道图书馆,科教文化服务;图书馆;图书馆,140500,曹家渡街道万航渡路676弄46号,121.431726,31.226204,,[],[],文化地标|科技体验,上海市,上海市,静安区
B00155KH6B,江宁路街道众乐里里弄图书室,科教文化服务;图书馆;图书馆,140500,陕西北路653弄2-10号众乐新村,121.450655,31.233289,,[],[],文化地标|科技体验,上海市,上海市,静安区
B0FFGY68DX,上海图书馆站3号口寄存点,科教文化服务;图书馆;图书馆|生活服务;生活服务场所;生活服务场所,140500|070000,淮海中路与湖南路交叉口西40米,121.442975,31.207375,,[],[],文化地标|科技体验,上海市,上海市,徐汇区
B0M65DJ31I,虹桥镇图书馆,科教文化服务;图书馆;图书馆,140500,白樟路与吴中路交叉口南100米,121.369367,31.170500,,[],[],文化地标|科技体验,上海市,上海市,闵行区
B0L3O10A8Y,莫胖图书馆,科教文化服务;图书馆;图书馆,140500,红松东路与虹中路交叉口西南40米,121.381625,31.183225,,[],[],文化地标|科技体验,上海市,上海市,闵行区
B0L2MZYK8E,上海儿童博物馆“草婴书屋”,科教文化服务;图书馆;图书馆,140500,宋园路61号2楼,121.412939,31.193776,,[],[],文化地标|科技体验,上海市,上海市,长宁区
B0015777XL,复旦大学附属眼耳鼻喉科医院图书馆,科教文化服务;图书馆;图书馆,140500,汾阳路83号,121.453650,31.208567,,[],[],文化地标|科技体验,上海市,上海市,徐汇区
B0FFLEOT02,上海工程技术大学长宁校区图书馆,科教文化服务;图书馆;图书馆,140500,仙霞新村街道仙霞路350号上海工程技术大学长宁校区,121.397771,31.205253,,[],[],文化地标|科技体验,上海市,上海市,长宁区
B0L3HLB2I9,上海图书馆上海科学技术情报研究所教育培训中心,科教文化服务;图书馆;图书馆,140500,淮海中路1411-1413号,121.448075,31.210055,,[],[],文化地标|科技体验,上海市,上海市,徐汇区
B0K3USM6Q8,WAD豪宅物料图书馆(装修中),科教文化服务;图书馆;图书馆,140500,真北路1208号红星美凯龙全球1号店南馆6楼H8153-1,121.385575,31.237675,,2.9,[],文化地标|科技体验,上海市,上海市,普陀区
B00157I4ZK,上海市黄浦区盲人图书馆,科教文化服务;图书馆;图书馆,140500,瞿溪路1111弄26号,121.478488,31.205207,021-63019105,[],[],文化地标|科技体验,上海市,上海市,黄浦区
B0J677SKQD,华东政法大学长宁校区红楼图书馆,科教文化服务;图书馆;图书馆,140500,万航渡路1575号华东政法大学(长宁校区),121.417333,31.224709,,[],[],文化地标|科技体验,上海市,上海市,长宁区
B0L2SS60I2,淞畔璟阅,科教文化服务;图书馆;图书馆,140500,西藏南路1699弄城方黄浦璟湾社区3-2栋一楼,121.491118,31.200561,,[],[],文化地标|科技体验,上海市,上海市,黄浦区
B0L2MAYJWR,里滩书房,科教文化服务;图书馆;图书馆,140500,中山南一路727号,121.479166,31.198295,,3.5,[],文化地标|科技体验|独处品质空间,上海市,上海市,黄浦区
B00155LAY5,美国高等教育资源图书馆,科教文化服务;图书馆;图书馆,140500,安福路201号,121.443320,31.213774,,[],[],文化地标|科技体验,上海市,上海市,徐汇区
B0L2MAZEH0,果育里·一书一房,科教文化服务;图书馆;图书馆,140500,昼锦路222号,121.490395,31.223822,,[],[],文化地标|科技体验,上海市,上海市,黄浦区
B0L2MAY05C,萤火虫书屋,科教文化服务;图书馆;图书馆,140500,中山南一路468号甲三楼,121.484313,31.199278,,3.7,[],文化地标|科技体验|独处品质空间,上海市,上海市,黄浦区
B0L2MZYK8H,辅德里FUN书房,科教文化服务;图书馆;图书馆,140500,大沽路379号辅德里公园内,121.466674,31.224804,,3.2,[],文化地标|科技体验|独处品质空间,上海市,上海市,静安区
B0L2MZYZH9,“书香·悦”书屋,科教文化服务;图书馆;图书馆,140500,万航渡路676弄46号二层,121.431664,31.226190,,3.5,[],文化地标|科技体验|独处品质空间,上海市,上海市,静安区
B0L2MZYK8L,“征新”丽人书屋,科教文化服务;图书馆;图书馆,140500,中江路875号二楼,121.391762,31.234918,,3.3,[],文化地标|科技体验|独处品质空间,上海市,上海市,普陀区
B0L2MZYK8K,长乐书房,科教文化服务;图书馆;图书馆,140500,宜昌路555号三楼,121.434166,31.244477,,3.3,[],文化地标|科技体验|独处品质空间,上海市,上海市,普陀区
B0L2MZZESF,华东师范大学·纯真童心书屋,科教文化服务;图书馆;图书馆,140500,中山北路3663号华东师范大学田家炳楼914室,121.406619,31.230809,,3.0,[],文化地标|科技体验|独处品质空间,上海市,上海市,普陀区
B0L2MAY05B,艺启淡水+,科教文化服务;图书馆;图书馆,140500,淡水路244号,121.473151,31.216959,,3.0,[],文化地标|科技体验,上海市,上海市,黄浦区
B0MBT4AC9M,龙柏西郊公寓-图书室,科教文化服务;图书馆;图书馆,140500,红松路与兰竹路交叉口西北60米,121.360486,31.179598,,[],[],文化地标|科技体验,上海市,上海市,闵行区
B00156EH5K,上海市普陀区科技馆,科教文化服务;科技馆;科技馆,140600,曹杨路500号(近白玉路)(曹杨路地铁站2号口步行130米),121.418735,31.237658,,4.4,[],文化地标|科技体验,上海市,上海市,普陀区
B00155GIQG,上海青少年科技探索馆,科教文化服务;科技馆;科技馆,140600,建国西路137号,121.463326,31.206713,021-54656808,4.2,[],文化地标|科技体验,上海市,上海市,黄浦区
B0FFGFASKL,闵行体育公园多肉植物科普园,科教文化服务;科技馆;科技馆,140600,七宝镇农南路55号(闵行体育公园3号门),121.370355,31.148405,,4.1,[],文化地标|科技体验,上海市,上海市,闵行区
B0H6P6KB7O,棒棒贝贝科技活动中心(大木桥分部),科教文化服务;科技馆;科技馆,140600,斜土路之俊大厦一层106室(嘉善路地铁站4号口步行260米),121.461455,31.199283,18601659056,[],[],文化地标|科技体验,上海市,上海市,徐汇区
B0HDO576YB,旗袍创新与传承文化中心,科教文化服务;文化宫;文化宫,140800,胶州路941号702A(长寿路地铁站6号口步行360米),121.436707,31.237557,,[],[],文化地标|科技体验,上海市,上海市,普陀区
B0K2FUCY3K,唐朝诡事录西行国潮沉浸剧场,体育休闲服务;体育休闲服务场所;体育休闲服务场所,080000,豫园街道旧校场路125号豫园商城6号门出入口直梯上3层,121.491119,31.225762,,4.6,99.00,文化地标|科技体验,上海市,上海市,黄浦区
B0LRJLHXQF,楼兰誓·MR沉浸式魂类团战游戏剧场VisionProVR,风景名胜;风景名胜相关;旅游景点,110000,南京西路1699号6幢半地下层a-4,121.446275,31.222575,17501647763,4.4,137.00,文化地标|科技体验,上海市,上海市,静安区
B00157HXSQ,钱学森旧居,风景名胜;风景名胜;纪念馆,110204,愚园路1032弄岐山村111号(江苏路地铁站),121.429215,31.220050,,4.2,[],风景名胜|科技体验,上海市,上海市,长宁区
B0KRCCCYHM,国医仲景全智能艾灸体验馆,医疗保健服务;诊所;诊所,090300,泉口路12一1号底层,121.376237,31.210578,13966863901,4.0,[],医疗保健|科技体验,上海市,上海市,长宁区
B0LUL7AXNI,GOAT攀岩俱乐部(徐家汇TPY中心店),体育休闲服务;运动场馆;运动场所,080100,肇嘉浜路1117号TPY中心八楼,121.439165,31.193015,021-34197883;13370261020,4.6,127.00,体育休闲|科技体验,上海市,上海市,徐汇区
B0L2A51MZB,乐刻运动健身(西岸凤巢AI PLAZA店),体育休闲服务;运动场馆;健身中心,080111,云锦路683号西岸凤巢AI PLAZA B1层麦当劳斜对面,121.460889,31.163627,19901699185,4.4,1046.00,体育休闲|科技体验,上海市,上海市,徐汇区
B0KRK59SL1,GOLFZON PARK七字头高尔夫(西岸传媒港花园里店),体育休闲服务;高尔夫相关;高尔夫球场,080201,龙爱路58号B1层K区14号,121.463085,31.160661,13166325118,4.3,[],体育休闲|科技体验,上海市,上海市,徐汇区
B0J6YU7L1D,机遇时空X-META·全感VR乐园·风起洛阳·苍兰诀,体育休闲服务;娱乐场所;娱乐场所,080300,南京西路389号明天广场裙楼·机遇星球3F,121.469688,31.230459,18616922099,4.4,162.00,体育休闲|科技体验,上海市,上海市,黄浦区
B0JKF50IXP,奈尔宝儿童科技馆(上海馆),体育休闲服务;休闲场所;游乐场,080501,西岸凤巢(龙耀路地铁站1号口步行210米)西岸凤巢AI PLAZA北区1楼,121.460739,31.164297,4008169988,4.7,430.00,体育休闲|科技体验,上海市,上海市,徐汇区
B0LDYL1MYQ,全职高手主题店-异世之旅VR展,体育休闲服务;休闲场所;休闲场所,080500,南京东路789号上海世茂广场L219,121.476249,31.234610,,4.1,110.00,体育休闲|科技体验,上海市,上海市,黄浦区
B0JUFRUS0M,FUGU HOUSE线下体验店,体育休闲服务;休闲场所;露营地,080504,苏河湾万象天地,121.477331,31.241924,,3.8,[],体育休闲|科技体验,上海市,上海市,静安区
B0FFG38RAH,上海科技影城(科学会堂思南楼店),体育休闲服务;影剧院;电影院,080601,南昌路59号科学会堂思南楼2-3层,121.466595,31.218047,,4.7,43.00,体育休闲|科技体验,上海市,上海市,黄浦区
B0FFKW05R7,LUMINA星扬西岸中心,商务住宅;楼宇;商住两用楼宇,120203,龙耀路175号(龙耀路地铁站1号口步行340米),121.461225,31.161591,,[],[],金融住宿政府|商务产业|科技体验,上海市,上海市,徐汇区
B0FFH16CFV,人体科学馆,科教文化服务;科教文化场所;科教文化场所,140000,枫林路街道枫林路街道枫林路街道枫林路街道东安路131号复旦大学上海医学院东区东9号楼4楼,121.452531,31.197439,021-64178210,4.5,[],科技体验,上海市,上海市,徐汇区
B0GKGL9C02,静安区儿童科探馆,科教文化服务;培训机构;培训机构,141400,胶州教师公寓西南门西50米(昌平路地铁站5号口步行330米),121.439279,31.235560,,4.3,[],科技体验,上海市,上海市,静安区
B0LRYUW8GX,上海活体昆虫科普馆,科教文化服务;科教文化场所;科教文化场所,140000,上南路168号百联世博源四区L2层201室,121.493104,31.182095,,4.2,[],科技体验,上海市,上海市,浦东新区
B0KDTU8FO7,诺篮流动科技馆(百联南方购物中心店),风景名胜;风景名胜相关;旅游景点,110000,百联南方购物中心1区2楼chic hub,121.400495,31.131650,,3.5,[],科技体验,上海市,上海市,闵行区
B0FFKMIAXH,微软(中国)上海科技馆,科教文化服务;科教文化场所;科教文化场所,140000,虹漕路41号华鑫慧享城F1层,121.409437,31.171874,,4.1,[],科技体验,上海市,上海市,徐汇区
B0LRCHF7PQ,飞越中国·沉浸式科技馆(上海来福士广场店),体育休闲服务;娱乐场所;娱乐场所,080300,人民广场街道西藏中路南京路步行街268号来福士广场5层05L-07M室(眉州东坡隔壁),121.476425,31.232393,15383472989,4.2,[],科技体验,上海市,上海市,黄浦区
B0JB31BSB8,元宇宙艺术科技中心,科教文化服务;培训机构;培训机构,141400,虹井路与先锋街交叉口南100米,121.370610,31.175093,,3.6,[],科技体验,上海市,上海市,闵行区
B0KUBLS8PB,瑞奕科技馆,风景名胜;风景名胜相关;旅游景点,110000,南京西路与江宁路交叉口西60米,121.455840,31.227970,,2.4,[],科技体验,上海市,上海市,静安区
B0L1ZCNNQU,科创中心,商务住宅;楼宇;商务写字楼,120201,陕西南路与肇嘉浜路交叉口北120米,121.462375,31.204425,,[],[],科技体验,上海市,上海市,黄浦区
B001549D43,上海市科技创业中心,商务住宅;楼宇;商务写字楼,120201,钦州路100号,121.430675,31.160676,021-64839009,[],[],科技体验,上海市,上海市,徐汇区
B0LD19LDCC,科创中心,商务住宅;楼宇;商务写字楼,120201,南丹东路与漕溪北路交叉口东80米,121.438299,31.189260,,[],[],科技体验,上海市,上海市,徐汇区
B0I09HKWV7,上海市科技创业中心,商务住宅;产业园区;产业园区,120100,北京东路与福建中路交叉口西60米,121.478423,31.239333,,[],[],科技体验,上海市,上海市,黄浦区
B0M6ORN6JS,上海-黄石离岸科创中心,商务住宅;产业园区;产业园区,120100,黄石路1号,121.450753,31.157063,,[],[],科技体验,上海市,上海市,徐汇区
B0FFJNA9PX,百联科创中心,公司企业;公司;公司,170200,光复路1号(曲阜路地铁站2号口步行240米),121.471483,31.240343,,[],[],科技体验,上海市,上海市,静安区
B0FFH7457J,上海市黄浦区科技创业中心(制造局路),商务住宅;产业园区;产业园区,120100,制造局路787号(西藏南路地铁站4号口步行470米),121.486291,31.199470,,[],[],科技体验,上海市,上海市,黄浦区
B0FFG4HCW6,上海市黄浦区科技创业中心(思南路),商务住宅;产业园区;产业园区,120100,思南路84号(打浦桥地铁站1号口步行440米),121.470427,31.209667,,[],[],科技体验,上海市,上海市,黄浦区
B0LR0OPR2X,浩田科创中心,商务住宅;产业园区;产业园区,120100,同普路与千阳路交叉口西北140米,121.368425,31.233225,,[],[],科技体验,上海市,上海市,普陀区
B0FFL26CJX,上海静安江宁科创园,商务住宅;产业园区;产业园区,120100,淮安路838号,121.449061,31.238977,,[],[],科技体验,上海市,上海市,静安区
B0HGD781AC,上海市科技创业中心停车场,交通设施服务;停车场;公共停车场,150904,浦北路上海市科技创业中心,121.430574,31.160627,021-64839009,[],[],科技体验,上海市,上海市,徐汇区
B0FFH95ZN7,上海市黄浦区科技创业中心(国信商务大厦南),商务住宅;产业园区;产业园区,120100,思南路105号(打浦桥地铁站1号口步行420米),121.470467,31.209594,,[],[],科技体验,上海市,上海市,黄浦区
B0FFIY32P6,朗盛科创中心,公司企业;公司;公司,170200,宜山路700号C3楼(桂林路地铁站5号口步行260米),121.418336,31.176729,021-52379028,[],[],科技体验,上海市,上海市,徐汇区
B0FFGY7XNX,上海人脉精英科创中心,医疗保健服务;医疗保健服务场所;医疗保健服务场所,090000,曹家渡街道昌平路868号(昌平路地铁站5号口步行140米),121.440466,31.234132,021-56944228,[],[],科技体验,上海市,上海市,静安区
B0HBLSA0UJ,星中科创园,商务住宅;产业园区;产业园区,120100,漕宝路1625号,121.374006,31.159304,,[],[],科技体验,上海市,上海市,闵行区
B00155L4KA,绿地科创大厦,商务住宅;楼宇;商住两用楼宇,120203,宁夏路201号(曹杨路地铁站2号口步行330米),121.420327,31.234611,,[],26140.00,科技体验,上海市,上海市,普陀区
B00155L3TD,创业中心大厦(桂平路),商务住宅;楼宇;商务写字楼,120201,桂平路680号,121.402953,31.173610,,[],[],科技体验,上海市,上海市,徐汇区
B00155IVYW,上海漕河泾新兴技术开发区科技创业中心,商务住宅;产业园区;产业园区,120100,,121.402839,31.173745,,[],[],科技体验,上海市,上海市,徐汇区
B0FFLCKXN1,东华大学延安路校区上海国际时尚科创中心,科教文化服务;科研机构;科研机构,141300,新华路832号,121.412863,31.204966,,[],[],科技体验,上海市,上海市,长宁区
B0H025JXMH,伽牛教育STEM科创中心(普陀区长寿路校区),科教文化服务;培训机构;培训机构,141400,长寿路393号亚新生活广场3楼(长寿路地铁站7号口旁),121.437458,31.239479,16601941556,4.7,[],科技体验,上海市,上海市,普陀区
B0IBBNLOLL,诺篮伽牛STEM科创中心(徐家汇校区),商务住宅;楼宇;商务写字楼,120201,飞洲国际大厦25C(上海体育馆地铁站1号口步行120米),121.437790,31.183294,,[],[],科技体验,上海市,上海市,徐汇区
B0FFGEV6Y8,上海智能制造科技创业中心,商务住宅;产业园区;产业园区,120100,漕宝路103号3号楼,121.425791,31.167963,,[],[],科技体验,上海市,上海市,徐汇区
B00156O8LA,漕河泾新兴技术开发区科技创业中心(桂平路),商务住宅;产业园区;产业园区,120100,桂平路418漕河泾国际孵化中心B区,121.405364,31.164308,,[],[],科技体验,上海市,上海市,徐汇区
B0J0CHE715,上海校友科创中心慧客厅,科教文化服务;科教文化场所;科教文化场所,140000,凯旋路1295号3楼,121.419263,31.202650,,[],[],科技体验,上海市,上海市,长宁区
B0HGD77THS,上海市科技创业中心地面停车场(出入口),交通设施服务;停车场;停车场出入口,150909,科技创业中心停车场,121.430154,31.161107,,[],[],科技体验,上海市,上海市,徐汇区
B0JKR51YE9,福瑞达达生物股份上海科创中心,公司企业;公司;公司,170200,沪闵路9333号徐汇万科中心H座10楼,121.432920,31.159787,,[],[],科技体验,上海市,上海市,徐汇区
B0J3MSZJN4,曹山科创园,商务住宅;产业园区;产业园区,120100,报春路505号,121.386786,31.123368,,[],[],科技体验,上海市,上海市,闵行区
B0L2O5VZFM,科创大厦,商务住宅;楼宇;商务写字楼,120201,吴中路与合川路交叉口东140米,121.382175,31.175425,,[],[],科技体验,上海市,上海市,闵行区
B0H6Y66PHN,科创产业研究中心,科教文化服务;科研机构;科研机构,141300,番禺路953-1号,121.428461,31.195297,,[],[],科技体验,上海市,上海市,徐汇区
B00156EOR0,武宁科创大厦,商务住宅;楼宇;商务写字楼,120201,曹杨路868号(枫桥路地铁站2号口步行70米),121.412213,31.241786,,[],[],科技体验,上海市,上海市,普陀区
B0H2H1KHF0,上海科创基金,金融保险服务;金融保险服务机构;金融保险机构,160000,湖滨路168号无限极大厦23楼2301,121.477800,31.220745,,[],[],科技体验,上海市,上海市,黄浦区
B0JDUPGRIT,黄浦科创集团,公司企业;公司;公司,170200,浙江中路398春申江大厦F1层,121.478198,31.236107,,[],[],科技体验,上海市,上海市,黄浦区
B00156TIWG,上海慧谷高科技创业中心停车场,交通设施服务;停车场;公共停车场,150904,乐山路33号上海慧谷高科技创业中心,121.431984,31.193229,,[],[],科技体验,上海市,上海市,徐汇区
B0LA5CU29P,慈溪(上海)科创飞地,公司企业;公司企业;公司企业,170000,漕河泾街道沪闵路9233号707,121.431780,31.158502,,[],[],科技体验,上海市,上海市,徐汇区
B0HGD781AB,上海市科技创业中心地下停车场,交通设施服务;停车场;公共停车场,150904,钦州南路与钦州路交叉口西南80米,121.430392,31.160860,,[],[],科技体验,上海市,上海市,徐汇区
B0L32U3W54,工业软件科创园,商务住宅;产业园区;产业园区,120100,皋兰路18号,121.465746,31.217201,,[],[],科技体验,上海市,上海市,黄浦区
B0MBFD52K4,云志汇·光启科创中心,商务住宅;商务住宅相关;商务住宅相关,120000,三角东街与零陵路交叉口西北20米,121.438907,31.183398,,[],[],科技体验,上海市,上海市,徐汇区
B0L19CHFY5,985科创协同中心,商务住宅;产业园区;产业园区,120100,虹梅路1801号A区凯科国际大厦22楼,121.397846,31.168515,,[],[],科技体验,上海市,上海市,徐汇区
B0L24BMLPS,复旦科创,商务住宅;产业园区;产业园区,120100,龙爱路与云视路交叉口北60米,121.461225,31.161575,,[],[],科技体验,上海市,上海市,徐汇区
B0J1RHM0GJ,小鲁班科创中心(明泉财富广场店),科教文化服务;科教文化场所;科教文化场所,140000,七莘路1839号明泉财富108广场南楼10楼1005室,121.362159,31.134769,13661438815,[],[],科技体验,上海市,上海市,闵行区
B0FFM4VUEA,绿地科创大厦C座,商务住宅;楼宇;商务写字楼,120201,曹杨路与沙洪浜路交叉口西40米,121.420398,31.234843,,[],[],科技体验,上海市,上海市,普陀区
B0HGD781AD,上海市科技创业中心停车场(出入口),交通设施服务;停车场;停车场出入口,150909,钦州路与浦北路交叉口西北60米,121.431127,31.160787,,[],[],科技体验,上海市,上海市,徐汇区
B0FFLFBD1W,上海清华国际创新中心,商务住宅;产业园区;产业园区,120100,上海普陀区长风科创谷A栋401,121.384642,31.228201,,[],[],科技体验,上海市,上海市,普陀区
B0FFM4NMF5,绿地科创大厦D座,商务住宅;楼宇;商务写字楼,120201,宁夏路201号(曹杨路地铁站2号口步行410米),121.420031,31.234509,,[],[],科技体验,上海市,上海市,普陀区
B0JRJ5HNRY,尧谷科创基地,商务住宅;产业园区;产业园区,120100,真光路505号院,121.373164,31.231321,,[],[],科技体验,上海市,上海市,普陀区
B0L1RHB738,上海国投科创大厦,商务住宅;楼宇;商务写字楼,120201,铜仁路269号(静安寺地铁站6号口步行490米),121.449376,31.226985,,[],[],科技体验,上海市,上海市,静安区
B0L2JZ5JSU,聪翰智创青少年科创孵化中心,商务住宅;产业园区;产业园区,120100,桂平路680号33幢403,121.402794,31.173674,18221111502,[],[],科技体验,上海市,上海市,徐汇区
B0I0MC46RY,上海北郊未来产业园科创会客厅,商务住宅;产业园区;产业园区,120100,北京西路1号(人民广场地铁站19号口步行370米),121.473235,31.237339,,[],[],科技体验,上海市,上海市,黄浦区
B0HA5ZNPF2,枫林科创园C1楼,商务住宅;楼宇;商务写字楼,120201,宜山路700号(桂林路地铁站5号口步行70米),121.418409,31.175341,,[],[],科技体验,上海市,上海市,徐汇区
B0GKKUY1I8,虹桥智谷科创园区,商务住宅;住宅区;住宅区,120300,长宁路1033号联通大厦9-10楼(中山公园地铁站7号口旁),121.417233,31.217680,021-60250953,[],[],科技体验,上海市,上海市,长宁区
B0G3RODBUM,伽牛教育STEM科创中心(闵行莲花路校区),生活服务;生活服务场所;生活服务场所,070000,古方路18号南方休闲广场商务大厦3层301,121.402184,31.132466,,4.4,[],科技体验,上海市,上海市,闵行区
B0L32R4SG9,空点教育科技(上海)有限公司,公司企业;公司;公司,170200,钦州路100号上海市科技创业中心,121.430781,31.160432,,[],[],科技体验,上海市,上海市,徐汇区
B0FFGB626K,墨阁科创空间,商务住宅;楼宇;商务写字楼,120201,石龙路951号,121.431123,31.148281,13386197396,[],[],科技体验,上海市,上海市,徐汇区
B0J0PCA4IP,上海市青少年科创体验中心项目,公司企业;公司企业;公司企业,170000,龙腾大道1529号临,121.454968,31.147693,,4.4,[],科技体验,上海市,上海市,徐汇区
B0HGD78GHN,上海市科技创业中心地下停车场(入口),交通设施服务;停车场;停车场入口,150907,钦州南路与钦州路交叉口西南80米,121.430253,31.160983,,[],[],科技体验,上海市,上海市,徐汇区
B0FFGVZ6OY,上海研发公共服务平台管理中心,生活服务;生活服务场所;生活服务场所,070000,钦州路100号上海市科技创业中心F12层,121.430771,31.160814,,3.5,[],科技体验,上海市,上海市,徐汇区
B0H6SAYZ51,绿地科创大厦地下停车场,交通设施服务;停车场;公共停车场,150904,宁夏路201号绿地科创大厦(曹杨路地铁站2号口步行400米),121.420193,31.234446,,[],[],科技体验,上海市,上海市,普陀区
B0JA1HMN69,森孚机器人编程科创中心(闵行中庚中心),科教文化服务;培训机构;培训机构,141400,中庚漫游城商业街L316-318,121.397202,31.131971,13262252172,4.0,[],科技体验,上海市,上海市,闵行区
B0J6BHQUFS,星中科创园招商服务中心,生活服务;生活服务场所;生活服务场所,070000,漕宝路1625号16号楼2层,121.374461,31.159821,,3.8,[],科技体验,上海市,上海市,闵行区
B0LR37FHT5,AISMARTLAND青少年科创体验中心,科教文化服务;培训机构;培训机构,141400,翠溪路与芋秋路交叉口西40米,121.470294,31.148032,,3.5,[],科技体验,上海市,上海市,浦东新区
B00155IAMM,伟东都市工业科创园,商务住宅;产业园区;产业园区,120100,凯旋路1415-1416号(虹桥路地铁站1号口步行250米),121.419980,31.200075,,[],[],科技体验,上海市,上海市,长宁区
B0LBL7PJT5,上海清源日新数字科技有限公司,公司企业;公司;公司,170200,钦州路100号上海市科技创业中心,121.430781,31.160432,,[],[],科技体验,上海市,上海市,徐汇区
B0HADUE42V,枫林国际·科创园,商务住宅;产业园区;产业园区,120100,宜山路700号(桂林路地铁站5号口步行90米),121.417425,31.176457,,[],[],科技体验,上海市,上海市,徐汇区
B0K2276S1Z,GoHack青少年科创编程俱乐部,科教文化服务;科教文化场所;科教文化场所,140000,桂林西街64号,121.417259,31.153485,17316462681,4.4,[],科技体验,上海市,上海市,徐汇区
B00155L1NW,上海研发公共服务平台管理中心,科教文化服务;科研机构;科研机构,141300,钦州路100号上海市科技创业中心2号楼4层,121.430739,31.160817,,[],[],科技体验,上海市,上海市,徐汇区
B0HGSH42FU,创业中心大厦停车场,交通设施服务;停车场;公共停车场,150904,桂平路泰科电子上海科技园南区,121.402916,31.173042,,[],[],科技体验,上海市,上海市,徐汇区
B0G2HCQQ0G,民防工程(城开高科技创业中心),公共设施;紧急避难场所;紧急避难场所,200400,广元西路386号B1,121.431122,31.193516,,[],[],科技体验,上海市,上海市,徐汇区
B0G3OCAHJS,越而美健康管理中心(昌平路店),生活服务;美容美发店;美容美发店,071100,昌平路868号上海人脉科创中心2层218X,121.440320,31.234099,021-62109520,4.1,267.00,科技体验,上海市,上海市,静安区
B0FFHUJ895,乐波创客空间,生活服务;中介机构;中介机构,071600,石龙路95弄28号,121.446348,31.155812,18621033387,4.3,[],科技体验,上海市,上海市,徐汇区
B0IGHSDQ9X,爱琴海创客空间公寓1,商务住宅;商务住宅相关;商务住宅相关,120000,虹井路120弄1号A-C栋,121.373463,31.175862,,[],[],科技体验,上海市,上海市,闵行区
B0HDXCAKGG,莘利(上海)创客空间管理有限公司,公司企业;公司;公司,170200,园文路28号世宏金源中心2101室,121.366966,31.125138,,3.9,[],科技体验,上海市,上海市,闵行区
B0J1NUGVCS,Rocket Brain创客空间(长宁校区),科教文化服务;科教文化场所;科教文化场所,140000,虹桥街道古北路黄金城道688弄御翠豪庭7号会所B1,121.399724,31.196486,17612187887,[],[],科技体验,上海市,上海市,长宁区
B0LB1SV7WO,Z·Pilot AI黑科技体验空间,购物服务;购物相关场所;购物相关场所,060000,上海市徐汇区龙台路199号Z·PilotAI黑科技体验空间,121.460648,31.158469,,4.4,[],科技体验,上海市,上海市,徐汇区
B0L6MSPC6A,上海唐硕信息科技有限公司,公司企业;公司;公司,170200,南京西路699号1606-1608室,121.463425,31.230225,021-60746536,[],[],科技体验,上海市,上海市,静安区
B0L0BUUKHD,慧科技&简一五恒系统体验中心,购物服务;家电电子卖场;数码电子,060306,宜山路320号c108号(宜山路地铁站5号口步行360米),121.429014,31.188333,,2.8,[],科技体验,上海市,上海市,徐汇区
B0KU5ZCEUP,SWES眠花糖睡眠科技体验中心(红星欧丽全球家居店),购物服务;购物相关场所;购物相关场所,060000,吴中路1388号红星欧丽全球家居旗舰店E8005,121.374473,31.175707,13661718602,3.2,[],科技体验,上海市,上海市,闵行区
B0KGF544LP,上海果然绿健农业科技发展有限公司,公司企业;公司;公司,170200,复兴东路663弄1-7号复兴小区,121.492270,31.222868,13023130583,0.5,[],科技体验,上海市,上海市,黄浦区
B0K6L5JYMZ,SWES眠花糖睡眠科技体验中心(新天地店),购物服务;家居建材市场;家居建材市场,060600,中华路与复兴东路交叉口复兴荟商业街1122商铺,121.484906,31.218854,021-63391962,3.7,[],科技体验,上海市,上海市,黄浦区
B0K0392VA9,橡鹿科技上海体验中心,公司企业;公司;公司,170200,苍梧路与宜山路交叉口南220米,121.412371,31.171678,,[],[],科技体验,上海市,上海市,徐汇区
B0JKRL2E66,意雅住宅科技(五恒全空气体验中心),公司企业;公司;公司,170200,宜山路439号七建大厦2层(宜山路地铁站7号口步行80米),121.427379,31.183681,,[],[],科技体验,上海市,上海市,徐汇区
B0J1FH0SKV,上海Lattoflex德国乐德飞翼科技睡眠体验馆(红星美凯龙店),购物服务;购物相关场所;购物相关场所,060000,真北路1108号红星美凯龙南馆二楼B8126,121.385579,31.237529,18217580680,3.8,[],科技体验,上海市,上海市,普陀区
B0IUDHGEGA,飞跃上海(南京路步行街来福士店),体育休闲服务;娱乐场所;娱乐场所,080300,南京路步行街来福士广场5层(好好彩啫啫煲斜对面),121.476249,31.232421,15383472989;19398745292,4.5,64.00,科技体验,上海市,上海市,黄浦区
B0FFGDQIC4,漕河泾现代农业科技体验馆,公司企业;农林牧渔基地;其它农林牧渔基地,170400,桂果路669号,121.398091,31.174428,,[],[],科技体验,上海市,上海市,徐汇区
B0HKRCP5GA,上海漕河泾北杨人工智能小镇项目部,公司企业;公司;公司,170200,华发路888号,121.442652,31.126581,,[],[],科技体验,上海市,上海市,徐汇区
B0FFG1NZFA,上海非凡进修学院(徐家汇校区),科教文化服务;学校;成人教育,141205,华山路1988号汇银广场北楼6层615室,121.436830,31.197734,021-52657951;18621563248,4.7,[],科技体验,上海市,上海市,徐汇区
B0FFF30YAW,交大慧谷IT教育·聚盼湖人才服务,科教文化服务;培训机构;培训机构,141400,乐山路33号园区(三部)/2号楼/401室,121.432356,31.196221,021-64482972,4.5,[],科技体验,上海市,上海市,徐汇区
B0KU3CCXQU,新东方学习规划(长宁来福士校区),科教文化服务;培训机构;培训机构,141400,长宁路1191号长宁来福士东区L3层,121.415334,31.216444,021-60651571,4.5,[],科技体验,上海市,上海市,长宁区
B0KK0U0J0M,新东方学习规划(黄浦日月光校区),科教文化服务;培训机构;培训机构,141400,徐家汇路618号日月光中心徐汇区3F-30室,121.468055,31.205763,021-60651571,4.3,[],科技体验,上海市,上海市,黄浦区
B0K155VDO7,上海人工智能实验室科研楼项目部,公司企业;公司;公司,170200,龙吴路394号,121.447894,31.162045,,[],[],科技体验,上海市,上海市,徐汇区
B0FFJZV3IG,上海非凡进修学院(普陀校区),科教文化服务;学校;成人教育,141205,胶州路941号(长寿路地铁站5号口步行330米),121.436643,31.237432,021-52657951;18621563248,4.3,[],科技体验,上海市,上海市,普陀区
B0J6MZCMMG,唯新学院日语·日本留学,科教文化服务;培训机构;培训机构,141400,长宁路1133号长宁来福士T1座2808室,121.415176,31.215742,021-62330692,4.1,[],科技体验,上海市,上海市,长宁区
B0KKFO7DMQ,上海码极客人工智能科技有限公司,公司企业;公司;公司,170200,漕宝路1355号科技绿洲南区16号楼2层,121.389270,31.160493,,[],[],科技体验,上海市,上海市,闵行区
B0J0VNR8PV,墨芯人工智能科技(上海)有限公司,公司企业;公司;公司,170200,漕宝路650号上海桂林高智卫星通讯技术中心楼1号楼10层,121.404711,31.162434,,[],[],科技体验,上海市,上海市,徐汇区
B0KUT5BUK7,上海漕河泾北杨人工智能小镇上海建工项目部,公司企业;公司企业;公司企业,170000,华发路888号,121.446261,31.127982,13838893147,[],[],科技体验,上海市,上海市,徐汇区
B0JA5AF4UU,汇成建设北杨人工智能小镇F2标段项目部,公司企业;公司;公司,170200,业祥路22号(朱梅路地铁站1号口步行420米),121.440842,31.126201,,[],[],科技体验,上海市,上海市,徐汇区
B0L3KLCQHX,上海数启寰宇人工智能科技有限公司,公司企业;公司;公司,170200,云锦路701号43层4305-07,121.460351,31.163443,,[],[],科技体验,上海市,上海市,徐汇区
B0FFHJTU4H,上海普陀区融沃职业技能培训中心(总校区),科教文化服务;培训机构;培训机构,141400,兰溪路119号曹杨商务楼212室,121.406725,31.237475,13918683731;15721283565,3.4,[],科技体验,上海市,上海市,普陀区
B0K2NZ2TED,新东方学习规划(静安凯德星贸校区),科教文化服务;培训机构;培训机构,141400,恒通路318号凯德星贸中心2层,121.458224,31.241082,021-60651571,4.3,[],科技体验,上海市,上海市,静安区
B0LUY107T1,乐博乐博机器人编程(上海黄浦校区),科教文化服务;培训机构;培训机构,141400,斜土东路176号昂云空间206A室,121.488585,31.207700,18917598762;4000081345,4.0,[],科技体验,上海市,上海市,黄浦区
B0L16SS4RH,中国·金砖国家人工智能发展与合作中心上海运营基地,公司企业;公司;公司,170200,云视路1号星云1号大厦1401,121.460831,31.157827,,[],[],科技体验,上海市,上海市,徐汇区
B0LDRSBM57,上海鲲之益人工智能高新技术企业,公司企业;公司;公司,170200,金沙江路2009号31幢,121.372158,31.233440,,[],[],科技体验,上海市,上海市,普陀区
B0K2S7956F,新东方学习规划(长宁西郊百联校区),科教文化服务;培训机构;培训机构,141400,仙霞西路88号3层,121.370012,31.209321,021-60651571,4.2,[],科技体验,上海市,上海市,长宁区
B0L027NW0R,码趣学院,科教文化服务;培训机构;培训机构,141400,天山路1737号SOHO天山广场,121.408388,31.209450,13127655037,3.2,[],科技体验,上海市,上海市,长宁区
B0L3Z9111A,编程海·AI人工智能·C++信奥·机器人(徐汇日月光中心店),购物服务;购物相关场所;购物相关场所,060000,漕宝路33号徐汇日月光中心L3层(漕宝路地铁站8号口旁),121.432376,31.168926,,2.9,[],科技体验,上海市,上海市,徐汇区
B0L0PL1E57,上海元念瞬间人工智能科技有限公司,公司企业;公司;公司,170200,古美路1528号晨光科技大厦,121.397632,31.164609,,[],[],科技体验,上海市,上海市,徐汇区
B00156NX3Y,新东方学习规划(曹杨路校区),科教文化服务;培训机构;培训机构,141400,曹杨路540号2-3楼,121.418206,31.237770,021-60651571,4.4,[],科技体验,上海市,上海市,普陀区
B0FFF5TZVX,上海新东方四六级考研(汇银北校区),科教文化服务;培训机构;培训机构,141400,华山路2068号汇银广场北楼,121.436753,31.197405,18516576295,4.6,[],科技体验,上海市,上海市,徐汇区
B0I1V4V2VW,新东方学习规划(人民广场新闸路校区),科教文化服务;培训机构;培训机构,141400,黄河路355号雅州大楼二号楼2楼,121.468534,31.238456,021-60651571,4.7,[],科技体验,上海市,上海市,黄浦区
B0L0Z6D9T2,上海掌术人工智能科技有限公司,公司企业;公司;公司,170200,虹桥镇万源路2163号新桥商务中心B栋,121.386225,31.169225,,[],[],科技体验,上海市,上海市,闵行区
B0FFK2J3KO,达内(上海徐家汇中心),科教文化服务;培训机构;培训机构,141400,华山路2018号汇银广场7层735室,121.436933,31.197360,15618426870,4.7,[],科技体验,上海市,上海市,徐汇区
B0G0C9ZNC1,新东方学习规划(肇嘉浜校区),科教文化服务;培训机构;培训机构,141400,肇嘉浜路238号3楼,121.461974,31.203390,021-60651571,4.8,[],科技体验,上海市,上海市,徐汇区
B0FFK9O360,新东方学习规划(梅陇壹街坊校区),科教文化服务;培训机构;培训机构,141400,上中西路280号2楼,121.425785,31.134994,021-60651571,4.4,[],科技体验,上海市,上海市,徐汇区
B0LRHD8JGM,三次方AI成长中心(徐汇校区),科教文化服务;培训机构;培训机构,141400,淮海西路55号2楼208-1,121.434365,31.201337,,3.9,[],科技体验,上海市,上海市,徐汇区
B0HUARFVL3,Wowkids创造力中心(前滩校区)AI工坊,科教文化服务;培训机构;培训机构,141400,钱家滩路90号S3栋3层301室,121.473677,31.152940,17321083343,4.2,[],科技体验,上海市,上海市,浦东新区
B0L1XRS44H,学优乐AI智慧全科素养培训中心(普陀曹杨校区),科教文化服务;培训机构;培训机构,141400,曹杨路619号近铁云中心F4层,121.416663,31.237878,,4.0,[],科技体验,上海市,上海市,普陀区
B0I0K93AVS,Magikid古北AI机器人中心创客编程STEAM教育,科教文化服务;培训机构;培训机构,141400,翠钰南路与虹五路交叉口南100米,121.397541,31.189205,,3.2,[],科技体验,上海市,上海市,闵行区
B0L0X9M95B,Abilix能力风暴AI未来英才进化中心,科教文化服务;培训机构;培训机构,141400,乐坊虹井生活广场2层207A.207B,121.371682,31.176873,18101769585,3.5,[],科技体验,上海市,上海市,闵行区
B0J0TUZLXC,松鼠Ai智习室,科教文化服务;培训机构;培训机构,141400,东兰路238号古美创智中心二楼L116松鼠Ai智习室,121.401712,31.158119,18621567236,4.2,[],科技体验,上海市,上海市,闵行区
B0JURU1N6H,及猫云Ai(上海总部),公司企业;公司;公司,170200,成都北路500号峻岭广场F23层,121.467568,31.232239,15317237848,[],[],科技体验,上海市,上海市,黄浦区
B0LKYB3165,小巷7号Ai照相馆(徐汇日月光中心店),生活服务;生活服务场所;生活服务场所,070000,田林街道漕宝路33号徐汇日月光中心(漕宝路地铁站出入口旁),121.432525,31.168825,,3.5,[],科技体验,上海市,上海市,徐汇区
B0LDLN9J1V,火箭AI上海总部,公司企业;公司;公司,170200,宜山路2000号利丰广场(合川路地铁站1号口步行350米),121.386818,31.168721,,[],[],科技体验,上海市,上海市,闵行区
B0LKNPOMVH,魅KTV·AI辅唱(星扬西岸中心店),体育休闲服务;娱乐场所;KTV,080302,龙耀路175号Lumina星扬,121.461775,31.161375,,4.4,79.00,科技体验,上海市,上海市,徐汇区
B0H1K73Z23,卡普兰芭蕾舞学校(徐汇日月光中心店),科教文化服务;培训机构;培训机构,141400,漕宝路33号徐汇日月光中心L3层,121.432405,31.169229,021-34197999,3.8,[],科技体验,上海市,上海市,徐汇区
B0FFKY87T8,AI艾耳专业打耳洞STUDEX穿刺连锁(人民广场店),生活服务;美容美发店;美容美发店,071100,汉口路643号百米香榭商业街2楼261室,121.478902,31.233406,13120937398,4.4,234.00,科技体验,上海市,上海市,黄浦区
B0K39CFRCP,学优AI自习室,科教文化服务;培训机构;培训机构,141400,古方路18号南方休闲广场商务大厦F9层,121.402276,31.132509,15021021839,3.3,[],科技体验,上海市,上海市,闵行区
B0HKTZ1U0L,蘭心·玥笙荟(GATE M 西岸凤巢店),餐饮服务;中餐厅;上海菜,050107,云锦路683号AI PLAZA西岸凤巢第六层06-011号,121.460658,31.164246,021-60888922;13524172111,4.3,242.00,科技体验,上海市,上海市,徐汇区
B0K1HRTOGX,魅KTV·AI辅唱(中山公园兆丰店),体育休闲服务;娱乐场所;KTV,080302,长宁路999号01单元4层(B&D美甲美睫店旁边直梯上四楼),121.417954,31.217963,,4.5,70.00,科技体验,上海市,上海市,长宁区
B0I0HHPOYX,斯坦星球科创编程(徐汇永新坊中心),科教文化服务;培训机构;培训机构,141400,辛耕路109号永新坊2楼,121.442359,31.185334,13661596750;18013340304,4.0,[],科技体验,上海市,上海市,徐汇区
B0JRYCCKQT,魅KTV.AI辅唱(百联中环店),体育休闲服务;娱乐场所;KTV,080302,真光路1288号百联中环购物广场(1号门地面停车场直走到底)F01层外铺G08-02F01-01-0064,121.384256,31.244520,13062601999,4.5,44.00,科技体验,上海市,上海市,普陀区
B00156O6PR,绿地·汇中心,商务住宅;楼宇;商务写字楼,120201,云锦路500号(云锦路地铁站5号口步行330米),121.457537,31.165012,,[],[],科技体验,上海市,上海市,徐汇区
B0M6XDPDNJ,华东理工大学科技园产业基地,商务住宅;产业园区;产业园区,120100,夏泰浜路与喜泰路交叉口东南200米,121.453125,31.149175,,[],[],科技体验,上海市,上海市,徐汇区
B0LUDREM9B,祥同科技园,商务住宅;产业园区;产业园区,120100,外环路与莘沥路交叉口北280米,121.363612,31.108656,,[],[],科技体验,上海市,上海市,闵行区
B0LUDRBP1U,华鑫科技园-B区6座,商务住宅;产业园区;产业园区,120100,宜州路与田林路交叉口东北200米,121.408977,31.170289,,[],[],科技体验,上海市,上海市,徐汇区
B0LUA7OH4V,普天信息科技园B栋,商务住宅;产业园区;产业园区,120100,宜山路与桂林路交叉口东240米(桂林路地铁站5号口旁),121.418727,31.175255,,[],[],科技体验,上海市,上海市,徐汇区
B0LU4CX22H,上海骑形网络科技有限公司,公司企业;公司;公司,170200,龙田路190号天华信息科技园北区3号楼,121.440733,31.174503,,[],[],科技体验,上海市,上海市,徐汇区
B0LR0OPCCP,游悉谷文体产业园区3号楼,商务住宅;产业园区;产业园区,120100,罗锦路218号游悉谷文体产业园,121.415375,31.121625,,[],[],科技体验,上海市,上海市,闵行区
B0LR01OXJG,华鑫科技园D1座,商务住宅;产业园区;产业园区,120100,田林路与虹漕路交叉口西北80米,121.410075,31.169475,,[],[],科技体验,上海市,上海市,徐汇区
B0LR01OIF7,星中1625文创园18号楼,商务住宅;产业园区;产业园区,120100,漕宝路1625号星中科创园(星中路地铁站1号口步行460米),121.374075,31.158625,,[],[],科技体验,上海市,上海市,闵行区
B0LR01O41B,趣办·徐汇核心智慧园3号楼,商务住宅;产业园区;产业园区,120100,天钥桥路909号趣办·徐汇核心智慧园,121.445725,31.178725,,[],[],科技体验,上海市,上海市,徐汇区
B0LR01NOLG,华鑫科技园B1栋,商务住宅;产业园区;产业园区,120100,田林路与宜州路交叉口东北60米,121.408325,31.168975,,[],[],科技体验,上海市,上海市,徐汇区
B0LKMX865U,上海学仕教育科技有限公司,公司企业;公司;公司,170200,天山路18号兆益科技园东楼(北新泾地铁站1号口步行340米),121.378259,31.216533,,[],[],科技体验,上海市,上海市,长宁区
B0LGMZ89S9,上海贝岭科技园,商务住宅;产业园区;产业园区,120100,宜山路与宜州路交叉口东北80米,121.407465,31.173075,,[],[],科技体验,上海市,上海市,徐汇区
B0LG9LVZZB,上海泛恩生物科技有限公司,公司企业;公司;公司,170200,东华大学国家大学科技园18号305室,121.358510,31.223112,,[],[],科技体验,上海市,上海市,长宁区
B0LDH1U0A3,华东理工大学国家大学科技园(嘉川基地),商务住宅;产业园区;产业园区,120100,嘉川路245号,121.429340,31.138588,18701923668,[],[],科技体验,上海市,上海市,徐汇区
B0LBLUNIF7,创事记(上海)科技有限公司,公司企业;公司;公司,170200,番禺路1028号(近虹桥路)上海交通大学国家大学科技园904室,121.427797,31.194465,,[],[],科技体验,上海市,上海市,徐汇区
B0LB25Q6YT,上海尚隆泽数字科技有限公司,公司企业;公司;公司,170200,虹漕路39号华鑫科技园D6栋,121.410129,31.170457,,[],[],科技体验,上海市,上海市,徐汇区
B0LAZ1YBN5,华鑫科技园-B区3座,商务住宅;产业园区;产业园区,120100,宜州路与田林路交叉口北140米,121.407803,31.169822,,[],[],科技体验,上海市,上海市,徐汇区
B0LASZ0PKG,上海锦锂驰新能源科技有限公司,公司企业;公司;公司,170200,七莘路1189号莘海科技园2号楼8楼,121.366543,31.126881,13818969147,[],[],科技体验,上海市,上海市,闵行区
B0LA4R9U5G,锐杰微科技(上海)有限公司,公司企业;公司;公司,170200,顾戴路2568号银石科技园2号楼202室,121.359516,31.131583,,[],[],科技体验,上海市,上海市,闵行区
B0L6MUXPMM,上海视九信息科技有限公司,公司企业;公司;公司,170200,顾戴路2582号闵行市政园(七莘路地铁站6号口步行430米),121.358583,31.131266,,[],[],科技体验,上海市,上海市,闵行区
B0L6DD8SL7,上海信御计算机科技有限公司,公司企业;公司;网络科技,170206,顾戴路2582号闵行市政园1号楼101室,121.358739,31.131329,,[],[],科技体验,上海市,上海市,闵行区
B0L3SB24QU,DeepDive纵深科技,公司企业;公司;公司,170200,顾戴路与银石科技园通道交叉口东北100米,121.360242,31.130987,,[],[],科技体验,上海市,上海市,闵行区
B0L3RGMWWR,上海宜揉网络科技有限公司,公司企业;公司;公司,170200,宜山路1289号克隆科技园B楼,121.396590,31.169245,,[],[],科技体验,上海市,上海市,徐汇区
B0L3RBN2FZ,上海芫橙信息科技有限公司,公司企业;公司;公司,170200,天山路18号兆益科技园东楼(北新泾地铁站1号口步行340米),121.378259,31.216533,,[],[],科技体验,上海市,上海市,长宁区
B0L3H7983A,上海图珏电子科技有限公司,公司企业;公司;公司,170200,东兰路248号香樟园科技园区牌楼商务楼,121.400998,31.158212,,[],[],科技体验,上海市,上海市,闵行区
B0L3H795GI,桂林科技园2期,商务住宅;楼宇;商务写字楼,120201,桂平路与漕宝路交叉口南260米,121.406128,31.160738,,[],[],科技体验,上海市,上海市,徐汇区
B0L32543K0,华鑫科技园D5座,商务住宅;产业园区;产业园区,120100,虹漕路与田林路交叉口西北200米,121.409299,31.170357,,[],[],科技体验,上海市,上海市,徐汇区
B0L2CXIJXS,颐爱信息科技(上海)有限公司,公司企业;公司;公司,170200,银石科技园通道与顾戴路交叉口北120米,121.359764,31.131214,,[],[],科技体验,上海市,上海市,闵行区
B0L2AU1HXY,苍霞(上海)智能科技有限公司,公司企业;公司;公司,170200,桂平路333号桂林科技园297号楼4楼,121.406390,31.159677,,[],[],科技体验,上海市,上海市,徐汇区
B0L22906YJ,上海中奕数字科技有限公司,公司企业;公司;公司,170200,顾戴路与银石科技园通道交叉口东南140米,121.360900,31.129443,,[],[],科技体验,上海市,上海市,闵行区
B0L217TGFB,上海超级笔记科技有限公司,公司企业;公司;公司,170200,七莘路1189号临港莘海科技园-1号楼802,121.366967,31.126324,,[],[],科技体验,上海市,上海市,闵行区
B0L1G5B00R,北京四维图新科技股份有限公司(上海),公司企业;公司;网络科技,170206,合川路2555号上海科技绿洲3期五办公区3号楼,121.385268,31.163360,,[],[],科技体验,上海市,上海市,闵行区
B0L1CL6ZBO,复星科技园C楼,商务住宅;楼宇;商务写字楼|商务住宅;产业园区;产业园区,120201|120100,宜山路与虹梅路交叉口西南220米,121.396864,31.168752,,[],[],科技体验,上海市,上海市,徐汇区
B0L106BXJ6,东华大学国家大学科技园5号楼A栋,商务住宅;产业园区;产业园区,120100,福泉路与金钟路交叉口北180米,121.359125,31.222125,,[],[],科技体验,上海市,上海市,长宁区
B0KK0SDV6Q,上海联净电子科技有限公司,公司企业;公司;公司,170200,兴梅路485号中环科技园7F,121.427758,31.109678,,[],[],科技体验,上海市,上海市,闵行区
B0KGFH442R,上海好富业科技有限公司,公司企业;公司;网络科技,170206,龙漕路299号天华信息科技园1栋6楼,121.442746,31.171717,15060064318;18805015519,[],[],科技体验,上海市,上海市,徐汇区
B0KG65XW2P,拾音汽车科技(上海)有限公司,公司企业;公司;公司,170200,莘庄镇七莘路1189号临港莘海科技园4号楼2楼,121.367146,31.126048,,4.6,[],科技体验,上海市,上海市,闵行区
B0KDVURPYW,上海普信科技有限公司,公司企业;公司;公司,170200,金钟路658弄东华大学科技园10号楼,121.358575,31.221275,021-33600060,[],[],科技体验,上海市,上海市,长宁区
B0KDOZIQNF,上海嗨探信息科技有限公司,公司企业;公司;网络科技,170206,东兰路320号牌楼智谷科技园区3号楼,121.397545,31.157536,,[],[],科技体验,上海市,上海市,闵行区
B0KDGRKRCC,上海京雨电子科技有限公司,公司企业;公司;机械电子,170204,黎安路1189号莘吴科技园2号楼2层A区,121.356380,31.122537,,[],[],科技体验,上海市,上海市,闵行区
B0KBR5L6LG,颐挚科技(华大科创楼店),购物服务;家电电子卖场;数码电子,060306,金沙江路1006号华东师大科技园D栋3楼,121.392983,31.232223,4006818015,3.8,[],科技体验,上海市,上海市,普陀区
B0K2VCVO1I,上海麦杰科技,公司企业;公司;公司,170200,七莘路1189号临港莘海科技园,121.366967,31.126383,021-33674360,[],[],科技体验,上海市,上海市,闵行区
B0K1VUSD0D,上海擎林网络科技有限公司,公司企业;公司企业;公司企业,170000,桂箐路7号华东理工科技园G7园区3号楼A218,121.405646,31.165634,,[],[],科技体验,上海市,上海市,徐汇区
B0GK16RUCQ,屋有岛沉浸剧情体验馆(人民广场店),餐饮服务;餐饮相关场所;餐饮相关,050000,延安东路700号港泰广场2楼,121.479165,31.229853,18930369903,4.4,226.00,科技体验,上海市,上海市,黄浦区
B0G3FSGN0K,屋有岛沉浸游戏体验馆(徐家汇旗舰店),体育休闲服务;娱乐场所;娱乐场所,080300,天钥桥路458号3楼301(公交车站旁入口),121.442087,31.187182,15618066960,4.5,306.00,科技体验,上海市,上海市,徐汇区
B0K1FAI5AD,JC RACING赛车模拟器体验店,体育休闲服务;体育休闲服务场所;体育休闲服务场所,080000,三林路88弄1号楼D幢209室,121.494385,31.134290,13482244853,4.4,69.00,科技体验,上海市,上海市,浦东新区
B0K67ZYUSS,原宇宙游戏部Ps5·Switch·Diy体验馆(环球港店),体育休闲服务;体育休闲服务场所;体育休闲服务场所,080000,中山北路3300号上海月星环球港L5层,121.412238,31.232871,19529906070,4.3,103.00,科技体验,上海市,上海市,普陀区
B0FFKY7UYA,耳泰采耳体验馆(静安寺富民店),医疗保健服务;医疗保健服务场所;医疗保健服务场所,090000,延安中路1007号2楼(近富民路梵境艺术酒店),121.450068,31.221614,021-51631629,4.1,198.00,科技体验,上海市,上海市,静安区
B0FFIYRP91,City Flight上海飞行体验馆(日月光店),体育休闲服务;体育休闲服务场所;体育休闲服务场所,080000,瑞金二路411号日月光中心6楼伯爵居,121.467625,31.207025,16621090307,4.0,382.00,科技体验,上海市,上海市,黄浦区
B0FFLITOQO,K·H真人密室逃脱体验馆(中山公园店),体育休闲服务;娱乐场所;娱乐场所,080300,延安西路1237号,121.427602,31.210715,021-52992618;13321941060,4.4,173.00,科技体验,上海市,上海市,长宁区
B0K2BHE645,回响密室逃脱体验馆,体育休闲服务;娱乐场所;娱乐场所,080300,斜徐路569号帝庭b1(打浦桥地铁站2号口步行370米),121.472146,31.207176,13391175891,4.4,263.00,科技体验,上海市,上海市,黄浦区
B0FFKU6IZF,锐猎体育(黄浦店),体育休闲服务;体育休闲服务场所;体育休闲服务场所,080000,建国西路135号卢湾体育场看台1号门北侧B1层,121.464431,31.206228,4008036536,4.3,102.00,科技体验,上海市,上海市,黄浦区
B0KDARIAO7,2L沉浸式密室体验馆(韩国街店),体育休闲服务;娱乐场所;娱乐场所,080300,虹井路120弄爱琴海购物中心3层315室(外庭观景电梯楼上),121.372571,31.175376,18521329549,4.3,178.00,科技体验,上海市,上海市,闵行区
B0FFI6GPTE,耳泰采耳体验馆(百米香榭商业街店),生活服务;洗浴推拿场所;洗浴推拿场所,071400,浙江中路229号2层264,121.478880,31.233460,021-63307606,4.0,160.00,科技体验,上海市,上海市,黄浦区
B0G1SA8OZP,采耳文化体验馆(上海田子坊店),生活服务;洗浴推拿场所;洗浴推拿场所,071400,泰康路田子坊3号272弄后门20楼(打浦桥地铁站1号口旁),121.468237,31.207583,021-31131333;021-64226191,4.0,127.00,科技体验,上海市,上海市,黄浦区
B0K33S4R2A,山或海或异世界·大空间VR沉浸式体验馆,体育休闲服务;娱乐场所;娱乐场所,080300,吴中路1588号爱琴海购物中心7楼,121.373025,31.174525,,3.9,100.00,科技体验,上海市,上海市,闵行区
B0GKXHEAK3,纸牌坞密室体验馆(新天地店),体育休闲服务;娱乐场所;娱乐场所,080300,西藏南路765号永惠大厦A栋1701室,121.484925,31.216575,13517543525,4.2,178.00,科技体验,上海市,上海市,黄浦区
B0IKNH48NZ,PEfun电玩体验馆(静安大悦城店),体育休闲服务;娱乐场所;游戏厅,080305,西藏北路166号静安大悦城南座6楼613商铺,121.472171,31.242922,15901736619,3.9,68.00,科技体验,上海市,上海市,静安区
B0HA1YE254,为为采耳文化体验馆,医疗保健服务;医疗保健服务场所;医疗保健服务场所,090000,泰康路田子坊3号门(打浦桥地铁站1号口旁),121.468387,31.207608,,4.1,123.00,科技体验,上海市,上海市,黄浦区
B0K0DSC1NG,进步泰拳馆,体育休闲服务;运动场馆;运动场所,080100,余姚路420号4楼,121.435827,31.234548,021-62680112;15316158125,4.3,[],科技体验,上海市,上海市,静安区
B0FFK82HSL,爱尔法健身理念馆(阿拉城店),体育休闲服务;体育休闲服务场所;体育休闲服务场所,080000,先锋街66号阿拉城3号楼4层406,121.373465,31.177448,15221288438,4.1,145.00,科技体验,上海市,上海市,闵行区
B0JRS7NY4N,璐娜电玩·PS5·NS体验馆,体育休闲服务;娱乐场所;游戏厅,080305,延安西路1023号17F,121.429334,31.212414,18918047119,3.9,25.00,科技体验,上海市,上海市,长宁区
B0ID6XAS4G,罪案调查局·侦探推理实景体验馆(徐汇店),体育休闲服务;体育休闲服务场所;体育休闲服务场所,080000,小木桥路528号2楼(大木桥路地铁站3号口步行360米),121.461238,31.191483,,4.4,380.00,科技体验,上海市,上海市,徐汇区
B0LUCOWQFA,狼人杀桌游体验馆,体育休闲服务;娱乐场所;娱乐场所,080300,田林路200号华鑫天地,121.407414,31.168939,021-64269861,4.4,66.00,科技体验,上海市,上海市,徐汇区
B0KKSZV9L2,八卦掌文化体验馆,科教文化服务;培训机构;培训机构,141400,梅岭北路1098弄1号信泰中心广场地下一层LG123-2单元,121.395821,31.242661,15000565432,4.1,[],科技体验,上海市,上海市,普陀区
B0FFJFQ0Y2,乐刻私教馆,体育休闲服务;运动场馆;健身中心,080111,澳门路729号(长寿路地铁站1号口步行310米),121.436190,31.242264,,4.3,2747.00,科技体验,上海市,上海市,普陀区
B0FFHFH3JU,浦菲优澜健身(虹桥店),体育休闲服务;运动场馆;游泳馆,080110,中山西路中星美华邨16号楼旁会所,121.416275,31.192625,17701694069,4.3,[],科技体验,上海市,上海市,长宁区
B0KKVR7QWA,强民体育乒乓球·中考体育易乒乓(隆德路店),体育休闲服务;运动场馆;乒乓球馆,080112,长寿路999弄15号,121.428732,31.230076,13482328676,4.4,59.00,科技体验,上海市,上海市,静安区
B0JDZ9O84J,魂雀日麻桌游体验馆(光大生活广场店),体育休闲服务;体育休闲服务场所;体育休闲服务场所,080000,漕宝路80号光大会展中心D座1801室,121.428241,31.167422,,4.1,76.00,科技体验,上海市,上海市,徐汇区
B0L3N7DG6R,VOiD 未定虚境·魔术体验空间,体育休闲服务;娱乐场所;娱乐场所,080300,常德路319号201室,121.446706,31.226684,13004194782,3.8,114.00,科技体验,上海市,上海市,静安区
B0FFKVY80X,罪案调查局·侦探推理实景体验馆(长寿路店),生活服务;生活服务场所;生活服务场所,070000,澳门路715号715创意园509(长寿路),121.436356,31.243008,,4.2,344.00,科技体验,上海市,上海市,普陀区
B0I2PHJDHR,FB·一本正经剧本体验馆,体育休闲服务;娱乐场所;娱乐场所,080300,恒森广场B幢2204(昌平路地铁站5号口步行240米),121.439760,31.234819,,4.3,204.00,科技体验,上海市,上海市,静安区
B0LRM7ZDRG,任天游·沉浸式体验馆,体育休闲服务;娱乐场所;娱乐场所,080300,漕宝路(桂林公园地铁站5号口步行360米),121.415484,31.165731,,3.9,[],科技体验,上海市,上海市,徐汇区
B0K2LCN70J,AI体验公园,风景名胜;风景名胜相关;旅游景点,110000,田林路辅路与虹梅路交叉口东北120米,121.400464,31.168189,,3.6,[],科技体验,上海市,上海市,徐汇区
B0L11YK2PX,未来站潮玩娱乐体验店,体育休闲服务;娱乐场所;游戏厅,080305,淞虹路377号长宁Art Park大融城,121.359154,31.217465,,2.7,72.00,科技体验,上海市,上海市,长宁区
B0FFK7BJM2,AS u wish陶艺·油画达人馆(静安寺店),购物服务;购物相关场所;购物相关场所,060000,北京西路与铜仁路交叉口西60米,121.448563,31.227962,18717736246,4.4,138.00,科技体验,上海市,上海市,静安区
B0LRB7NPQN,心动梦幻助教新奇体验馆,科教文化服务;培训机构;培训机构,141400,沪闵路6333-4号 天荟悦麟1座A单元2603室,121.386611,31.109651,13391289340,4.1,[],科技体验,上海市,上海市,闵行区
B0J3YCDQ8R,糖果桌游助教体验馆(杰地大厦店),体育休闲服务;娱乐场所;娱乐场所,080300,曹杨路2790号杰地大厦11楼1107室(曹杨路地铁站7号口步行170米)曹杨路店,121.418755,31.240764,17821492401,3.3,[],科技体验,上海市,上海市,普陀区
B0LAV714SP,GANCUBE旗舰店(上海晶耀前滩店),购物服务;购物相关场所;购物相关场所,060000,耀体路212号晶耀前滩北区二层L276S-278S单元,121.476831,31.152911,19901798227,4.6,[],科技体验,上海市,上海市,浦东新区
B0FFMFJF9X,Max伯爵真人游戏体验馆(黄浦店),体育休闲服务;娱乐场所;娱乐场所,080300,新桥路68号新桥大厦1308室,121.466044,31.240044,,3.2,[],科技体验,上海市,上海市,黄浦区
B0LU3H98LQ,15LOVE 网球学练馆(鑫耀光环店),体育休闲服务;运动场馆;跆拳道场馆,080119,漕宝路211号鑫耀光环东区2楼(15LOVE网球发球机私教馆),121.415459,31.167721,18621985833,4.3,[],科技体验,上海市,上海市,徐汇区
B0KATLQ6AD,甜心baby·恋爱互动体验馆,购物服务;专卖店;儿童用品店,061207,漕宝路与古美路交叉口西南100米,121.397906,31.160168,,3.9,[],科技体验,上海市,上海市,闵行区
B0G3FSIC23,锦鲤祠·汉服文化体验馆(静安大悦城店),购物服务;服装鞋帽皮具店;服装鞋帽皮具店,061100,西藏北路198号静安大悦城北座4F,121.472267,31.244516,,3.5,[],科技体验,上海市,上海市,静安区
B0LRCPF37I,拾光社T.R.Y桌游体验馆,体育休闲服务;娱乐场所;娱乐场所,080300,致远大厦L座17层,121.471513,31.201567,13386160869,2.9,[],科技体验,上海市,上海市,黄浦区
B0LU7OYZCY,康远理疗体验店,医疗保健服务;医疗保健服务场所;医疗保健服务场所,090000,欧风新天地北门旁,121.382774,31.152855,,2.7,[],科技体验,上海市,上海市,闵行区
B0K24RALRO,梦幻时空·体验馆,体育休闲服务;体育休闲服务场所;体育休闲服务场所,080000,南京东路353号悦荟广场F3层,121.483425,31.236669,,3.8,[],科技体验,上海市,上海市,黄浦区
B0KU5GL18X,黑莓熟了体验馆,体育休闲服务;休闲场所;采摘园,080503,柳州路与漕宝路交叉口北220米,121.425061,31.169661,,3.7,27.00,科技体验,上海市,上海市,徐汇区
B0KKL7398U,心动美少女桌游·私影·恋爱体验馆,体育休闲服务;娱乐场所;娱乐场所,080300,梅陇西路与莘朱路交叉口西北140米(莘庄地铁站南2口旁),121.386540,31.109690,,3.7,808.00,科技体验,上海市,上海市,闵行区
B0L2HPACVD,星辰·私影·桌游·体验馆,体育休闲服务;娱乐场所;娱乐场所,080300,东兰路与古美路交叉口东北200米,121.401575,31.158625,,3.0,57.00,科技体验,上海市,上海市,闵行区
B0LU7UZLRD,问向体验馆,体育休闲服务;体育休闲服务场所;体育休闲服务场所,080000,龙台路199号模速空间B区二楼201,121.460308,31.158232,,3.8,[],科技体验,上海市,上海市,徐汇区
B0L395RZJD,恋语屋桌游体验馆,体育休闲服务;娱乐场所;娱乐场所,080300,万航渡路与康定路交叉口东60米,121.430125,31.228375,,2.7,[],科技体验,上海市,上海市,静安区
B0L2XKXFYG,华夏漫游行进式VR体验馆,体育休闲服务;娱乐场所;娱乐场所|体育休闲服务;休闲场所;休闲场所,080300|080500,上海世茂广场,121.475825,31.234425,,2.9,[],科技体验,上海市,上海市,黄浦区
B0JUM581ZO,聚影呈象元宇宙全息剧本体验馆(虹桥南丰城店),生活服务;婴儿服务场所;婴儿服务场所,072000,遵义路100号,121.407435,31.207108,13391121003,2.9,[],科技体验,上海市,上海市,长宁区
B0J2YHMFOR,瑞趣网球俱乐部万象城店,体育休闲服务;体育休闲服务场所;体育休闲服务场所,080000,吴中路1799号万象城商务区2层平台(A栋旁)距DDS缔诗齿科-缔虹口腔门诊部虹桥万象城540m,121.366316,31.169350,4000778805,4.3,231.00,科技体验,上海市,上海市,闵行区
B0L3XD1CYE,HML儿童斯巴达体能馆,体育休闲服务;运动场馆;健身中心,080111,古北路1799号A栋501,121.402977,31.187400,13761104500,3.9,[],科技体验,上海市,上海市,闵行区
B0H2C5THHZ,GOLFZON 室内高尔夫(合川店),体育休闲服务;体育休闲服务场所;体育休闲服务场所,080000,合川路3136号8幢东侧3层,121.381078,31.181036,021-64028379;17301896087,4.4,[],科技体验,上海市,上海市,闵行区
B0LDBHBEP0,鹤旋乒乓球·排球·跳绳运动馆(莘庄二店),体育休闲服务;运动场馆;乒乓球馆,080112,莘庄莘松路380号智慧园(莘弛大楼)602-603,121.371569,31.105605,13162683721,4.1,72.00,科技体验,上海市,上海市,闵行区
B0K6OMTOXG,逸林乒乓(前滩店),体育休闲服务;运动场馆;乒乓球馆,080112,芋秋路166号,121.470284,31.148374,15001706561,4.3,[],科技体验,上海市,上海市,浦东新区
B0FFF401ZH,快网网球俱乐部(徐汇爱建园店),体育休闲服务;运动场馆;网球场,080103,"田林东路100弄爱建园小区西北2门,需要门禁(55栋对面)",121.431056,31.177240,4009688828,4.1,[],科技体验,上海市,上海市,徐汇区
B0LAGCUGA6,强民体育乒乓球培训·中考体育考试易满分训练乒乓-排球-跳绳-体能训练(徐汇店),体育休闲服务;运动场馆;乒乓球馆,080112,上中路303号B201室,121.443508,31.139240,18878891004,4.4,[],科技体验,上海市,上海市,徐汇区
B0IRJHM0ZP,元启击剑俱乐部,体育休闲服务;运动场馆;运动场所,080100,莲花路2080号50号金茂科技园区E座1楼,121.392652,31.172513,15921888751,4.2,[],科技体验,上海市,上海市,闵行区
B0K65CJZ0T,克莱攀岩公园,体育休闲服务;体育休闲服务场所;体育休闲服务场所,080000,益梅路91号7号楼,121.411618,31.132078,18721250749,4.5,244.00,科技体验,上海市,上海市,闵行区
B0J6USIY6C,HEYSLIM超减·私教减肥馆(中庚漫游城店),生活服务;美容美发店;美容美发店,071100,古美西路313弄70号,121.396847,31.132241,13162189268,4.3,3709.00,科技体验,上海市,上海市,闵行区
B0FFMED5YL,上海奇思妙想减压馆(南京路步行街店),体育休闲服务;娱乐场所;娱乐场所,080300,南京东路悦荟广场3楼(南京东路地铁站3号口旁),121.483636,31.236933,,3.9,[],科技体验,上海市,上海市,黄浦区
B0LUVXFXHI,上海视觉艺术馆,科教文化服务;科教文化场所;科教文化场所,140000,贵州路829号世茂广场L3楼东区和风铁板料理对过,121.476029,31.234652,17521382008,4.3,[],科技体验,上海市,上海市,黄浦区
B0LD918VDX,毛羽体育羽毛球馆(龙川店),科教文化服务;培训机构;培训机构,141400,龙川北路801号,121.436845,31.152338,13117804998,4.0,[],科技体验,上海市,上海市,徐汇区
B0LG4HXTVO,优涵游泳俱乐部(春天花园店),体育休闲服务;运动场馆;游泳馆,080110,娄山关路1005号B1层臻邦游泳健身中心内,121.405098,31.217380,18930822025,4.5,[],科技体验,上海市,上海市,长宁区
B0G15AN7ST,上海盈搏击剑俱乐部(合川路店),体育休闲服务;运动场馆;运动场所,080100,虹中路535号一层123室(近合川路),121.378075,31.187025,13651994603,4.4,182.00,科技体验,上海市,上海市,闵行区
B0KGKUXBTZ,鲸鱼爸爸儿童游泳综合运动馆(百联西郊购物中心店),餐饮服务;餐饮相关场所;餐饮相关,050000,西郊百联二楼,121.369442,31.208923,15601988739,4.2,[],科技体验,上海市,上海市,长宁区
B0L2VU80FI,Roc811攀岩馆,体育休闲服务;体育休闲服务场所;体育休闲服务场所,080000,上海鑫耀·光环Live二期-东区S4-L3-G18,121.415675,31.167025,17621709261,4.3,[],科技体验,上海市,上海市,徐汇区
B0IKONUM8V,上海多维马术俱乐部(118店),体育休闲服务;运动场馆;运动场所,080100,伯士路57号118西广场立体停车库8楼,121.375209,31.231105,13262288478,4.5,147.00,科技体验,上海市,上海市,普陀区
B0L6AU0R4E,跃动运动馆(闵行力波馆),科教文化服务;培训机构;培训机构,141400,力波九坊·商场内2层203室(虹梅南路379弄27号203室),121.414184,31.134312,18019712523,4.1,[],科技体验,上海市,上海市,闵行区
B0K2NU906M,小屋电玩ps5.switch主机游戏馆(中山公园店),体育休闲服务;娱乐场所;游戏厅,080305,长宁路1189号长宁来福士东区L4层,121.414915,31.215873,17321285175,4.3,87.00,科技体验,上海市,上海市,长宁区
B0LAHRBWGQ,锐猎光感射击(GRC绿地滨江CLUB店),体育休闲服务;运动场馆;运动场所,080100,云锦路500号B楼grc绿地滨江clubb1-03,121.457581,31.164985,4008036536,4.2,[],科技体验,上海市,上海市,徐汇区
B0KUCAZ13D,瑞趣网球俱乐部徐汇万科店,体育休闲服务;运动场馆;网球场,080103,沪闵路9191号徐汇万科广场L3-02(大画童年旁),121.431757,31.157874,16621263980;4000778805,4.2,[],科技体验,上海市,上海市,徐汇区
B0L39HRJ7V,千琪の鹦鹉和服自拍馆,生活服务;摄影冲印店;摄影冲印,071300,长寿路295弄恒达大厦708室,121.439385,31.240748,18017289086,3.6,[],科技体验,上海市,上海市,普陀区
B0LUUCQ9LE,Life4cuts自拍馆,生活服务;摄影冲印店;摄影冲印,071300,南座4楼S429D/430D,121.472126,31.242783,,4.0,[],科技体验,上海市,上海市,静安区
B0KK1AWMSK,黔记忆苗家养生体验店(暂停营业),医疗保健服务;医疗保健服务场所;医疗保健服务场所,090000,航北路194号A室,121.356408,31.174068,,2.6,92.00,科技体验,上海市,上海市,闵行区
B0K075K8WL,探星0号计划,风景名胜;风景名胜相关;旅游景点,110000,福建北路100号LG278b(万象天地东里),121.479358,31.242304,,4.4,115.00,科技体验,上海市,上海市,静安区
B0L3UBGC48,西班牙普拉多博物馆藏品VR展,科教文化服务;科教文化场所;科教文化场所,140000,国庆路与晋元路交叉口东80米,121.471025,31.240375,,4.4,[],科技体验,上海市,上海市,静安区
B0HRO7N3J2,SANDBOX VR(中环广场店),体育休闲服务;娱乐场所;娱乐场所,080300,淮海中路381号中环广场L2层,121.473306,31.222186,021-53860877,4.2,298.00,科技体验,上海市,上海市,黄浦区
B0L02NNKUF,故事之城VR大型空间(四行仓库店),体育休闲服务;娱乐场所;娱乐场所,080300,光复路与西藏北路辅路交叉口西80米,121.471075,31.240244,,3.8,[],科技体验,上海市,上海市,静安区
B0FFI5BA2L,RU Kidding奇闻密室逃脱&VR虚拟现实(静安店),体育休闲服务;娱乐场所;娱乐场所,080300,武宁南路410号B1层(武宁路地铁站4号口步行120米),121.432621,31.232033,,3.5,211.00,科技体验,上海市,上海市,静安区
B0KRZ7GIL3,穿越魔都(上海来福士广场店),购物服务;服装鞋帽皮具店;服装鞋帽皮具店,061100,西藏中路268号上海来福士广场L5层眉州东坡隔壁,121.476225,31.232498,15383472989;19945716790,3.7,58.00,科技体验,上海市,上海市,黄浦区
B0L6P5DAKK,巴黎之巅VR沉浸展,科教文化服务;科教文化场所;科教文化场所,140000,洛克·安仁2楼,121.487759,31.242639,,3.8,142.00,科技体验,上海市,上海市,黄浦区
B0IK6UKONN,卓越太空船(南京东路店),体育休闲服务;休闲场所;休闲场所,080500,外滩街道南京东路387号1022室卓越太空船,121.483110,31.236731,,3.6,99.00,科技体验,上海市,上海市,黄浦区
B0IRBR13P5,未来帝国(中海环宇荟店),体育休闲服务;娱乐场所;网吧,080308,黄陂南路与永年路交叉口西100米中海环宇荟B1层B119,121.477066,31.212020,,4.0,180.00,科技体验,上海市,上海市,黄浦区
B0KUJCMCEQ,第九星球悬空飞行影院,体育休闲服务;影剧院;电影院,080601,世博大道1368号3区G层3G09B,121.492702,31.183443,13917848168;15000722817,3.7,36.00,科技体验,上海市,上海市,浦东新区
B0L191HXTD,满江红·全感XR沉浸探索展,体育休闲服务;娱乐场所;娱乐场所,080300,南京东路829号世茂广场西区L1层102&105室,121.475255,31.234094,17316423638,4.0,148.00,科技体验,上海市,上海市,黄浦区
B0G2AK3AHE,沉浸世界VR(上海静安大悦城南座店),体育休闲服务;体育休闲服务场所;体育休闲服务场所,080000,西藏北路166号上海静安大悦城南座L6层S612,121.472085,31.243312,,3.8,161.00,科技体验,上海市,上海市,静安区
B0JRRKN06O,UmE-SPACE沉浸式VR交互体验,体育休闲服务;娱乐场所;娱乐场所,080300,新天地湖滨购物中心,121.475284,31.218863,,3.4,[],科技体验,上海市,上海市,黄浦区
B0L3ZS0E7L,VR SALON·南京东路·SC氛围感烫发店,生活服务;美容美发店;美容美发店,071100,南京东路300号名人购物中心3L312,121.483881,31.238190,,3.6,[],科技体验,上海市,上海市,黄浦区
B0KKVC36IZ,乐客LEKEVR,体育休闲服务;休闲场所;休闲场所,080500,沪闵路9191号徐汇万科广场L3层,121.432589,31.158273,,3.4,81.00,科技体验,上海市,上海市,徐汇区
B0L1LKD4MY,LEKE VR 科技娱乐空间(徐汇万科广场),体育休闲服务;娱乐场所;娱乐场所,080300,沪闵路9191号徐汇万科广场L3层,121.431122,31.157241,,3.3,69.00,科技体验,上海市,上海市,徐汇区
B0L0PC10Y5,VR大空间·探秘·兵马俑,体育休闲服务;体育休闲服务场所;体育休闲服务场所,080000,福州路与福建中路交叉口西南40米,121.481475,31.233375,,3.1,69.00,科技体验,上海市,上海市,黄浦区
B0L0RC6GPR,乐境空间vr体验,体育休闲服务;休闲场所;休闲场所|体育休闲服务;娱乐场所;娱乐场所,080500|080300,中山西路与宜山路交叉口西80米,121.425725,31.182775,,3.3,[],科技体验,上海市,上海市,徐汇区
B0L03RE6NS,乐客VR,体育休闲服务;娱乐场所;游戏厅,080305,耀龙路与泳耀路交叉口南80米,121.475613,31.157421,,3.1,[],科技体验,上海市,上海市,浦东新区
B0JDBSDF2D,世纪友谊VR剧本杀桌游休闲店,体育休闲服务;娱乐场所;娱乐场所,080300,沪闵路7388号百联南方购物中心9F层,121.399875,31.131275,,3.4,[],科技体验,上海市,上海市,闵行区
B0GU5MW62U,闻天下创新中心,商务住宅;商务住宅相关;商务住宅相关,120000,云岭东路539号,121.386080,31.222409,,[],[],科技体验,上海市,上海市,普陀区
B0HGVBMMKT,百胜创新中心,商务住宅;楼宇;商务写字楼,120201,漕宝路与漕溪路交叉口西160米(漕宝路地铁站出入口旁),121.432775,31.169025,,[],[],科技体验,上海市,上海市,徐汇区
B0JAOUSX57,锦江创新中心,商务住宅;产业园区;产业园区,120100,徐汇龙漕路222号(龙漕路地铁站4号口旁),121.443077,31.169966,,[],[],科技体验,上海市,上海市,徐汇区
B00155LKJY,创兴金融中心,商务住宅;楼宇;商务写字楼,120201,南京西路288号(人民广场地铁站11号口步行190米),121.470322,31.232195,021-63278088,[],[],科技体验,上海市,上海市,黄浦区
B0LR0OOU5Z,锦江创新中心3号楼,商务住宅;楼宇;商务写字楼,120201,龙漕路222号锦江创新中心(龙漕路地铁站4号口步行70米),121.443525,31.170075,,[],[],科技体验,上海市,上海市,徐汇区
B0IR412PHR,龙冠科技创新中心,公司企业;公司;公司,170200,天钥桥路与慈云街交叉口东160米,121.443712,31.188354,,[],[],科技体验,上海市,上海市,徐汇区
B0GR6AYG64,拜尔斯道夫创新中心,公司企业;公司;公司,170200,桂箐路107号,121.404113,31.176762,,[],[],科技体验,上海市,上海市,徐汇区
B0K6VUZE7O,普陀创新大厦,商务住宅;楼宇;商务写字楼,120201,曹杨新村街道武宁路801号(中宁路地铁站3号口旁),121.413350,31.244693,,[],[],科技体验,上海市,上海市,普陀区
B0LDC5UV9F,云生全球创新中心,商务住宅;产业园区;产业园区,120100,长安路与梅园路交叉口北60米,121.460325,31.242025,,[],[],科技体验,上海市,上海市,静安区
B0J17HEXUD,上海人工智能创新中心,公司企业;公司企业;公司企业,170000,龙腾大道2171号国际传媒港L1栋,121.461990,31.159841,,[],[],科技体验,上海市,上海市,徐汇区
B0KDTM9C6Z,中国数字50创新中心,公司企业;公司;公司,170200,武宁路423号,121.415725,31.242875,13816655708,[],[],科技体验,上海市,上海市,普陀区
B0K1LRKSHW,创新教育中心,科教文化服务;培训机构;培训机构,141400,龙兰路277号云锦天地商场三楼302,121.456325,31.165625,,3.8,[],科技体验,上海市,上海市,徐汇区
B0LGNRW0AG,上海霄元创新中心,商务住宅;商务住宅相关;商务住宅相关,120000,兴梅路599弄18号,121.424196,31.108667,,[],[],科技体验,上海市,上海市,闵行区
B0JK2ST3EP,前博高科上海(漕河泾)创新创业中心,公司企业;公司企业;公司企业,170000,桂平路680号创业中心大厦,121.402841,31.173766,17278819943,[],[],科技体验,上海市,上海市,徐汇区
B0L3ASU8JX,沪杭协同创新中心,商务住宅;产业园区;产业园区,120100,斜土路与合宝路交叉口西60米,121.464225,31.199525,,[],[],科技体验,上海市,上海市,徐汇区
B0K16X97VN,西克中国本地创新中心,公司企业;公司;公司,170200,友东路与黎安路交叉口东南160米,121.356517,31.122116,,[],[],科技体验,上海市,上海市,闵行区
B0K2O573GF,枫林生物医药创新孵化中心,商务住宅;产业园区;产业园区,120100,枫林路388号枫林国际中心一期B座3F,121.458002,31.190929,,[],[],科技体验,上海市,上海市,徐汇区
B0JU47EE8B,北杨人工智能创新中心·展示中心,科教文化服务;科教文化场所;科教文化场所,140000,老沪闵路1188弄2号(朱梅路地铁站2号口步行100米),121.438565,31.123614,021-64029200,4.5,[],科技体验,上海市,上海市,徐汇区
B0LGKGIQV9,美敦力医疗创新中心,公司企业;公司;公司,170200,田州路99号凤凰园14号楼(虹梅路地铁站6号口步行260米),121.397075,31.162753,,[],[],科技体验,上海市,上海市,徐汇区
B0LA1HACHU,徐汇产业协同创新中心,商务住宅;产业园区;产业园区,120100,漕溪北路18号上实大厦16D,121.437719,31.192681,,[],[],科技体验,上海市,上海市,徐汇区
B0G2Y5SCW4,贝岭8号创新中心,商务住宅;产业园区;产业园区,120100,宜山路810号8号楼,121.406841,31.174120,,[],[],科技体验,上海市,上海市,徐汇区
B0KGDCRYP6,上海颠覆性技术创新中心,科教文化服务;科研机构;科研机构,141300,田林路1015号科技绿洲42号楼401室,121.387716,31.162465,,[],[],科技体验,上海市,上海市,闵行区
B0GUV7USPI,盛虹石化创新中心,公司企业;公司;公司,170200,顾戴路2337号G栋6层(七莘路地铁站5号口步行190米),121.360405,31.129677,021-52276058;021-52276298,[],[],科技体验,上海市,上海市,闵行区
B0KKZ5TJRW,闻天下创新中心停车场库,交通设施服务;停车场;公共停车场,150904,云岭东路539号,121.386085,31.222337,,[],[],科技体验,上海市,上海市,普陀区
B0L6SARKG0,上海具身智能创新中心,公司企业;公司;公司,170200,华鑫慧享城B区7栋,121.408447,31.170938,,[],[],科技体验,上海市,上海市,徐汇区
B0LKNZPBZC,奇瑞全球技术创新中心(上海),汽车销售;汽车销售;汽车销售,020000,老沪闵路1188弄1-2号(朱梅路地铁站3号口步行220米),121.439575,31.122975,,4.4,[],科技体验,上海市,上海市,徐汇区
B0I65HCH26,鱼酷创新中心,生活服务;生活服务场所;生活服务场所,070000,虹漕路461号漕河泾软件大厦F1层,121.406951,31.178439,,4.2,[],科技体验,上海市,上海市,徐汇区
B0K2DHCXEU,从法法律科技创新中心,公司企业;公司;公司|科教文化服务;科教文化场所;科教文化场所,170200|140000,宜山路700号巨人网络大厦F12层(桂林路地铁站5号口旁),121.418383,31.175330,,3.9,[],科技体验,上海市,上海市,徐汇区
B0J33SNCC8,国际院士科技创新中心长三角产业合作促进中心,政府机构及社会团体;政府及社会团体相关;政府及社会团体相关,130000,泸定路276弄7号楼503室,121.387968,31.225548,,[],[],科技体验,上海市,上海市,普陀区
B0J1158Y3L,艾尔建美学上海创新中心,科教文化服务;科教文化场所;科教文化场所,140000,南京西路1788号31层(静安寺地铁站1号口步行180米),121.443816,31.222256,,[],[],科技体验,上海市,上海市,静安区
B0LBRZV9LJ,红杉中国创新孵化中心,商务住宅;产业园区;产业园区,120100,龙耀路与云锦路交叉口东北140米,121.459925,31.163075,,[],[],科技体验,上海市,上海市,徐汇区
B0K399JQZ7,PromatriX创新总部中心,公司企业;公司;公司,170200,虹许路528号尼克互盛大楼1001室,121.393214,31.187767,,[],[],科技体验,上海市,上海市,闵行区
B0LDGH86M4,闵行工业数字化创新中心,商务住宅;产业园区;产业园区,120100,七莘路1189号3号楼,121.366920,31.126563,,[],[],科技体验,上海市,上海市,闵行区
B0LRLNLKP2,马利创新研发中心,公司企业;公司;公司,170200,程家桥路168弄与程家桥路交叉口西南140米,121.371935,31.186911,,[],[],科技体验,上海市,上海市,闵行区
B0K2BY9WYD,上海昇思生态创新中心,公司企业;公司;公司,170200,虹桥镇田林路1015号科技绿洲6期42号楼5楼,121.387528,31.162610,,[],[],科技体验,上海市,上海市,闵行区
B0KKNKXPEY,汾酒文化创新中心,购物服务;专卖店;专营店,061200,古北新区荣华东道126号3楼,121.394314,31.195634,,3.5,[],科技体验,上海市,上海市,长宁区
B0MBBUWFAM,中国科学院分子植物科学卓越创新中心,科教文化服务;科教文化场所;科教文化场所,140000,枫林路与零陵路交叉口西北220米,121.456725,31.193625,,[],[],科技体验,上海市,上海市,徐汇区
B0FFFZJG3B,上海社科国际创新基地,科教文化服务;科研机构;科研机构,141300,柳州路991-993号,121.422470,31.186097,,[],[],科技体验,上海市,上海市,徐汇区
B0G1PMJH2I,上海城市愿景社会创新服务中心,政府机构及社会团体;社会团体;社会团体相关,130400,愚园路500号A103,121.439115,31.222027,,[],[],科技体验,上海市,上海市,静安区
B0L0RC5V55,IDEALAB创新实验室,科教文化服务;培训机构;培训机构,141400,漕宝路33号徐汇日月光中心L3层(漕宝路地铁站8号口旁),121.432340,31.168824,,2.3,[],科技体验,上海市,上海市,徐汇区
B00156O225,华东师范大学普陀校区风险管理与创新中心,科教文化服务;科教文化场所;科教文化场所,140000,金沙江路135号华东师范大学干训楼,121.406140,31.230085,,[],[],科技体验,上海市,上海市,普陀区
B0LKAM8KVP,JMAG竣马克全球创新中心,公司企业;公司;公司,170200,闵虹路166弄中庚环球创意中心T3楼811室,121.395806,31.130932,18321668333,[],[],科技体验,上海市,上海市,闵行区
B0J1ZAC29P,科学创新素质成长中心,科教文化服务;培训机构;培训机构,141400,业祥路32号-B(朱梅路地铁站4号口步行160米),121.436522,31.125517,,4.0,[],科技体验,上海市,上海市,闵行区
B0J3ZAQVMN,上海交大生医工创新转化中心(一期),科教文化服务;科教文化场所;科教文化场所,140000,桂平路333弄1号楼5楼,121.405233,31.161112,,[],[],科技体验,上海市,上海市,徐汇区
B0KUDU9QWK,复旦上医分子生物创新孵化中心,公司企业;公司;公司,170200,肇嘉浜路361号2号楼(嘉善路地铁站5号口步行140米),121.459743,31.201851,,[],[],科技体验,上海市,上海市,徐汇区
B0FFFGMZ5B,复旦大学上海医学院枫林路校区东区脑功能重塑协同创新中心,科教文化服务;学校;高等院校,141201,复旦大学上海医学院(肇嘉浜路地铁站3号口步行240米),121.451909,31.197014,,[],[],科技体验,上海市,上海市,徐汇区
B0LR3RFVZZ,上海优创会·创新创业中心,商务住宅;产业园区;产业园区,120100,宜山路与苍梧路交叉口东160米,121.413997,31.173731,,[],[],科技体验,上海市,上海市,徐汇区
B0KAK7X09Z,新风天域创新研究中心(雷士德医学院旧址),科教文化服务;科教文化场所;科教文化场所,140000,上海和睦家医院(静安院区)1号楼,121.449626,31.228834,,[],[],科技体验,上海市,上海市,静安区
B0FFG957B7,中国科学院脑科学与智能技术卓越创新中心,科教文化服务;科教文化场所;科教文化场所,140000,中国科学院上海生命科学研究院东南门旁,121.451506,31.200209,,[],[],科技体验,上海市,上海市,徐汇区
B0FFHBBIBR,中国科学院植物生理生态研究所,科教文化服务;科研机构;科研机构,141300,枫林路300号(东安路地铁站1号口步行480米),121.456717,31.193648,021-54924000,[],[],科技体验,上海市,上海市,徐汇区
B0L6NZTPQ8,上海融合教育创新中心Shanghai STEMHUB,科教文化服务;科教文化场所;科教文化场所,140000,宜山路1388号民润大厦F4层,121.396225,31.170575,13738055572,[],[],科技体验,上海市,上海市,徐汇区
B0L3HRB1XT,国民健康社会风险预警协同创新中心,科教文化服务;科研机构;科研机构,141300,肇嘉浜路与太原路交叉口西120米,121.455090,31.202209,,[],[],科技体验,上海市,上海市,徐汇区
B0L115LJBZ,普陀创新大厦停车场,交通设施服务;停车场;专用停车场,150905,中宁路与武宁路辅路交叉口南40米,121.413065,31.244714,,[],[],科技体验,上海市,上海市,普陀区
B0L0N9SZRG,中国科学院分子植物科学卓越创新中心4号楼,商务住宅;商务住宅相关;商务住宅相关,120000,枫林路与零陵路交叉口西北220米,121.456675,31.193625,,[],[],科技体验,上海市,上海市,徐汇区
B0K0LXYQIW,乐刻运动健身(中宁路店),体育休闲服务;运动场馆;健身中心,080111,武宁路801号创新大厦2楼(中宁路地铁站3号口步行80米),121.413350,31.244693,18321994821,4.4,2041.00,科技体验,上海市,上海市,普陀区
B0I39ZY125,雅诗兰黛创新研发(中国)有限公司,公司企业;公司;公司,170200,田林路889号漕河泾科技绿洲四期10号楼,121.392524,31.163159,,[],[],科技体验,上海市,上海市,闵行区
B0HKD5ZDMS,上海市徐汇公证处-知识产权公证服务中心暨公证科技创新中心,政府机构及社会团体;公检法机构;公证鉴定机构,130505,虹漕路77号C10栋101室,121.409340,31.172555,,[],[],科技体验,上海市,上海市,徐汇区
B0KUH7DUZO,6789GROUP-复医创新创业中心,公司企业;公司企业;公司企业,170000,肇嘉浜路361号2号楼(嘉善路地铁站5号口步行140米),121.459714,31.201839,,[],[],科技体验,上海市,上海市,徐汇区
B0L057U34Z,智康机器人公司,公司企业;公司;公司,170200,曹杨新村街道武宁路801号普陀创新大厦,121.413325,31.244875,,[],[],科技体验,上海市,上海市,普陀区
B0JRF7SHXQ,闻泰科技,公司企业;公司;公司,170200,云岭东路539号闻天下创新中心1层,121.385445,31.223075,,[],[],科技体验,上海市,上海市,普陀区
B0FFFGNOKU,上海交通大学医学院西区转化医学协同创新中心,科教文化服务;学校;高等院校,141201,重庆南路280号上海交通大学医学院西区,121.470154,31.213108,,[],[],科技体验,上海市,上海市,黄浦区
B001550CWK,上海华彩管理咨询有限公司,公司企业;公司;公司,170200,漕溪北路88号圣爱大厦1805-06室,121.437091,31.191987,021-51699369,[],[],科技体验,上海市,上海市,徐汇区
B0L1Z7O3ZG,天美创新基地,商务住宅;产业园区;产业园区,120100,田林路辅路与虹梅路交叉口西100米,121.398325,31.167275,,[],[],科技体验,上海市,上海市,徐汇区
B0I1X7NS9X,大昌华嘉特色原料部创新实验中心,科教文化服务;科研机构;科研机构,141300,桂平路353-f座202室,121.404986,31.161727,,[],[],科技体验,上海市,上海市,徐汇区
B0M6SY3H9F,拜尔斯道夫创新中心-内部专用地上停车场,交通设施服务;停车场;公共停车场,150904,桂箐路107号拜尔斯道夫创新中心,121.404196,31.176700,,[],[],科技体验,上海市,上海市,徐汇区
B0KD7AVKNI,上海清元网联智能科技有限公司,公司企业;公司;网络科技,170206,同普路602号4号楼上海清华国际创新中心305室,121.384766,31.228038,,[],[],科技体验,上海市,上海市,普陀区
B0H0FCO5HM,iCampus上海国际生命科学创新园,商务住宅;产业园区;产业园区,120100,西藏北路88号盈凯文创广场6层,121.472360,31.242094,,[],[],科技体验,上海市,上海市,静安区
B0JDS4UOWS,安世半导体,公司企业;公司;公司,170200,云岭东路501号闻天下创新中心四层,121.386080,31.222409,,[],[],科技体验,上海市,上海市,普陀区
B0KR9471RD,Manner Coffee(普陀创新大厦店),餐饮服务;咖啡厅;咖啡厅,050500,武宁路801号普陀创新大厦F1层,121.413582,31.244833,,4.2,20.00,科技体验,上海市,上海市,普陀区
B0G2JZI9ZP,安居15号社区公共活动中心,商务住宅;住宅区;社区中心,120304,创新社区服务中心新添寨新竹路11号,121.453515,31.195887,,[],[],科技体验,上海市,上海市,徐汇区
B0FFL2T6KQ,上海普延自控科技有限公司,公司企业;公司;公司,170200,武宁路801号普陀创新大厦F2层,121.413425,31.244675,,[],[],科技体验,上海市,上海市,普陀区
B0M6M7UZ2X,程家桥海程社会创新服务中心,政府机构及社会团体;政府机关;政府机关相关,130100,哈密路与青溪路交叉口东南80米,121.368475,31.194725,,[],[],科技体验,上海市,上海市,长宁区
B0JK6S55D4,上海交通大学终身教育学院(干部培训创新中心),科教文化服务;学校;成人教育,141205,法华镇535号,121.425225,31.205175,,[],[],科技体验,上海市,上海市,长宁区
B0M64CJ291,碧海创新孵化器,商务住宅;产业园区;产业园区,120100,金沙江路1518弄2号近铁城市广场北座写字楼5楼501,121.382537,31.233122,,[],[],科技体验,上海市,上海市,普陀区
B0LR9NO5I3,第一际国际孵化园,商务住宅;产业园区;产业园区,120100,北京东路与浙江中路交叉口东北60米,121.477076,31.239022,18939924500,[],[],科技体验,上海市,上海市,黄浦区
B0LR0OP6XP,UNITechmyth漕河泾北杨有你创孵化器,商务住宅;产业园区;产业园区|公司企业;公司;公司,120100|170200,华发路与融实路交叉口西南120米,121.442775,31.125825,,[],[],科技体验,上海市,上海市,徐汇区
B0LKPC0N6D,统一创新孵化园,商务住宅;产业园区;产业园区,120100,天山西路与淞虹路交叉口西北80米(淞虹路地铁站1号口旁),121.360325,31.218525,,[],[],科技体验,上海市,上海市,长宁区
B0LDV7625K,上海红杉智汇创业孵化器管理有限公司,公司企业;公司;公司,170200,云锦路701号西岸智塔东塔楼,121.459925,31.163075,,[],[],科技体验,上海市,上海市,徐汇区
B0LDBAD3D6,国民孵化园,商务住宅;产业园区;产业园区,120100,虹梅南路与罗锦路交叉口西北160米,121.421686,31.126501,,[],[],科技体验,上海市,上海市,闵行区
B0LBN7U7ZA,万业兴隆孵化器集团,公司企业;公司;公司,170200,世宏金源中心商业楼,121.366599,31.125102,,[],[],科技体验,上海市,上海市,闵行区
B0KRV5J3UI,人形机器人创新孵化器,公司企业;公司;公司,170200,桂果路517号B栋,121.401404,31.166307,,[],[],科技体验,上海市,上海市,徐汇区
B0K1FXHQ2W,中汇医创孵化器,公司企业;公司;公司,170200,小木桥路303号,121.458512,31.197179,,[],[],科技体验,上海市,上海市,徐汇区
B0K0S74JTC,上海信其成创业孵化器管理有限公司,公司企业;公司;公司,170200,明通文化创意产业园三林路88号B区二层210室,121.494065,31.134764,,[],[],科技体验,上海市,上海市,浦东新区
B0K0LZFUKB,UNI Techmyth(漕河泾北杨孵化器),公司企业;公司;公司,170200,北杨人工智能小镇南区2号楼(华发路699弄2号2楼),121.442562,31.126020,,[],[],科技体验,上海市,上海市,徐汇区
B0K0FHG3UW,上海应用技术大学文创孵化园,商务住宅;产业园区;产业园区,120100,柳州路258号,121.424975,31.166603,,[],[],科技体验,上海市,上海市,徐汇区
B0JB55656G,长三角创业汇科技孵化器有限公司,公司企业;公司企业;公司企业,170000,七莘路1599弄平金中心1号楼1楼,121.362281,31.132474,021-55089999,[],[],科技体验,上海市,上海市,闵行区
B0FFH2P18I,起跑线创业孵化器股份有限公司,公司企业;公司;公司,170200,99旅馆上海莘东路店西南门旁,121.375978,31.110560,021-61281534;021-61281568,[],[],科技体验,上海市,上海市,闵行区
B0FFH17XDQ,国家级科技企业孵化器,公司企业;公司;公司,170200,钦州路100号上海市科技创业中心F1层,121.431156,31.160460,,[],[],科技体验,上海市,上海市,徐汇区
B0FFGFBBDM,新联坊孵化园,商务住宅;产业园区;产业园区,120100,宣化路290号,121.424244,31.217379,021-52383226,[],[],科技体验,上海市,上海市,长宁区
B0FFF0769X,谈家28国家级孵化园区3号楼,公司企业;公司;公司,170200,西谈家渡路109弄1-4号西谈家渡路109弄小区,121.422075,31.234375,,3.9,[],科技体验,上海市,上海市,普陀区
B001520CFA,徐家汇青年创业孵化园区,商务住宅;产业园区;产业园区,120100,南丹东路106号,121.442801,31.189583,,[],[],科技体验,上海市,上海市,徐汇区
B00157I2BR,宝南商务中心,商务住宅;楼宇;商务写字楼,120201,宝南路58号,121.359973,31.151543,021-51109659,[],[],科技体验,上海市,上海市,闵行区
B0FFFA08JL,昭化德必易园,商务住宅;产业园区;产业园区,120100,昭化路357号,121.424196,31.212280,021-62524267,[],[],科技体验,上海市,上海市,长宁区
B0FFHP5LHH,金汇德必易园,商务住宅;产业园区;产业园区,120100,吴中路1366号,121.376610,31.175894,021-51001919,[],[],科技体验,上海市,上海市,闵行区
B0FFHIB4SS,WeWork中国(威海路社区店),公司企业;公司企业;公司企业|生活服务;生活服务场所;生活服务场所,170000|070000,威海路696号1层,121.457949,31.226706,4000769968,4.5,[],科技体验,上海市,上海市,静安区
B0JDRUJTBQ,WeWork中国(国际传媒港社区店),公司企业;公司企业;公司企业,170000,龙文路69号国际传媒港M2栋3层,121.463297,31.159858,4000769968,4.5,[],科技体验,上海市,上海市,徐汇区
B0FFLHSCX9,枭林·梦工厂,商务住宅;楼宇;商务写字楼,120201,新郁路258号(丰庄地铁站2号口步行440米),121.359075,31.244824,13585812626,4.4,929.00,科技体验,上海市,上海市,嘉定区
B0FFI0AZD0,WeWork中国(淮海中路627号社区店),生活服务;中介机构;中介机构,071600,淮海中路627号4层,121.466602,31.219805,4000769968,4.5,[],科技体验,上海市,上海市,黄浦区
B0FFJV923B,WeWork中国(复兴中路社区店),公司企业;公司;公司,170200,复兴中路1237号5层,121.458181,31.212517,4000769968,4.5,[],科技体验,上海市,上海市,徐汇区
B0FFH10FRS,WeWork中国(延平路社区店),公司企业;公司;公司|生活服务;生活服务场所;生活服务场所,170200|070000,延平路135号B座2层,121.440684,31.229301,4000769968,4.5,[],科技体验,上海市,上海市,静安区
B0FFKFWEVF,WeWork中国(利丰广场社区店),商务住宅;楼宇;商务写字楼|公司企业;公司企业;公司企业,120201|170000,宜山路2000号利丰广场2号楼,121.387031,31.167727,4000769968,4.4,[],科技体验,上海市,上海市,闵行区
B0FFMDR47X,WeWork中国(西康路社区店),购物服务;购物相关场所;购物相关场所,060000,西康路608号3层,121.446407,31.235121,4000769968,4.5,[],科技体验,上海市,上海市,静安区
B0FFJP98WB,WeWork中国(昌平大厦社区店),生活服务;生活服务场所;生活服务场所|公司企业;公司企业;公司企业,070000|170000,昌平路363号6层,121.448757,31.236474,4000769968,4.5,[],科技体验,上海市,上海市,静安区
B0FFJXTQZI,WeWork中国(南京西路社区店),生活服务;生活服务场所;生活服务场所|商务住宅;商务住宅相关;商务住宅相关,070000|120000,南京西路819号中创大厦3层,121.461000,31.230570,4000769968,4.4,[],科技体验,上海市,上海市,静安区
B0LUV7CMZO,WeWork中国(上海广场社区店),公司企业;公司;公司|生活服务;生活服务场所;生活服务场所,170200|070000,淮海中路138号上海广场四层,121.477803,31.225097,4000769968,4.5,[],科技体验,上海市,上海市,黄浦区
B0FFHSI8JD,WeWork中国(延安东路社区店),公司企业;公司;公司|生活服务;生活服务场所;生活服务场所,170200|070000,延安东路588号1期2层,121.480790,31.230711,4000769968,4.5,[],科技体验,上海市,上海市,黄浦区
B0FFK32FK0,WeWork中国(湖南路社区店),商务住宅;商务住宅相关;商务住宅相关,120000,湖南路328号1层,121.437935,31.208572,4000769968,4.5,[],科技体验,上海市,上海市,徐汇区
B0FFJER1VE,WeWork中国(越商大厦社区店),商务住宅;商务住宅相关;商务住宅相关,120000,武宁南路1号越商广场3层,121.437176,31.225538,4000769968,4.3,[],科技体验,上海市,上海市,静安区
B0FFL5PH8P,WeWork中国(上海招商局广场社区店),公司企业;公司;公司,170200,成都北路333号招商局广场3层,121.466485,31.227967,4000769968,4.4,[],科技体验,上海市,上海市,静安区
B0FFIOTHK1,WeWork中国(国贸汇社区店),商务住宅;商务住宅相关;商务住宅相关|生活服务;生活服务场所;生活服务场所,120000|070000,华山路1901号国贸汇一期A座9层,121.437305,31.198066,4000769968,4.4,[],科技体验,上海市,上海市,徐汇区
B0FFJBWWXW,WeWork中国(中海国际中心社区店),公司企业;公司;公司|生活服务;生活服务场所;生活服务场所,170200|070000,黄陂南路838号中海国际中心B座18层,121.477098,31.211984,4000769968,4.4,[],科技体验,上海市,上海市,黄浦区
B0FFK19UCU,WeWork中国(世纪商贸广场社区店),商务住宅;商务住宅相关;商务住宅相关,120000,长乐路989号世纪商贸广场8层,121.447059,31.215359,4000769968,4.4,[],科技体验,上海市,上海市,徐汇区
B00156O74G,徐汇德必易园,商务住宅;产业园区;产业园区,120100,石龙路345弄之23-27号,121.441822,31.153426,021-34282135;021-62335008,[],[],科技体验,上海市,上海市,徐汇区
B0K6CZX2HA,Meet空间(金沙江路店),生活服务;生活服务场所;生活服务场所,070000,金沙江路930号华大科技园E1栋3-6层,121.394905,31.232982,13621774643;15121154299;4009923458,[],[],科技体验,上海市,上海市,普陀区
B0FFIWUR60,会议室租赁留白空间(港泰广场店),公司企业;公司;公司,170200,延安东路700号港泰广场F24层,121.479256,31.229713,13585715401,4.7,[],科技体验,上海市,上海市,黄浦区
B0FFKSU9VV,WeWork中国(尚嘉中心社区店),购物服务;购物相关场所;购物相关场所,060000,仙霞路99号尚嘉中心18层,121.407186,31.205662,4000769968,4.3,[],科技体验,上海市,上海市,长宁区
B0HGR5OBO3,黄浦区企业服务共享空间,公司企业;公司;公司|生活服务;生活服务场所;生活服务场所,170200|070000,斜土东路128号,121.489624,31.207943,021-53860103;17721243932,4.4,[],科技体验,上海市,上海市,黄浦区
B0FFM9K43S,Spaces(无限极大厦),公司企业;公司企业;公司企业|购物服务;购物相关场所;购物相关场所,170000|060000,湖滨路168号无限极大厦26-27楼,121.477702,31.220770,4001200048,4.4,[],科技体验,上海市,上海市,黄浦区
B0FFJME5X7,城开YOYO联合办公,商务住宅;楼宇;商务写字楼,120201,天钥桥路123号城开YOYO5-6层,121.442169,31.192475,,4.5,[],科技体验,上海市,上海市,徐汇区
B0J2HCGS2M,鸿运大厦·共享办公·联合办公·办公室租赁,商务住宅;楼宇;商务写字楼,120201,武宁路501号鸿运大厦7、8楼,121.415722,31.243813,18616221611,4.2,[],科技体验,上海市,上海市,普陀区
B0IDR5ICY8,创富港·共享办公·联合办公·办公室租赁(康宁商厦),生活服务;生活服务场所;生活服务场所,070000,中华路1359号康宁商厦3、4、7楼,121.486223,31.217488,16675141270,4.1,[],科技体验,上海市,上海市,黄浦区
B0H60ZIVI5,创富港上海莘庄联合办公空间,公司企业;公司;公司,170200,莘北路505号莘庄文创中心4-5层,121.364230,31.110608,13402182051,[],[],科技体验,上海市,上海市,闵行区
B0FFHKN4W7,Paper淮海联合办公空间,商务住宅;商务住宅相关;商务住宅相关,120000,淮海中路622弄8号(淮海中路地铁站1号口步行270米),121.466440,31.220541,021-53099277;13564597124,4.0,[],科技体验,上海市,上海市,黄浦区
B00155ISG6,欧星实业,公司企业;公司企业;公司企业,170000,泸定路与真江路交叉口西北160米,121.387771,31.234074,17701836133,[],[],科技体验,上海市,上海市,普陀区
B0LDFUR2PN,安玥空间·安玥Space,商务住宅;商务住宅相关;商务住宅相关,120000,泰康路200弄5号楼,121.469531,31.208376,,[],[],科技体验,上海市,上海市,黄浦区
B0FFH0ZN9G,创富港·共享办公·联合办公·办公室租赁(统一企业广场),生活服务;生活服务场所;生活服务场所,070000,天山西路568号统一企业广场6-9楼,121.360804,31.219257,16675141270,4.0,[],科技体验,上海市,上海市,长宁区
B0L2X7Y0N7,雷格斯租赁(上海力波中心),公司企业;公司;公司,170200,虹梅南路379弄8幢28号楼(力波中心东塔)3-4楼,121.413797,31.133863,4001200048,4.2,[],科技体验,上海市,上海市,闵行区
B0K1AHKBOL,高格(汇能大悦中心店),餐饮服务;茶艺馆;茶艺馆,050600,海宁路1155号902A室,121.473221,31.244658,15317725389,4.1,[],科技体验,上海市,上海市,静安区
B0L2X7Y7MV,雷格斯租赁(恒隆广场中心),公司企业;公司企业;公司企业,170000,南京西路1266号恒隆广场2幢15层,121.453003,31.228118,4001200048,4.0,[],科技体验,上海市,上海市,静安区
B0FFH7VV08,创富港众创空间(汇阳广场店),公司企业;公司;公司,170200,田林东路55号汇阳广场11层,121.433499,31.174223,17621708239,[],[],科技体验,上海市,上海市,徐汇区
B0H065E54S,创富港 (宝鼎大厦店),公司企业;公司;公司,170200,徐家汇路550号宝鼎大厦F15层,121.470441,31.206199,16675141270,3.9,[],科技体验,上海市,上海市,黄浦区
B0FFM3WEG0,目林联合办公COHESION(浦东环球都会空间),公司企业;公司;公司,170200,耀元路58号环球都会广场1号楼2层,121.471892,31.170031,,[],[],科技体验,上海市,上海市,浦东新区
B0FFGHDRCJ,德必上海书城,公司企业;公司;公司,170200,九江路501号德必WE国际文化创意中心外滩F1层,121.481918,31.235611,,[],[],科技体验,上海市,上海市,黄浦区
B0FFKJYUU1,雷格斯租赁(嘉地中心),公司企业;公司企业;公司企业,170000,北京西路968号嘉地中心11层,121.456389,31.231300,4001200048,4.0,[],科技体验,上海市,上海市,静安区
B0L2X7Y0N3,雷格斯(长风中心),生活服务;生活服务场所;生活服务场所,070000,同普路339弄1号楼21层,121.390235,31.227487,4001200048,3.9,[],科技体验,上海市,上海市,普陀区
B0L2X7YF2J,雷格斯租赁(上海龙之梦中心),公司企业;公司企业;公司企业|生活服务;生活服务场所;生活服务场所,170000|070000,长宁路1018号龙之梦大厦24楼,121.417085,31.219017,4001200048,3.9,[],科技体验,上海市,上海市,长宁区
B0FFKJYUUC,雷格斯(上海来福士中心),公司企业;公司;公司,170200,西藏中路268号来福士商务楼51层,121.476656,31.233041,4001200048,3.8,[],科技体验,上海市,上海市,黄浦区
B0LGLROW6Q,上海珞博智能科技有限公司,公司企业;公司;公司,170200,华发路699弄2号UNI Techmyth漕河泾北杨孵化器四楼P办公室,121.442565,31.126050,15221080570,[],[],科技体验,上海市,上海市,徐汇区
B0FFLFL0DF,Spaces(上海凯滨国际),公司企业;公司;公司,170200,凯滨路199号凯滨国际大厦B1下沉阳光庭院,121.454876,31.182625,4001200048,4.1,[],科技体验,上海市,上海市,徐汇区
B0LGZDVQLO,雷格斯(上海长宁来福士中心),生活服务;生活服务场所;生活服务场所,070000,"长宁路1193号长宁来福士T3,22楼",121.413902,31.216663,4001200048,4.0,[],科技体验,上海市,上海市,长宁区
B0J22U0VL7,锦江优采空间,科教文化服务;科教文化场所;科教文化场所,140000,龙漕路222号B号楼(龙漕路地铁站4号口步行170米),121.443396,31.169220,,[],[],科技体验,上海市,上海市,徐汇区
B0L2X7Y0N5,雷格斯(嘉宁国际中心),生活服务;生活服务场所;生活服务场所,070000,延安西路500号嘉宁国际大厦27楼,121.436321,31.217144,4001200048,3.7,[],科技体验,上海市,上海市,长宁区
B0FFKJYUTX,雷格斯(上海淮海国际中心),公司企业;公司企业;公司企业,170000,淮海中路1045号淮海国际广场28层,121.456298,31.215009,4001200048,3.8,[],科技体验,上海市,上海市,徐汇区
B0FFIB33YR,雷格斯(鸿祥大厦中心),公司企业;公司企业;公司企业,170000,黄河路21号鸿祥大厦11楼,121.470980,31.233641,4001200048,3.8,[],科技体验,上海市,上海市,黄浦区
B0L3JCEJN8,雷格斯(上海港陆广场),生活服务;生活服务场所;生活服务场所,070000,西藏中路18号港陆广场14F,121.478618,31.229300,4001200048,3.6,[],科技体验,上海市,上海市,黄浦区
B0FFG8HRP4,虹桥德必易园园区入口,公司企业;公司;公司,170200,吴中路1189号虹桥德必易园一楼,121.384217,31.175798,021-64308691,[],[],科技体验,上海市,上海市,闵行区
B0L0LXBU05,创富港联合办公莘庄182号店,公司企业;公司;公司,170200,七莘路182号,121.378554,31.112455,13162836001,[],[],科技体验,上海市,上海市,闵行区
B0FFIDQ3IV,与联·联合办公(露香园店),购物服务;专卖店;专营店|公司企业;公司;公司,061200|170200,人民路845号2楼(豫园地铁站4号口步行340米),121.484412,31.226902,17807514979,4.4,[],科技体验,上海市,上海市,黄浦区
B0JAR5ULRM,创易达·联合办公,公司企业;公司企业;公司企业,170000,金沙江路1628号绿洲中环中心1号楼3层,121.379546,31.233225,13061791888;13167020816,4.1,[],科技体验,上海市,上海市,普陀区
B0L29ZR1XB,雷格斯(亚洲大厦中心),生活服务;生活服务场所;生活服务场所,070000,九江路663号13层,121.477932,31.234251,4001200048,3.7,[],科技体验,上海市,上海市,黄浦区
B0JBXASCLK,绿地中心·氢办公管理中心,公司企业;公司;公司,170200,龙华中路600号绿地中心507A单元,121.458786,31.186323,13122108231,[],[],科技体验,上海市,上海市,徐汇区
B0KUG5RGCE,创富港·共享办公·联合办公·办公室租赁(中关村科技大厦),生活服务;生活服务场所;生活服务场所,070000,中山北路2911号中关村科技大厦主楼5层、8层,121.416617,31.240676,16675141270,4.2,[],科技体验,上海市,上海市,普陀区
B0KDC5O44F,创氪际,商务住宅;楼宇;楼宇相关,120200,沪闵路7399号啦啦荟城5F,121.402028,31.130568,,[],[],科技体验,上海市,上海市,闵行区
B0L025NCGD,Doplin多普林(华旭国际大厦分店),购物服务;专卖店;专营店,061200,九江路769号11层(人民广场地铁站14号口步行140米),121.475924,31.233649,13371801337;13661869961,[],[],科技体验,上海市,上海市,黄浦区
B0FFKTC5T4,527办公空间,公司企业;公司;公司|生活服务;生活服务场所;生活服务场所,170200|070000,云锦路500号绿地汇中心A座3楼,121.457819,31.165448,13311821778,4.5,[],科技体验,上海市,上海市,徐汇区
B0L0YC6LS8,IMMI,购物服务;服装鞋帽皮具店;服装鞋帽皮具店,061100,MOHO办公楼16层1606室,121.447956,31.237366,,2.5,[],科技体验,上海市,上海市,静安区
B0H2H1L0F1,有光滨江联合办公,公司企业;公司;公司,170200,制造局路833弄23号C座,121.487280,31.199602,18918077067,4.4,[],科技体验,上海市,上海市,黄浦区
B0M6FHZ7LE,创富港联合办公(长风公园店),商务住宅;楼宇;商务写字楼,120201,大渡河路与云岭东路交叉口北180米,121.396025,31.225525,,2.9,[],科技体验,上海市,上海市,普陀区
B0FFI90JHH,德事商务中心(企业天地中心),商务住宅;楼宇;商务写字楼,120201,湖滨路150号企业天地五号楼23楼25楼,121.478967,31.220987,021-80135388,[],[],科技体验,上海市,上海市,黄浦区
B0K1JCELGY,上海浦东新区水闸管理事务中心小黄浦泵闸,政府机构及社会团体;政府机关;政府机关相关,130100,前滩大道316弄1-2号,121.470647,31.153842,,[],[],科技体验,上海市,上海市,浦东新区
B0I02AFCE4,琛海皮革(东苑古龙城1期店),购物服务;专卖店;专营店,061200,古龙路47号-1号,121.405510,31.151545,021-63088908;13310162983,3.8,[],科技体验,上海市,上海市,闵行区
B0I1GZV9VD,德事商务中心(瑞安广场中心),商务住宅;楼宇;商务写字楼,120201,淮海中路333号22楼,121.474094,31.222467,,[],[],科技体验,上海市,上海市,黄浦区
B0KA35NA0F,MEOffice美奥菲思联合办公会议工位租赁(石油天然气大厦店),公司企业;公司企业;公司企业,170000,新闸路1136弄1号楼石油天然气大厦8F,121.453894,31.233113,13916984158,[],[],科技体验,上海市,上海市,静安区
B0FFHXC431,创富港联合办公(大吉地世贸大厦店),购物服务;家电电子卖场;数码电子|公司企业;公司;公司,060306|170200,定西路657号8楼,121.423634,31.206475,13764582643,4.3,[],科技体验,上海市,上海市,长宁区
B0FFJKH3C5,FUNWORK·联合办公(环球港店),公司企业;公司企业;公司企业,170000,中山北路3300号环球港B座15-16楼,121.413055,31.232782,4000181516,[],[],科技体验,上海市,上海市,普陀区
B0KAU5FCB1,合道健康管理护眼中心,医疗保健服务;医疗保健服务场所;医疗保健服务场所,090000,汇龙花苑西北门东150米(龙华地铁站2号口步行330米),121.449212,31.171689,,[],[],科技体验,上海市,上海市,徐汇区
B0FFMGRJ3M,创富港·共享办公·联合办公·办公室租赁(石油天然气大厦店),公司企业;公司;公司,170200,新闸路1136弄1号石油天然气大厦F10层,121.453902,31.233121,15900439107;18721355497,[],[],科技体验,上海市,上海市,静安区
B0J1KUBEOQ,上海文华化工颜料有限公司,公司企业;公司;冶金化工,170205,浙江中路400号907室,121.478196,31.236105,021-63238870,[],[],科技体验,上海市,上海市,黄浦区
B0M62HV824,CCSPACE·联合办公(仙乐斯广场店),商务住宅;楼宇;商务写字楼,120201,南京西路与新昌路交叉口西120米,121.468989,31.231540,,2.4,[],科技体验,上海市,上海市,黄浦区
B0HRVASA6D,梦想加空间(长寿路189店),商务住宅;楼宇;商务写字楼|公司企业;公司;公司|生活服务;生活服务场所;生活服务场所,120201|170200|070000,长寿路189号6-7层(地铁站3口步行250米),121.440452,31.242261,4009925909,[],[],科技体验,上海市,上海市,普陀区
B0M6XMOETB,CCSPACE·联合办公(日月光中心店),商务住宅;楼宇;商务写字楼,120201,徐家汇路与打浦路交叉口西100米,121.468775,31.205825,,2.9,[],科技体验,上海市,上海市,黄浦区
B0KA35OK5J,MEOffice美奥菲思联合办公会议工位租赁(静安上海商城店),公司企业;公司企业;公司企业,170000,南京西路1376号西楼604,121.451308,31.226820,13916984158,[],[],科技体验,上海市,上海市,静安区
B0FFIBX4WL,ShinApollo阿波罗联合办公空间(古北中心),公司企业;公司;公司,170200,古北路666号嘉麒大厦F4层,121.399552,31.205451,,[],[],科技体验,上海市,上海市,长宁区
B0JDPGJ099,KB联合办公,公司企业;公司;公司,170200,通协路269号建滔商业广场F2层,121.355375,31.225875,,[],[],科技体验,上海市,上海市,长宁区
B0FFIBW3CJ,ShinApollo阿波罗联合办公空间(淮海中心),公司企业;公司;公司,170200,瑞金一路139号复兴商厦4层(近长乐路),121.463682,31.220972,4008835600,[],[],科技体验,上海市,上海市,黄浦区
B0H1XR69PZ,优客工场(凯腾大厦店),公司企业;公司;公司,170200,云南南路118号(大世界地铁站5号口旁),121.480616,31.227391,13917578308,[],[],科技体验,上海市,上海市,黄浦区
B0I0L47XG5,OCEA-HUB英美华联合办公,公司企业;公司;公司,170200,东兰路238号古美创智中心F3层,121.401728,31.157989,,[],[],科技体验,上海市,上海市,闵行区
B0FFF00795,雷格斯服务式办公室(中金国际广场17层),公司企业;公司企业;公司企业,170000,漕溪北路331号中金国际广场17楼,121.439208,31.190601,021-24225288,[],[],科技体验,上海市,上海市,徐汇区
B0FFM5GOCC,FUNWORK联合办公(旺旺大厦店),商务住宅;楼宇;商务写字楼|公司企业;公司;公司,120201|170200,石门一路211号旺旺大厦2、3、6楼,121.462208,31.227894,021-61151098;021-62726898,3.9,[],科技体验,上海市,上海市,静安区
B0J2UGQO8B,J·Tree吉树办公空间(MOHO SHANGHAI店),购物服务;购物相关场所;购物相关场所,060000,陕西北路936号MOHO办公室F9层,121.447970,31.237368,021-68820888,3.9,[],科技体验,上海市,上海市,静安区
B0I19UU6DD,豌豆众创空间·联合办公空间(静安永兴商务楼店),公司企业;公司;公司|商务住宅;商务住宅相关;商务住宅相关,170200|120000,延安西路376弄22号永兴商务楼F9层,121.437825,31.218875,13391381352,[],[],科技体验,上海市,上海市,静安区
