id,name,type,typecode,address,lng,lat,tel,rating,cost,group,pname,cityname,adname
B00155QX3E,汇佳桌游剧本咖啡馆(万体馆旗舰店),体育休闲服务;娱乐场所;棋牌室|餐饮服务;咖啡厅;咖啡厅,080306|050500,斜土路2899号(上海体育场地铁站3号口步行240米),121.441288,31.184643,18621781788,4.5,42.00,社交餐饮|体育休闲,上海市,上海市,徐汇区
B0G2AOD6F7,消失的密室(光启城店),餐饮服务;咖啡厅;咖啡厅|体育休闲服务;娱乐场所;娱乐场所,050500|080300,古宜路110-128号2层,121.425694,31.186278,13162555820,4.3,26.00,社交餐饮|体育休闲,上海市,上海市,徐汇区
B0FFF90GSL,上海市司法局老干部活动中心,体育休闲服务;休闲场所;休闲场所,080500,中山西路1538号,121.421871,31.187587,,[],[],生活服务|体育休闲,上海市,上海市,徐汇区
B0I2JU5601,上海飞机制造有限公司老干部活动室,体育休闲服务;休闲场所;休闲场所,080500,中山南二路988弄龙山新村21号丙,121.444840,31.183457,,[],[],生活服务|体育休闲,上海市,上海市,徐汇区
B0FFFGMWV3,光明食品有限公司老干部活动中心,体育休闲服务;休闲场所;休闲场所,080500,定西路710弄59、63号、67号云阳花苑59号楼,121.425566,31.207030,,[],[],生活服务|体育休闲,上海市,上海市,长宁区
B00154IBPC,上海市建设系统老干部活动室,体育休闲服务;休闲场所;休闲场所,080500,高安路57-1号附近(衡山路地铁站1号口步行210米),121.445966,31.202532,,[],[],生活服务|体育休闲,上海市,上海市,徐汇区
B0HRGN8UB0,上海房管局老干部活动中心,体育休闲服务;休闲场所;休闲场所,080500,,121.441660,31.211610,021-64711368,[],[],生活服务|体育休闲,上海市,上海市,徐汇区
B0K03R3PJC,棋葩棋牌(环贸店),体育休闲服务;娱乐场所;棋牌室,080306,复兴中路1199号A座503,121.458872,31.212709,18930825885,4.4,62.00,生活服务|体育休闲,上海市,上海市,徐汇区
B0L1ZOOWG0,小乔台球棋牌俱乐部,体育休闲服务;运动场馆;台球厅,080113,泰康路288B1(打浦桥地铁站1号口步行60米),121.467977,31.207521,,4.4,[],生活服务|体育休闲,上海市,上海市,黄浦区
B0I1TZ74DO,赛奇艺棋牌,体育休闲服务;娱乐场所;棋牌室,080306,打浦路22号3楼(打浦桥地铁站2号口步行110米),121.469688,31.204883,13601881166,4.3,46.00,生活服务|体育休闲,上海市,上海市,黄浦区
B0JALB06A3,旗葩社·棋牌会所,体育休闲服务;娱乐场所;棋牌室,080306,徐家汇路与瑞金南路交叉口西北40米,121.466632,31.205266,021-64725635,4.3,60.00,生活服务|体育休闲,上海市,上海市,黄浦区
B00155IC2M,新新桌球棋牌(瑞金南路店),体育休闲服务;运动场馆;台球厅,080113,瑞金南路1海兴广场美食广场4层,121.467925,31.204625,,4.1,44.00,生活服务|体育休闲,上海市,上海市,黄浦区
B0KBSU8XCO,五星荟棋牌,体育休闲服务;娱乐场所;游戏厅,080305,襄阳南路485号2楼202室,121.458415,31.204552,13671959842,4.4,51.00,生活服务|体育休闲,上海市,上海市,徐汇区
B0GKPHWCL6,桐乐汇棋牌室,体育休闲服务;娱乐场所;棋牌室,080306,肇嘉浜路333号2层(嘉善路地铁站5号口旁),121.460375,31.202075,13801680371,4.4,39.00,生活服务|体育休闲,上海市,上海市,徐汇区
B0L6U70VUU,龙小主24H共享自助棋牌(斜土路店),体育休闲服务;娱乐场所;棋牌室,080306,斜土路1223号(之俊大厦主楼),121.464164,31.199526,19921248636,4.3,41.00,生活服务|体育休闲,上海市,上海市,徐汇区
B0FFGPU6SA,永利汇雀牌,体育休闲服务;娱乐场所;棋牌室,080306,大木桥路360号3层(大木桥路地铁站4号口步行320米),121.462035,31.196736,021-64220588,4.3,47.00,生活服务|体育休闲,上海市,上海市,徐汇区
B0HKG1LARX,棋葩棋牌(五洲国际大厦店),体育休闲服务;娱乐场所;棋牌室,080306,肇嘉浜路807号五洲国际大厦2001,121.447824,31.197905,13122881116,4.4,36.00,生活服务|体育休闲,上海市,上海市,徐汇区
B0JA2AB74Y,隐月湖,体育休闲服务;娱乐场所;棋牌室,080306,枫林路街道小木桥路608号,121.461863,31.190763,13381763548,4.3,67.00,生活服务|体育休闲,上海市,上海市,徐汇区
B0K2NS2TON,稻荷日麻社,体育休闲服务;娱乐场所;游戏厅,080305,肇嘉浜路807路五洲国际大厦2402,121.447840,31.197827,18131837736,4.4,42.00,生活服务|体育休闲,上海市,上海市,徐汇区
B0H35R40SM,雀燊棋牌(长峰中心店),体育休闲服务;娱乐场所;棋牌室,080306,延安西路1088号长峰中心F4层,121.430865,31.211660,021-55966333;13072131131,4.3,57.00,生活服务|体育休闲,上海市,上海市,长宁区
B0I3VMD6MA,雀王棋牌俱乐部(徐汇一店),体育休闲服务;娱乐场所;棋牌室,080306,徐家汇天钥桥路93号7楼(交通银行侧边),121.441837,31.193124,13162625981,4.4,66.00,生活服务|体育休闲,上海市,上海市,徐汇区
B0G2M1Z21Y,星雀汇棋牌室,体育休闲服务;娱乐场所;棋牌室,080306,枫林路街道宛平南路389弄1-3号辉煌公寓,121.448146,31.190981,021-64229989;15001876786,4.4,49.00,生活服务|体育休闲,上海市,上海市,徐汇区
B0LDL7LWI5,君安·棋牌·茶馆(徐家汇店),体育休闲服务;娱乐场所;棋牌室,080306,南丹东路255号6楼(徐家汇地铁站2号口步行130米),121.438761,31.189435,15618777686,4.5,75.00,生活服务|体育休闲|独处品质空间,上海市,上海市,徐汇区
B0FFH15V75,休闲棋牌(龙华中路),体育休闲服务;娱乐场所;棋牌室,080306,龙华中路与枫林路交叉口东北160米,121.462858,31.187358,15000042281,4.5,55.00,生活服务|体育休闲,上海市,上海市,徐汇区
B0JD6L45Q1,濠雀荟棋牌(南丹东路店),体育休闲服务;娱乐场所;棋牌室,080306,南丹东路108号4楼,121.442563,31.189813,19821889100,4.4,48.00,生活服务|体育休闲,上海市,上海市,徐汇区
B0JRM5J62X,听三万棋牌室(尚海湾3期尚湾里店),体育休闲服务;娱乐场所;棋牌室,080306,凯滨路38号阳光滨江天地尚湾里LG层D11-1靠近花园广场,121.461376,31.180933,19301138368,4.4,65.00,生活服务|体育休闲,上海市,上海市,徐汇区
B0KARMETYS,龙小主24H共享棋牌(上生新所店),体育休闲服务;娱乐场所;棋牌室,080306,延安西路1228弄2号嘉利大厦16C,121.427928,31.209700,,4.3,28.00,生活服务|体育休闲,上海市,上海市,长宁区
B0KBBHOPOU,雀禧.棋牌,体育休闲服务;娱乐场所;棋牌室,080306,定西路657号三楼,121.423662,31.206417,15221688880,4.4,52.00,生活服务|体育休闲,上海市,上海市,长宁区
B0KAOLXAEC,龙小主24H共享棋牌室(徐家汇店),体育休闲服务;娱乐场所;棋牌室,080306,徐家汇街道漕溪北路41号汇嘉大厦1608D室,121.439425,31.192156,,4.4,45.00,生活服务|体育休闲,上海市,上海市,徐汇区
B0JD374873,幺幺发自助麻将社(英雄大厦店),体育休闲服务;娱乐场所;棋牌室,080306,斜土路英雄大厦2204室,121.442339,31.186097,15795752204,4.4,27.00,生活服务|体育休闲,上海市,上海市,徐汇区
B0JRMODNB4,新晔雀馆·棋牌(徐汇店),体育休闲服务;娱乐场所;棋牌室,080306,虹桥路618号3层,121.427178,31.193675,15000227723,4.5,72.00,生活服务|体育休闲,上海市,上海市,徐汇区
B00155KXX1,天圣游艺,体育休闲服务;娱乐场所;游戏厅,080305,天钥桥路218号三楼,121.442087,31.190843,021-64380232,4.4,39.00,生活服务|体育休闲,上海市,上海市,徐汇区
B0JK6761PI,棋星高棋牌,体育休闲服务;娱乐场所;棋牌室,080306,天钥桥路329号101-102室,121.443272,31.188499,13524667999;15345661616,4.3,75.00,生活服务|体育休闲,上海市,上海市,徐汇区
B0JRURWQN5,牛麻麻棋牌(徐家汇店),体育休闲服务;娱乐场所;棋牌室,080306,南丹东路300弄9亚都商务楼F15层,121.438484,31.188558,17278888981;18257060317,4.4,47.00,生活服务|体育休闲,上海市,上海市,徐汇区
B0JUFYLAIJ,开禧739·棋牌茶室,体育休闲服务;娱乐场所;棋牌室,080306,漕溪北路739号4楼(上海体育馆地铁站1号口步行280米),121.437405,31.184731,19370560739,4.5,163.00,生活服务|体育休闲|独处品质空间,上海市,上海市,徐汇区
B0LGALO8PQ,麻上起飛棋牌室,体育休闲服务;娱乐场所;棋牌室,080306,亚都商务楼南丹东路300弄9号10层1001-1003室,121.438453,31.188655,13601875136,4.6,43.00,生活服务|体育休闲,上海市,上海市,徐汇区
B0KUAL10OK,暴立熊棋牌,体育休闲服务;娱乐场所;棋牌室,080306,天钥桥路438号502室,121.441845,31.187184,17317695119,4.4,54.00,生活服务|体育休闲,上海市,上海市,徐汇区
B0FFJY2531,月亮湾棋牌室(中华门大厦店),体育休闲服务;娱乐场所;棋牌室,080306,宜山路520号汉庭酒店二楼(宜山路地铁站9号口步行270米),121.425573,31.181359,13701814688,4.4,57.00,生活服务|体育休闲,上海市,上海市,徐汇区
B0LARD6HAP,雀圣汇棋牌,体育休闲服务;娱乐场所;棋牌室,080306,凯旋路1669号二楼(虹桥路地铁站6号口步行170米),121.421914,31.194878,13052020136;13621813895,4.4,[],生活服务|体育休闲,上海市,上海市,徐汇区
B0LDVO9VGA,龙小主24H麻将棋牌室(飞洲国际店),体育休闲服务;娱乐场所;棋牌室,080306,零陵路899号飞洲国际11L,121.437525,31.183125,19211321511,4.3,28.00,生活服务|体育休闲,上海市,上海市,徐汇区
B0LDZ9V2K8,雀食雀友汇(裕德路店),体育休闲服务;娱乐场所;棋牌室,080306,裕德路126号氪空间1层,121.433375,31.185475,13641763569,4.4,46.00,生活服务|体育休闲,上海市,上海市,徐汇区
B0H1OSRX73,百乐坊雀馆,体育休闲服务;娱乐场所;棋牌室,080306,中山西路1858号207室(宜山路地铁站3号口步行200米),121.425282,31.183136,18117112423,4.4,57.00,生活服务|体育休闲,上海市,上海市,徐汇区
B0I1BYSAM9,鑫乐盛棋牌麻将会所,体育休闲服务;娱乐场所;棋牌室,080306,中山西路2368号华鼎大厦南楼F12层,121.431883,31.180578,13916571704;17621588234,4.2,43.00,生活服务|体育休闲,上海市,上海市,徐汇区
B0FFIPR1XS,来来棋牌(中山西路店),体育休闲服务;娱乐场所;棋牌室,080306,中山西路2368华鼎大厦F3层,121.432030,31.180623,021-64397103,4.0,63.00,生活服务|体育休闲,上海市,上海市,徐汇区
B00155F57K,新华社区文化活动中心(海富公寓1号楼东南),体育休闲服务;休闲场所;休闲场所|生活服务;生活服务场所;生活服务场所,080500|070000,法华镇路453号,121.427038,31.204325,021-52802857,[],[],文化地标|体育休闲,上海市,上海市,长宁区
B0HDVUXPY7,宛平剧院,体育休闲服务;影剧院;剧场,080603,枫林路街道中山南二路857-859号,121.451612,31.185011,021-64392277;021-64691383,4.8,175.00,文化地标|体育休闲,上海市,上海市,徐汇区
B001534B0E,上海越剧院,体育休闲服务;影剧院;剧场,080603,复兴西路10弄16号,121.447557,31.211266,021-64375837,4.4,[],文化地标|体育休闲,上海市,上海市,徐汇区
B00155QH0Z,上海沪剧院,体育休闲服务;影剧院;剧场,080603,淮海中路1889号(沪剧会馆内),121.437434,31.202915,021-62821616;13917903228,4.4,[],文化地标|体育休闲,上海市,上海市,徐汇区
B00155QNQ3,上海星舞台,体育休闲服务;影剧院;剧场,080603,古宜路125号(宜山路地铁站10号口步行460米),121.424316,31.185637,,4.2,[],文化地标|体育休闲,上海市,上海市,徐汇区
B0J2YCROSK,奇雾镇·沉浸剧场(徐汇正大乐城店),体育休闲服务;娱乐场所;娱乐场所,080300,船厂路36号地下一层商业B-38-1号,121.457870,31.186272,13166259475,4.3,340.00,文化地标|体育休闲,上海市,上海市,徐汇区
B0FFG950NW,上剧场(美罗城店),体育休闲服务;影剧院;剧场,080603,肇嘉浜路1111号美罗城5层(地铁1号线徐家汇站10号出口),121.440082,31.192895,,4.7,336.00,文化地标|体育休闲,上海市,上海市,徐汇区
B00156E1II,上海文化广场剧场,体育休闲服务;影剧院;剧场,080603,复兴中路597号,121.462248,31.211934,021-64729000,4.7,455.00,文化地标|体育休闲,上海市,上海市,黄浦区
B0HGDS87KY,薄荷猫·推演剧场(长宁店),体育休闲服务;休闲场所;休闲场所|体育休闲服务;娱乐场所;娱乐场所,080500|080300,延安西路1228弄嘉利大厦2号19G,121.427899,31.209723,13651752023,4.0,221.00,文化地标|体育休闲,上海市,上海市,长宁区
B0KDLHNDXC,星辰阁·沉浸剧场(尚秀商务楼店),体育休闲服务;影剧院;剧场,080603,肇嘉浜路825号尚秀商务楼3号楼2楼,121.447378,31.197560,,4.3,[],文化地标|体育休闲,上海市,上海市,徐汇区
B0KD7NSKHG,上海文化广场音乐剧中心-D空间,体育休闲服务;影剧院;剧场,080603,茂名南路与永嘉路交叉口西北60米,121.463081,31.211356,,4.0,[],文化地标|体育休闲,上海市,上海市,黄浦区
B0FFG8TX4N,上海市滨江滑板公园,风景名胜;公园广场;公园,110101,瑞宁路,121.467781,31.185976,13564262344,4.6,[],风景名胜|体育休闲,上海市,上海市,徐汇区
B0L6U9H1BG,乾堃堂太极文武馆,医疗保健服务;医药保健销售店;药房,090601,宜山路515号新华博库书城一楼1-7,121.425867,31.180303,13501628896,3.5,[],医疗保健|体育休闲,上海市,上海市,徐汇区
B0FFFEK0BT,上海体育场,体育休闲服务;运动场馆;综合体育馆,080101,徐家汇街道天钥桥路666号,121.442030,31.181448,021-64266666,4.9,400.00,体育休闲,上海市,上海市,徐汇区
B00155NIG5,上海体育馆,体育休闲服务;运动场馆;综合体育馆,080101,漕溪北路1111号(上海体育馆地铁站2号口步行140米),121.438321,31.181431,021-64266666,4.9,176.00,体育休闲,上海市,上海市,徐汇区
B001519FFF,卢湾体育馆,体育休闲服务;运动场馆;综合体育馆,080101,肇嘉浜路128号,121.464004,31.204371,021-64451045;021-64675358,4.8,50.00,体育休闲,上海市,上海市,黄浦区
B001556IEG,上海游泳馆,体育休闲服务;运动场馆;游泳馆,080110,中山南二路1300号(上海游泳馆地铁站1号口步行230米),121.440718,31.179125,021-34196900,4.7,34.00,体育休闲,上海市,上海市,徐汇区
B0FFHKDU6C,徐家汇体育公园,体育休闲服务;运动场馆;运动场所,080100,零陵路800号(上海游泳馆地铁站2号口旁),121.440734,31.181297,021-64266666,4.4,[],体育休闲,上海市,上海市,徐汇区
B001524450,徐汇游泳馆(枫林路),体育休闲服务;运动场馆;游泳馆,080110,枫林路329号(近零陵路)(东安路地铁站1号口步行400米),121.457566,31.193415,021-64162756;021-64164838,4.7,42.00,体育休闲,上海市,上海市,徐汇区
B0LUL7AXNI,GOAT攀岩俱乐部(徐家汇TPY中心店),体育休闲服务;运动场馆;运动场所,080100,肇嘉浜路1117号TPY中心八楼,121.439165,31.193015,021-34197883;13370261020,4.6,127.00,体育休闲|银发极客_科技体验,上海市,上海市,徐汇区
B00155L0U4,上海徐汇万体馆,体育休闲服务;运动场馆;综合体育馆|体育休闲服务;影剧院;剧场,080101|080603,漕溪北路1111号(上海体育馆地铁站2号口步行140米),121.438374,31.181445,,4.4,158.00,体育休闲,上海市,上海市,徐汇区
B00155GGA6,卢湾体育场,体育休闲服务;运动场馆;综合体育馆,080101,建国西路135号(嘉善路地铁站2号口步行490米),121.464014,31.205100,021-64672065;021-64675358,4.6,54.00,体育休闲,上海市,上海市,黄浦区
B001574KZG,阿迪达斯徐家汇公园篮球场,体育休闲服务;运动场馆;篮球场馆,080104,肇嘉浜路986号(徐家汇公园内),121.443668,31.198358,15026454743,4.7,[],体育休闲,上海市,上海市,徐汇区
B0FFJHH8VD,Y+瑜伽会所(嘉善路店),体育休闲服务;运动场馆;健身中心,080111,嘉善路307号A01,121.460367,31.206260,15316865091,4.6,1610.00,体育休闲,上海市,上海市,徐汇区
B0IBBAU09L,徐家汇体育公园综合馆,体育休闲服务;运动场馆;运动场所,080100,漕溪北路1111号(上海体育馆地铁站6号口步行360米),121.438204,31.179816,021-34196878,4.5,[],体育休闲,上海市,上海市,徐汇区
B0KGFZ3AOE,PANATTA普拉达健身(西岸中環钻石会所),体育休闲服务;运动场馆;健身中心,080111,瑞宁路258号1幢1层,121.469760,31.189153,021-61674367,4.5,19199.00,体育休闲,上海市,上海市,徐汇区
B0LUBU3DVE,薰风·嗨友羽毛球馆,体育休闲服务;运动场馆;跆拳道场馆,080119,瑞宁路899号上海阳光滨江中心三楼,121.458992,31.180124,18321429313,4.6,[],体育休闲,上海市,上海市,徐汇区
B0LG717PX8,GMJ·24H健身房(徐家汇店),体育休闲服务;运动场馆;健身中心,080111,漕溪北路595号5幢地下一层B区101-102单元,121.438175,31.186875,17621725153,4.4,2127.00,体育休闲,上海市,上海市,徐汇区
B0I2CZ96OH,Mars Pro(大木桥店),体育休闲服务;运动场馆;健身中心,080111,大木桥路588号(大木桥路地铁站5号口旁),121.463467,31.193641,13917907521,4.4,1335.00,体育休闲,上海市,上海市,徐汇区
B0FFHW5K4Q,源8台球俱乐部(绿地缤纷城西区),体育休闲服务;运动场馆;台球厅,080113,东安路562号徐汇绿地缤纷城西区中庭BM层,121.457430,31.183430,,4.4,44.00,体育休闲,上海市,上海市,徐汇区
B0GD5S2JW3,八万人体育馆-外场足球场,体育休闲服务;运动场馆;足球场,080105,零陵路与三角东街交叉口东120米,121.440205,31.182966,,4.4,86.00,体育休闲,上海市,上海市,徐汇区
B0FFM1E7R4,乐刻健身(法华门市店),体育休闲服务;运动场馆;健身中心,080111,法华镇路455号2楼,121.426491,31.204772,13120910534,4.4,1777.00,体育休闲,上海市,上海市,长宁区
B0I0BOEJI4,乐刻运动健身(徐汇亚太精品馆),体育休闲服务;运动场馆;健身中心,080111,大木桥路与肇嘉浜路交叉口西南40米(嘉善路地铁站5号口旁)2楼,121.460615,31.202275,19802198388,4.4,1223.00,体育休闲,上海市,上海市,徐汇区
B0KDURDZ1Z,漠浔健身MOTION(天钥桥路店),体育休闲服务;运动场馆;健身中心,080111,天钥桥路318号,121.441720,31.188978,19921556942,4.4,4613.00,体育休闲,上海市,上海市,徐汇区
B0FFFCTNMZ,上海市徐汇区青少年水上运动学校,体育休闲服务;运动场馆;羽毛球场,080118,枫林路329号(东安路地铁站1号口步行440米),121.457788,31.193361,021-64164838,4.3,[],体育休闲,上海市,上海市,徐汇区
B0K23U0Y39,24/7 FITNESS(徐汇美罗城店),体育休闲服务;运动场馆;健身中心,080111,肇嘉浜路1111号美罗城L4-A3,121.439647,31.192947,15901678827,4.4,2581.00,体育休闲,上海市,上海市,徐汇区
B0LRN5KXXJ,现代丛林健身会所(徐家汇店),体育休闲服务;运动场馆;健身中心,080111,肇嘉浜路955号2楼(徐家汇地铁站14号口步行420米),121.443156,31.195751,18121006801,4.5,4115.00,体育休闲,上海市,上海市,徐汇区
B00155FUP0,星之健身(卢湾店),体育休闲服务;运动场馆;游泳馆|体育休闲服务;运动场馆;健身中心,080110|080111,建国西路135卢湾区体育中心综合楼5层,121.463844,31.207043,021-64666836,4.5,1643.00,体育休闲,上海市,上海市,黄浦区
B0JAS76XZH,斜土社区市民健身中心,体育休闲服务;运动场馆;健身中心,080111,零陵北路1号二楼(大木桥路地铁站1号口步行420米),121.464758,31.197035,13635971138,4.4,81.00,体育休闲,上海市,上海市,徐汇区
B0K0L5TVII,YONEX互动网球馆(万体馆店),体育休闲服务;运动场馆;网球场,080103,斜土路2570号1号楼1楼YONEX互动网球馆,121.445178,31.188106,13361940056,4.4,59.00,体育休闲,上海市,上海市,徐汇区
B0FFJOZL2U,乐刻运动健身(宜山路新华博库店),体育休闲服务;运动场馆;健身中心,080111,宜山路515号博库书城L2-3号,121.425840,31.180606,17721470690,4.4,2022.00,体育休闲,上海市,上海市,徐汇区
B0H01RRHAG,乐刻健身(腾飞广场店),体育休闲服务;运动场馆;健身中心,080111,天钥桥路333号腾飞广场F1层,121.442559,31.188132,15026788106,4.4,1798.00,体育休闲,上海市,上海市,徐汇区
B0H1AA2JWU,珀曼健身(徐汇旗舰店),体育休闲服务;运动场馆;健身中心,080111,宛平南路1188弄13号地下1夹地下1层会所,121.452850,31.181106,15900735873,4.4,2550.00,体育休闲,上海市,上海市,徐汇区
B0I3NRCQOC,SUPER MONKEY 超级猩猩健身(百联徐汇商业广场店),体育休闲服务;运动场馆;健身中心,080111,华山路2038号百联徐汇商业广场4F层,121.437301,31.196779,4009009166,4.3,5999.00,体育休闲,上海市,上海市,徐汇区
B00155HWTO,上海市长宁区长宁网球场,体育休闲服务;运动场馆;网球场,080103,华山路1038弄173号,121.435938,31.212329,021-62524436,4.4,57.00,体育休闲,上海市,上海市,长宁区
B0G30MIXZP,乐刻运动健身(汇京国际广场店),体育休闲服务;运动场馆;健身中心,080111,汇京国际广场B1层24-03,121.423726,31.195710,15800962691,4.4,1515.00,体育休闲,上海市,上海市,徐汇区
B0ID6AXTII,STAR星岩攀岩俱乐部,体育休闲服务;运动场馆;运动场所,080100,凯滨路38号尚湾里沉式广场地下一层A03-3室,121.461606,31.180336,18801738015,4.4,117.00,体育休闲,上海市,上海市,徐汇区
B0FFIJQ9D6,MTHD Fitness,体育休闲服务;运动场馆;健身中心,080111,复兴中路1199号A302,121.458586,31.212601,021-54510003,4.4,2025.00,体育休闲,上海市,上海市,徐汇区
B0K2DYF8DA,Z&B FITNESS(One ITC),体育休闲服务;运动场馆;健身中心,080111,华山路1901号One ITC3层303,121.437749,31.197505,021-54665531,4.4,3700.00,体育休闲,上海市,上海市,徐汇区
B0FFGQEL6O,保利西岸游泳健身会所,体育休闲服务;运动场馆;游泳馆,080110,瑞宁路908弄13号,121.455936,31.180517,17521300354,4.4,423.00,体育休闲,上海市,上海市,徐汇区
B00155IVH5,上海市卢湾体育中心,体育休闲服务;运动场馆;综合体育馆,080101,建国西路135卢湾区体育中心综合楼,121.464232,31.207218,021-64675358,4.4,56.00,体育休闲,上海市,上海市,黄浦区
B0LU2LSZUM,绅仕桌球俱乐部,体育休闲服务;运动场馆;游泳馆,080110,徐家汇路618号日月光中心F5层(打浦桥地铁站1号口旁),121.468331,31.207127,18917295592,4.5,[],体育休闲,上海市,上海市,黄浦区
B0LGURERGJ,FOUNDER FITT健身(上海长宁国际发展中心),体育休闲服务;运动场馆;健身中心,080111,凯旋路1398号(虹桥路地铁站1号口步行190米),121.420805,31.199465,18601786828,4.5,1865.00,体育休闲,上海市,上海市,长宁区
B0LAZRXZ94,健森岛健身(徐汇汉光国际店),体育休闲服务;运动场馆;健身中心,080111,蒲汇塘路100号B1楼,121.433256,31.186654,15901726927,4.5,502.00,体育休闲,上海市,上海市,徐汇区
B0L6KLR0X1,西岸乒羽,体育休闲服务;运动场馆;羽毛球场,080118,瑞宁路899号阳光滨江中心南楼3层,121.458917,31.180051,18756819006,4.4,[],体育休闲,上海市,上海市,徐汇区
B0FFKH5707,VPsmart私教健身工作室(宛平南路店),体育休闲服务;运动场馆;健身中心,080111,宛平南路195号(近辛耕路),121.446241,31.194083,13917594621;15821038546,4.3,267.00,体育休闲,上海市,上海市,徐汇区
B0FFJREDAM,VP·SMART私教健身会所(新华路旗舰店),体育休闲服务;运动场馆;健身中心,080111,新华路62号103室(交通大学地铁站5号口步行300米),121.431223,31.201568,17511691979,4.4,289.00,体育休闲,上海市,上海市,长宁区
B0K0AAFBUZ,乐刻运动健身(飞洲国际广场店),体育休闲服务;运动场馆;健身中心,080111,零陵路899号飞洲国际广场F5层(上海体育馆地铁站1号口旁),121.437433,31.183226,,4.3,[],体育休闲,上海市,上海市,徐汇区
B0G0LCJXOO,Project ONE(徐汇店),体育休闲服务;运动场馆;健身中心,080111,漕溪北路45号(徐家汇地铁站9号口步行170米),121.439996,31.191841,15502166370,4.4,5635.00,体育休闲,上海市,上海市,徐汇区
B0L35KD0YS,WoWTennis沃梧网球,体育休闲服务;运动场馆;网球场,080103,嘉善路与建国西路交叉口南160米,121.459725,31.204375,18317715682,4.3,219.00,体育休闲,上海市,上海市,徐汇区
B0JB5S63D2,羽点羽毛球馆,体育休闲服务;运动场馆;羽毛球场,080118,南丹路15号亚朵酒店副楼7楼,121.435585,31.189417,13361915776,4.4,83.00,体育休闲,上海市,上海市,徐汇区
B0KUTN8MU4,发条鸭无人健身房(徐汇徐虹中路店),体育休闲服务;运动场馆;健身中心,080111,古宜路181号3楼(宜山路地铁站5号口步行230米),121.424093,31.187595,17317911630,4.4,20.00,体育休闲,上海市,上海市,徐汇区
B0LGDYF1JW,KO桌球(徐家汇店),体育休闲服务;运动场馆;台球厅,080113,华山路1988号百联徐汇4F,121.436852,31.197762,15900828573,4.5,[],体育休闲,上海市,上海市,徐汇区
B0FFL5D035,Y+瑜伽会所(辛耕路店),体育休闲服务;运动场馆;健身中心,080111,辛耕路28号3楼,121.444951,31.193896,15316865091,4.5,452.00,体育休闲,上海市,上海市,徐汇区
B0I23HYU2E,小小特工运动馆(徐汇绿地缤纷中心),体育休闲服务;运动场馆;运动场所,080100,东安路562号徐汇绿地缤纷城西区3F层,121.456687,31.183787,021-54500220,4.3,255.00,体育休闲,上海市,上海市,徐汇区
B0KGSSI93V,Uwill有为健身俱乐部,体育休闲服务;运动场馆;健身中心|购物服务;购物相关场所;购物相关场所,080111|060000,南丹东路188-3临号(徐家汇地铁站2号口步行320米),121.440192,31.189352,19921085888,4.2,244.00,体育休闲,上海市,上海市,徐汇区
B0H1B5XJSE,GO GYM爱运动游泳健身会所,体育休闲服务;运动场馆;游泳馆,080110,凯滨路与龙腾大道辅路交叉口西北80米,121.461716,31.179482,18019477640,4.4,448.00,体育休闲,上海市,上海市,徐汇区
B0HRF72NII,引体蛙健身俱乐部(南丹路店),体育休闲服务;运动场馆;健身中心,080111,南丹路168号,121.430700,31.189763,13611803414,4.2,2852.00,体育休闲,上海市,上海市,徐汇区
B0KDNHR8J9,尚域健身(肇嘉浜店),体育休闲服务;运动场馆;健身中心,080111,肇嘉浜路255号(嘉善路地铁站2号口步行80米),121.462251,31.202808,18877713330,4.3,7544.00,体育休闲,上海市,上海市,徐汇区
B0FFIXKE4C,尚域健身(宛平店),体育休闲服务;运动场馆;健身中心,080111,宛平南路275号(徐家汇花园底层),121.446905,31.192642,021-63119998;18877713330,4.3,4648.00,体育休闲,上海市,上海市,徐汇区
B0J3OXXS4Z,貘鱼台球凯旋店,体育休闲服务;运动场馆;台球厅,080113,凯旋路2588号903号(宜山路地铁站2号口步行330米),121.430130,31.185197,13585787062,4.3,33.00,体育休闲,上海市,上海市,徐汇区
B0GDLNF6QL,VP·SMART私教健身会所(万体馆店),体育休闲服务;运动场馆;健身中心,080111,零陵路751弄14号(上海体育馆地铁站2号口步行280米),121.440079,31.183876,15821038546,4.1,233.00,体育休闲,上海市,上海市,徐汇区
B0H3SHK2W5,無名健身(徐汇店),体育休闲服务;运动场馆;健身中心,080111,建国西路285号科投大厦4楼405室,121.458551,31.205044,15389680592;18019155851,4.3,2144.00,体育休闲,上海市,上海市,徐汇区
B0GK1R2LDF,银怡桌球牌艺,体育休闲服务;运动场馆;台球厅,080113,天钥桥路214号哈尼美食广场3楼B,121.442011,31.191033,13381978181,4.3,52.00,体育休闲,上海市,上海市,徐汇区
B0I06BPZAX,徐家汇市民健身中心,体育休闲服务;运动场馆;健身中心,080111,南丹东路255号南天1号楼4楼,121.438558,31.189365,021-54566602,4.4,3633.00,体育休闲,上海市,上海市,徐汇区
B0KDTN7ZBW,发条鸭无人健身房(长宁武夷路店),体育休闲服务;运动场馆;健身中心,080111,武夷路422号207室,121.421741,31.212782,17317911630,4.5,24.00,体育休闲,上海市,上海市,长宁区
B0LDAMFW23,FEELINGME乐刻私教馆(广元西路店),体育休闲服务;运动场馆;健身中心,080111,广元西路191-193号,121.433643,31.195852,13564640869,4.4,4054.00,体育休闲,上海市,上海市,徐汇区
B0J2PZ8TU8,猎人桌游(徐家汇店),体育休闲服务;运动场馆;运动场所,080100,漕溪北路41号汇嘉大厦2307室,121.439090,31.192104,18321888838,4.4,75.00,体育休闲,上海市,上海市,徐汇区
B0I1VZX3D6,健身门自助健身房(宜山路地铁站店),体育休闲服务;运动场馆;健身中心,080111,中山西路1698弄明园小安桥小区入口50米,121.423531,31.184877,021-64311179,4.2,3000.00,体育休闲,上海市,上海市,徐汇区
B0LALLK7JC,巴西柔术(永嘉路店),体育休闲服务;运动场馆;运动场所|科教文化服务;培训机构;培训机构,080100|141400,永嘉路与岳阳路交叉口西120米,121.451104,31.206180,16771821285,4.3,[],体育休闲,上海市,上海市,徐汇区
B0FFJ93Y2H,Twice健身,体育休闲服务;运动场馆;健身中心,080111,钦州北路228-36号,121.420511,31.180663,15214303464,4.3,207.00,体育休闲,上海市,上海市,徐汇区
B0J31AHVR5,乐刻私教馆·FEELINGME(徐汇睿园店),体育休闲服务;运动场馆;健身中心,080111,乌鲁木齐南路288号地下1层,121.449552,31.201730,18918138078,4.2,2854.00,体育休闲,上海市,上海市,徐汇区
B0I1U5YVJL,徐家汇体育公园综合馆-羽毛球馆,体育休闲服务;运动场馆;羽毛球场,080118,漕溪北路1111号综合馆B1层,121.438201,31.179815,021-34196878,4.4,[],体育休闲,上海市,上海市,徐汇区
B0L1BBXTR8,亚力山大健身(新华御庭店),体育休闲服务;运动场馆;健身中心,080111,新华路519号3层会所,121.422873,31.204064,13764320025,4.4,1780.00,体育休闲,上海市,上海市,长宁区
B0LGRL3JRH,SHUA舒华健身(正大乐城店),体育休闲服务;运动场馆;健身中心,080111,船厂路28号3楼5-302号,121.458401,31.186642,15026435701,4.3,248.00,体育休闲,上海市,上海市,徐汇区
B0J31GJ3CK,KK桌球(徐汇光启城店),体育休闲服务;运动场馆;台球厅,080113,宜山路455号光启城B1层(商场下扶梯向前20米),121.428894,31.183831,021-54189089,4.4,[],体育休闲,上海市,上海市,徐汇区
B0KKFOH01S,kk桌球,体育休闲服务;运动场馆;台球厅,080113,中山南二路699号正大乐城B1层,121.457777,31.186051,13713842226,4.5,[],体育休闲,上海市,上海市,徐汇区
B0I1VPSJGH,NRG健身俱乐部(玖時活力中心店),体育休闲服务;运动场馆;健身中心,080111,大木桥路18号玖时活力中心F4层(嘉善路地铁站4号口旁),121.460408,31.201535,17630943256,3.7,8439.00,体育休闲,上海市,上海市,徐汇区
B0JR75LGOH,Social Fitness(海兴广场店),体育休闲服务;运动场馆;健身中心,080111,海兴广场19A(打浦桥地铁站3号口步行290米),121.467447,31.204566,18217589673,4.1,4673.00,体育休闲,上海市,上海市,黄浦区
B0K0FZGY5B,巨顶乒乓,体育休闲服务;运动场馆;乒乓球馆,080112,漕溪北路739号301室,121.437287,31.184607,17621816406,4.2,89.00,体育休闲,上海市,上海市,徐汇区
B0JRJDF7C8,PT健身联盟(徐汇绿地缤纷店),体育休闲服务;运动场馆;健身中心,080111,东安路562号绿地缤纷城西区B1层东区,121.457423,31.183819,13764554497,4.3,618.00,体育休闲,上海市,上海市,徐汇区
B0FFHGOPIK,张德英乒乓中心(卢湾体育馆店),体育休闲服务;运动场馆;乒乓球馆,080112,肇嘉浜路128号卢湾体育馆内,121.464481,31.204069,021-64674215,4.3,41.00,体育休闲,上海市,上海市,黄浦区
B0J1T7AEM5,加壹次(ONEMORE)健身,体育休闲服务;运动场馆;健身中心,080111,肇嘉浜路807号五洲国际202B室,121.447838,31.198029,13564619111,4.2,299.00,体育休闲,上海市,上海市,徐汇区
B0FFI709DF,BODYCONCEPT普拉提(幸福里店),体育休闲服务;运动场馆;健身中心,080111,番禺路381号幸福里E座207,121.430550,31.204385,021-62827779,4.1,510.00,体育休闲,上海市,上海市,长宁区
B0I099Q7F9,YONEX羽毛球空间(万体汇店),体育休闲服务;运动场馆;羽毛球场,080118,漕溪北路1111号综合馆B1,121.437856,31.180139,,4.4,1062.00,体育休闲,上海市,上海市,徐汇区
B0FFJ2B6O7,悠吖轮滑馆(汇京国际广场店),体育休闲服务;运动场馆;运动场所,080100,虹桥路777号汇京国际广场F2层,121.423415,31.196005,15000302067;17621507769,4.0,4934.00,体育休闲,上海市,上海市,徐汇区
B0LKNRR19T,mYSTEPS life大型健身空间(T20店),体育休闲服务;运动场馆;健身中心,080111,天钥桥路20号,121.440379,31.193908,13120868017,4.4,3099.00,体育休闲,上海市,上海市,徐汇区
B0J2RRRB8W,GIO申亚健身,体育休闲服务;运动场馆;健身中心,080111,新华路666弄5号楼,121.420980,31.206070,18616569633,4.0,3921.00,体育休闲,上海市,上海市,长宁区
B0L6RKNTS5,一水·精品普拉提(绿地缤纷店),体育休闲服务;运动场馆;健身中心,080111,凯滨路206号(绿地缤纷西区5楼)401室,121.456725,31.183625,,4.3,365.00,体育休闲,上海市,上海市,徐汇区
B0I6DALZ80,RISEGORS健身(IM长宁国际店),体育休闲服务;运动场馆;健身中心,080111,凯旋路1398号IM长宁国际中心T11号楼3楼,121.420907,31.200413,13262642615;13631935290,4.1,241.00,体育休闲,上海市,上海市,长宁区
B0J6PZW3QE,FE+油站运动健身中心,体育休闲服务;运动场馆;健身中心,080111,斜土路1975弄7号楼一楼(东安路地铁站4号口步行480米),121.450977,31.194072,13248278768,4.3,5641.00,体育休闲,上海市,上海市,徐汇区
B0FFIRUM94,SUPER MONKEY 超级猩猩健身(上海体育场店),体育休闲服务;运动场馆;健身中心|购物服务;服装鞋帽皮具店;服装鞋帽皮具店,080111|061100,天钥路333号腾飞大厦商场楼2层,121.442662,31.187599,,4.2,3637.00,体育休闲,上海市,上海市,徐汇区
B0J1SMVJ8Q,鸿远乒乓球俱乐部,体育休闲服务;运动场馆;乒乓球馆,080112,嘉汇国际f栋107,121.443551,31.188717,18217646424,4.2,141.00,体育休闲,上海市,上海市,徐汇区
B0K241E0I6,琪航健身工作室(徐汇嘉善路地铁站店),体育休闲服务;运动场馆;健身中心,080111,建国西路科投大厦285号1801室,121.458680,31.205066,15121170430,3.8,2417.00,体育休闲,上海市,上海市,徐汇区
B0FFG80U8X,HOME私教健身工作室(法华镇路店),体育休闲服务;运动场馆;健身中心,080111,法华镇路525号德必法华525 F4层,121.425456,31.205040,13818431712,3.9,202.00,体育休闲,上海市,上海市,长宁区
B0LA25MXPR,爱炼猫健身,体育休闲服务;运动场馆;健身中心,080111,宜山路520号9楼904-906室,121.425416,31.181415,19901550805,4.3,132.00,体育休闲,上海市,上海市,徐汇区
B0J30MC09M,BonUS健身私教工作室,体育休闲服务;运动场馆;健身中心,080111,瑞金二路410弄1号u-cube泰康103-107,121.466846,31.206571,18330279170,3.7,57.00,体育休闲,上海市,上海市,黄浦区
B0K37HUQLS,F&H FITNESS 健身会所,体育休闲服务;运动场馆;健身中心,080111,天平路街道陕西南路888弄汇景苑小区1号楼5楼,121.461827,31.203715,13564703214;13816529680,4.2,131.00,体育休闲,上海市,上海市,徐汇区
B0LBC7ELAL,CARATFITNESS克拉健身徐汇旗舰店,体育休闲服务;运动场馆;健身中心,080111,肇嘉浜路1117号TPY中心6楼整层,121.439274,31.193076,,4.3,3066.00,体育休闲,上海市,上海市,徐汇区
B0K1HULB8S,琪航健身工作室(徐家汇地铁站店),体育休闲服务;运动场馆;健身中心,080111,漕溪北路41号汇嘉大厦1107c-1室,121.439425,31.192156,19921375208,3.7,35.00,体育休闲,上海市,上海市,徐汇区
B0J6S722NE,阿迪达斯足球公园,体育休闲服务;运动场馆;足球场,080105,中山南二路辅路(上海游泳馆地铁站2号口步行90米),121.442500,31.179561,021-34196877,4.4,38.00,体育休闲,上海市,上海市,徐汇区
B0I0NA6WM8,万体汇(暂停营业),体育休闲服务;运动场馆;运动场所,080100,徐家汇体育公园西南角(上海体育馆地铁站6号口步行120米),121.437734,31.179871,,4.4,[],体育休闲,上海市,上海市,徐汇区
B0JA1MJFD5,HEAD海德网球拍,体育休闲服务;运动场馆;网球场,080103,漕溪北路辅路与影业街交叉口东南60米,121.437241,31.184698,18917716332,4.0,[],体育休闲,上海市,上海市,徐汇区
B0J0XLH3RJ,NRG健身私教CLUB(日月光中心徐家汇区),体育休闲服务;运动场馆;健身中心,080111,徐家汇路618号日月光中心2F泰康区TK-44号,121.467740,31.206716,19118990018,4.0,2666.00,体育休闲,上海市,上海市,黄浦区
B0FFFT34ZY,Just Yoga瑜伽馆(徐家汇馆),体育休闲服务;运动场馆;健身中心,080111,天平路185号七楼701室,121.439300,31.197400,021-64045229,4.5,356.00,体育休闲,上海市,上海市,徐汇区
B0J3L581Y8,琪航健身工作室(徐汇零陵路店),体育休闲服务;运动场馆;健身中心,080111,零陵路231号1幢405室,121.459141,31.192662,18621871851,4.0,32.00,体育休闲,上海市,上海市,徐汇区
B0L2GSS2EC,JYSS嘉妤盛世·瑜伽·颂钵·灵气培训学院,体育休闲服务;运动场馆;健身中心,080111,小木桥路456号越界创意空间1号楼503-504室,121.460059,31.193612,18221756855;18521396887,4.5,317.00,体育休闲,上海市,上海市,徐汇区
B0FFH106FW,四季园游泳健身(肇嘉浜店),体育休闲服务;运动场馆;运动场所,080100,东安路149号(斜土路)(肇嘉浜路地铁站3号口步行390米),121.452323,31.195205,021-64175998,4.4,1468.00,体育休闲,上海市,上海市,徐汇区
B0LRN5L8RY,GOGOGYM(上海西岸中环店),体育休闲服务;运动场馆;健身中心,080111,瑞宁路278号1幢1层,121.468646,31.188620,,4.5,435.00,体育休闲,上海市,上海市,徐汇区
B0FFGI3R1Z,蓝格桌球(定西路店),体育休闲服务;运动场馆;台球厅|体育休闲服务;娱乐场所;棋牌室,080113|080306,定西路635号2.3楼(近法华镇路),121.423543,31.205518,021-52303283,4.3,43.00,体育休闲,上海市,上海市,长宁区
B0JRGAOU8G,羽林会-瑞金馆,体育休闲服务;运动场馆;羽毛球场,080118,瑞金南路500号1号楼7F,121.468000,31.199104,17717898019;18689197159,4.4,[],体育休闲,上海市,上海市,徐汇区
B0IAVN7P1V,N+健身工作室(打浦桥店),体育休闲服务;运动场馆;健身中心,080111,瑞金南路一号海兴广场二楼(打浦桥地铁站3号口步行210米),121.467587,31.204647,17601385370,3.8,5534.00,体育休闲,上海市,上海市,黄浦区
B0LGY52QI1,D-one健身,体育休闲服务;运动场馆;健身中心,080111,嘉善路508尚街2号楼506室,121.460190,31.204650,,4.2,5572.00,体育休闲,上海市,上海市,徐汇区
B0JA2UA78K,Niki女性健身工作室(汇嘉大厦店),体育休闲服务;运动场馆;健身中心,080111,漕溪北路41号汇嘉大厦1604,121.439333,31.192263,18701806091,3.9,6432.00,体育休闲,上海市,上海市,徐汇区
B0KUBSNBQB,琪航健身工作室(东华大学店),体育休闲服务;运动场馆;健身中心,080111,种德桥路2号107室(延安西路地铁站2号口步行480米),121.420313,31.208075,13881105124,4.0,2796.00,体育休闲,上海市,上海市,长宁区
B0L1PS5ANZ,DMD运动美学空间·BUNGEE室内蹦极,体育休闲服务;运动场馆;运动场所,080100,龙华中路759号1层WA-106e铺位,121.456168,31.183838,17717699914,3.9,[],体育休闲,上海市,上海市,徐汇区
B0G3L7IXJB,SUPER MONKEY 超级猩猩健身(打浦桥日月光全能店),体育休闲服务;运动场馆;健身中心,080111,徐家汇路618号日月光中心徐家汇区B1层,121.467866,31.206081,4009009166,4.2,77.00,体育休闲,上海市,上海市,黄浦区
B0JUYDMV4I,U+健身工作室(现代大厦A楼店),体育休闲服务;运动场馆;健身中心,080111,襄阳南路218号现代大厦1107号,121.457110,31.212203,15779486396,3.7,253.00,体育休闲,上海市,上海市,徐汇区
B0FFM5XCOU,四方瑜伽·普拉提(环贸店),体育休闲服务;运动场馆;健身中心,080111,襄阳南路218号1102室,121.457194,31.212050,15001840201,4.5,371.00,体育休闲,上海市,上海市,徐汇区
B0KAFZCSRV,VAL FITNESS健身工作室,体育休闲服务;运动场馆;健身中心,080111,平武路80号106室,121.430875,31.208525,13601927798,4.1,1350.00,体育休闲,上海市,上海市,长宁区
B0HAM722A1,中田健身工作室(天钥桥路店),体育休闲服务;运动场馆;健身中心,080111,上海市上海市徐汇区(上海体育场地铁站3号口步行240米),121.442333,31.186009,19921024499,4.0,8303.00,体育休闲,上海市,上海市,徐汇区
B0H3SAL96H,C&V健身工作室(徐汇店),体育休闲服务;运动场馆;健身中心,080111,广元西路309号上海乾辰商务中心F3层,121.433323,31.195433,13601845617,4.1,276.00,体育休闲,上海市,上海市,徐汇区
B0KRFHO243,PT运动(金地新华道店),体育休闲服务;运动场馆;健身中心,080111,番禺路222弄55号B1层B101室,121.426691,31.207786,15316051302;15757961115,4.0,2222.00,体育休闲,上海市,上海市,长宁区
B0JDFCUEUA,繁星击剑俱乐部,体育休闲服务;运动场馆;运动场所,080100,建国西路283号尚街loft一号楼418室,121.459564,31.204660,13002183368,4.3,182.00,体育休闲,上海市,上海市,徐汇区
B0I2BASWSK,NRG健身私教CLUB(光启城店),体育休闲服务;运动场馆;健身中心,080111,宜山路455号光启城L2层221-223,121.428931,31.183655,15201930613,3.7,916.00,体育休闲,上海市,上海市,徐汇区
B0KKRDNXEK,舒华健身(徐汇区上海游泳馆店),体育休闲服务;运动场馆;健身中心,080111,上海游泳馆16号口4楼(上海游泳馆地铁站1号口旁),121.441283,31.179153,13856775527,4.3,2129.00,体育休闲,上海市,上海市,徐汇区
B0J1SCZEIQ,梵高馆健身工作室,体育休闲服务;运动场馆;健身中心,080111,建国西路223号高雅苑梵高馆小区内,121.461242,31.205860,18221148102,4.1,5089.00,体育休闲,上海市,上海市,徐汇区
B0FFK2FVRJ,YFI Studio健身工作室(徐汇店),体育休闲服务;运动场馆;健身中心,080111,清真路46号底层(嘉善路地铁站4口步行500米),121.458810,31.199312,13504054494,4.0,7202.00,体育休闲,上海市,上海市,徐汇区
B0FFIVD2FC,传奇宇宙 赫斯缇雅健身(建国路店),体育休闲服务;运动场馆;健身中心,080111,建国西路604号(衡山路地铁站1号口步行460米),121.448318,31.201634,15000429206,4.3,3286.00,体育休闲,上海市,上海市,徐汇区
B0HBMUN6SG,美上优伽,体育休闲服务;运动场馆;健身中心,080111,永嘉路697号(衡山路地铁站1号口步行60米),121.446679,31.203767,17317728072,4.0,309.00,体育休闲,上海市,上海市,徐汇区
B00155M0I9,上海交通大学徐汇校区体育馆,体育休闲服务;运动场馆;综合体育馆,080101,华山路1954号上海交通大学徐汇校区,121.433609,31.199028,021-62932971,4.3,11.00,体育休闲,上海市,上海市,徐汇区
B0J1GH71G1,快网网球俱乐部(虹桥路店),体育休闲服务;运动场馆;网球场,080103,虹桥街道中山西路1279弄阿拉小优2号楼,121.420393,31.192514,13818172928,4.0,99.00,体育休闲,上海市,上海市,长宁区
B0L6D18QB8,ON 24h Fitness(徐汇滨江店),体育休闲服务;运动场馆;健身中心,080111,东安路800弄13号101(后滩地铁站7号口步行200米),121.457831,31.182064,17701840501,4.2,879.00,体育休闲,上海市,上海市,徐汇区
B0IGBCNILI,云霄乒乓球俱乐部,体育休闲服务;运动场馆;乒乓球馆,080112,斜土路1223号之俊大厦主楼21层2104号,121.464088,31.199389,15221490806;18017912115,4.2,91.00,体育休闲,上海市,上海市,徐汇区
B00155AN39,卢湾网球中心,体育休闲服务;运动场馆;网球场,080103,肇嘉浜路128号(卢湾体育馆内近陕西南路),121.464668,31.204449,021-64675245;021-68405563,4.5,[],体育休闲,上海市,上海市,黄浦区
B0I1MUCAXI,Prakasa Yoga(吴界店),体育休闲服务;运动场馆;健身中心,080111,吴兴路277号吴界2号楼3楼,121.445966,31.199592,13818253547,4.4,182.00,体育休闲,上海市,上海市,徐汇区
B0KRPSPQRV,Bunny普拉提(日月光店),体育休闲服务;运动场馆;健身中心,080111,徐家汇路618号日月光中心徐家汇区3F层,121.468899,31.205892,,4.2,296.00,体育休闲,上海市,上海市,黄浦区
B0G0PN9CNY,女神举重俱乐部,体育休闲服务;运动场馆;运动场所,080100,零陵路751弄电影华苑1号楼B1层,121.440420,31.184306,18770203829,4.3,5476.00,体育休闲,上海市,上海市,徐汇区
B0IRXA1IHQ,羽林会-徐汇滨江馆(上海阳光滨江中心南楼店),体育休闲服务;运动场馆;羽毛球场,080118,瑞宁路899号阳光滨江中心南楼三楼(凯滨路南),121.458901,31.179907,13661786439;18689197159,4.4,[],体育休闲,上海市,上海市,徐汇区
B0KUAOCC2G,BUSHIDO巴西柔术·泰拳·健身(尚街Loft时尚生活园区店),体育休闲服务;运动场馆;健身中心,080111,嘉善路508号1号楼202A单元,121.459854,31.204300,17512169380,4.5,[],体育休闲,上海市,上海市,徐汇区
B0KR44TVLP,SUPER MONKEY 超级猩猩健身(瑞丽大厦店),体育休闲服务;运动场馆;健身中心,080111,淮海中路1325号瑞丽大厦1幢B102B103B104室,121.449950,31.212399,,4.2,5400.00,体育休闲,上海市,上海市,徐汇区
B0L0DLNX34,Dr.stretch·拉伸専門店(美罗城店)(装修中),体育休闲服务;运动场馆;健身中心,080111,虹桥路1号港汇办公楼1座8层809室,121.437657,31.194657,021-54591851;18717802934,3.5,1539.00,体育休闲,上海市,上海市,徐汇区
B0FFH4J1P0,蜂巢健身(光启文化广场B楼店),体育休闲服务;运动场馆;健身中心,080111,斜土路2899号光启文化广场B楼F1层,121.441015,31.185774,18521080480,4.0,267.00,体育休闲,上海市,上海市,徐汇区
B0LA7MVPZN,ViBe Fitness,体育休闲服务;运动场馆;健身中心,080111,陕西南路325号(嘉善路地铁站2号口步行380米),121.462341,31.205455,18667903249,4.2,253.00,体育休闲,上海市,上海市,黄浦区
B0FFJHKAAS,中田健身(徐家汇地铁站店),体育休闲服务;运动场馆;健身中心,080111,汇银广场北楼2503室,121.436647,31.197574,15021206176,3.8,5504.00,体育休闲,上海市,上海市,徐汇区
B0FFI88V7N,青少年体能训练基地私教健身中心(上海乾辰商务中心店),体育休闲服务;运动场馆;健身中心,080111,广元西路309号上海乾辰商务中心F3层,121.433332,31.195428,13601845617,3.8,300.00,体育休闲,上海市,上海市,徐汇区
B0FFM6M379,充电健身(玖時活力中心店),体育休闲服务;运动场馆;健身中心,080111,大木桥路18号玖時活力中心F1层(嘉善路地铁站6号口旁),121.460703,31.201717,15921052326,4.4,340.00,体育休闲,上海市,上海市,徐汇区
B0H35761YU,HANUMAN泰拳&健身,体育休闲服务;运动场馆;健身中心,080111,天钥桥路180弄38号3层,121.441820,31.190540,13916664823;18901910402,4.3,[],体育休闲,上海市,上海市,徐汇区
B0I1LAH3V0,种子新星少儿·成人·网球(越界原力方店),体育休闲服务;运动场馆;网球场,080103,凯旋路2588号越界原力方3号门电梯7楼,121.429688,31.184947,18300230598,4.0,196.00,体育休闲,上海市,上海市,徐汇区
B0I2OHUFU1,芸秤健身工作室,体育休闲服务;运动场馆;健身中心,080111,凯宾路38号阳光滨江天地尚湾里LG层A03-2,121.461075,31.180675,15896306082,4.1,122.00,体育休闲,上海市,上海市,徐汇区
B0J3RH1T4Q,沸腾鲨健身Boiling Fitness(飞洲国际大厦店),体育休闲服务;运动场馆;健身中心,080111,零陵路899号飞洲国际大厦15M,121.437692,31.183312,15000954237,3.7,3992.00,体育休闲,上海市,上海市,徐汇区
B0L2PRRAN2,久博游泳健身.普拉提,体育休闲服务;运动场馆;健身中心,080111,天钥桥路666号66室奥林匹克俱乐部丽笙酒店B1层,121.440325,31.181475,13381510170;15381219916,4.0,3544.00,体育休闲|银发极客_科技体验,上海市,上海市,徐汇区
B00155KXNE,天际花园游泳运动馆,体育休闲服务;运动场馆;游泳馆,080110,南丹东路99弄18号2层,121.443590,31.191716,13122019110,4.4,71.00,体育休闲,上海市,上海市,徐汇区
B0HRSKOFES,LHouse潜水中心(长宁店),体育休闲服务;运动场馆;运动场所,080100,番禺路390号1203室,121.430157,31.203838,13761921885,3.8,[],体育休闲,上海市,上海市,长宁区
B0G39XVZEB,象佳订制健身(徐家汇旗舰店),体育休闲服务;运动场馆;健身中心,080111,南丹东路238号(徐家汇地铁站2号口步行210米),121.439065,31.189125,,4.0,103.00,体育休闲,上海市,上海市,徐汇区
B0H1DRP7SX,小米高飞青少年轮雪中心,体育休闲服务;运动场馆;运动场所,080100,建国西路135号1层-3-4号,121.463804,31.207019,13062655266;15121067072,4.3,[],体育休闲,上海市,上海市,黄浦区
B0FFLANLCG,FREEDOM FIT私教健身俱乐部(徐虹北路店),体育休闲服务;运动场馆;健身中心,080111,徐虹北路20号(宜山路地铁站5号口步行270米),121.427785,31.189992,,4.1,165.00,体育休闲,上海市,上海市,徐汇区
B0GRHKN91J,汇健身-24小时游泳健身(嘉汇国际广场店),体育休闲服务;运动场馆;健身中心,080111,天钥桥路327号嘉汇国际广场C座B1层,121.443781,31.188450,17621124795,4.3,[],体育休闲,上海市,上海市,徐汇区
B0LGSA6NMD,活悦青少年运动中心,体育休闲服务;运动场馆;运动场所,080100,虹桥路777号1层汇京国际广场东南角,121.423582,31.195627,19117316692,4.3,[],体育休闲,上海市,上海市,徐汇区
B0FFI34QJL,徐汇滨江攀岩墙(暂停营业),体育休闲服务;运动场馆;运动场所,080100,龙腾大道与东安路交叉口东北120米,121.464544,31.182068,,4.4,[],体育休闲,上海市,上海市,徐汇区
B0FFL1DZDJ,三十一楼普拉提·瑜伽,体育休闲服务;运动场馆;健身中心,080111,襄阳南路500号巴黎时韵31楼,121.457725,31.205675,19531931067,4.3,1395.00,体育休闲,上海市,上海市,徐汇区
B0K1TUYYI1,充电健身,体育休闲服务;运动场馆;健身中心,080111,中山南二路1300号上海游泳馆4楼,121.440695,31.179042,,3.8,886.00,体育休闲,上海市,上海市,徐汇区
B0LR59AOZV,Y台球器材工作室,体育休闲服务;运动场馆;台球厅,080113,凯旋路2588号(宜山路地铁站2号口步行330米),121.430130,31.185197,13585787062,3.9,[],体育休闲,上海市,上海市,徐汇区
B0L0URWATM,Vigor Up普拉提&健身美学空间,体育休闲服务;运动场馆;健身中心,080111,昭化路62号,121.428260,31.212392,15996670979,3.9,2364.00,体育休闲,上海市,上海市,长宁区
B0LR9RQTRA,Z&B PILATES,体育休闲服务;运动场馆;健身中心,080111,华山路1901号One ITC 2层L2-227-1室,121.437891,31.197850,,3.8,1981.00,体育休闲,上海市,上海市,徐汇区
B0JUFHUGDI,阿怡桌研社,体育休闲服务;运动场馆;台球厅,080113,中山西路2025号420室(宜山路地铁站8号口步行90米),121.427779,31.182712,15558672657,4.2,66.00,体育休闲,上海市,上海市,徐汇区
B0H2P5Q8QC,Ground1390-健身,体育休闲服务;运动场馆;健身中心,080111,宝庆路10号8幢4层401室,121.449788,31.211431,18621671014,4.3,6938.00,体育休闲,上海市,上海市,徐汇区
B0K361GAWB,酷8自助台球24h,体育休闲服务;运动场馆;台球厅,080113,襄阳南路218号1409室,121.457084,31.212240,18121210921,4.3,[],体育休闲,上海市,上海市,徐汇区
B0FFK0R070,快网网球俱乐部(江苏路店),体育休闲服务;运动场馆;网球场,080103,江苏路813号华山花园,121.434368,31.212030,4009688828,4.0,252.00,体育休闲|银发极客_科技体验,上海市,上海市,长宁区
B0LBTS4J4M,健身门·自助健身,体育休闲服务;运动场馆;健身中心,080111,银海苑东北门旁(大木桥路地铁站4号口步行290米),121.462009,31.196648,,4.2,261.00,体育休闲,上海市,上海市,徐汇区
B0LARHY0N8,健身门.自助健身(利星行广场店),体育休闲服务;运动场馆;健身中心,080111,延安西路1319号利星行广场7楼701,121.425507,31.210572,16616191761,4.1,1090.00,体育休闲,上海市,上海市,长宁区
B0L37CLSIN,PILACTIVE·派活普拉提(星期天公园店),体育休闲服务;运动场馆;健身中心,080111,延安西路1221号泛太大厦5号楼2层,121.427825,31.211425,18021012549,4.0,221.00,体育休闲,上海市,上海市,长宁区
B0L0DUNJHS,UNA Pilates·宥纳普拉提,体育休闲服务;运动场馆;健身中心,080111,上海城区东安路800弄14号101室,121.457985,31.181615,18516349879,4.2,359.00,体育休闲,上海市,上海市,徐汇区
B0KR7HM55U,Vspatial健身空间,体育休闲服务;运动场馆;健身中心,080111,龙华路2315号(龙华中路地铁站7号口步行340米),121.453526,31.182955,15021093023,3.7,3526.00,体育休闲,上海市,上海市,徐汇区
B0FFKUNZ4T,PB健身工作室(新东亚大厦店)(暂停营业),体育休闲服务;运动场馆;健身中心,080111,新东亚大夏25楼(徐家汇地铁站2号口步行220米),121.439244,31.188945,18367818629,3.5,1708.00,体育休闲,上海市,上海市,徐汇区
B0I1XCPFP2,迈思搏击健身工作室,体育休闲服务;运动场馆;健身中心,080111,宛平南路404号1号楼,121.447344,31.190090,15121196889,4.1,[],体育休闲,上海市,上海市,徐汇区
B0J0L7RS0B,上海申花足球俱乐部,体育休闲服务;运动场馆;足球场,080105,零陵路899号飞洲国际广场F1层,121.437163,31.183354,13917004457,4.2,[],体育休闲,上海市,上海市,徐汇区
B0HDSS5M5R,relifit健身工作室(银统大厦北楼店),体育休闲服务;运动场馆;健身中心,080111,定西路1016号银统大厦北楼2105室,121.423752,31.211001,15216791931,4.1,275.00,体育休闲,上海市,上海市,长宁区
B0JRR9029R,维谛亚艾扬格瑜伽中心(明园商务中心店),体育休闲服务;运动场馆;健身中心,080111,复兴中路1199号明园商务中心A-308,121.458999,31.212590,15800990554,4.5,2717.00,体育休闲,上海市,上海市,徐汇区
B0L2M1YPOO,physis普拉提,体育休闲服务;运动场馆;健身中心,080111,宛平路与淮海中路交叉口南80米宛平路6弄2号楼101室,121.440275,31.204625,13501600408;15601756891,3.9,[],体育休闲,上海市,上海市,徐汇区
B0KDFXXUVG,大象综训馆,体育休闲服务;运动场馆;运动场所,080100,钦州北路188号华京商务大厦F4层,121.420899,31.180607,,4.0,3503.00,体育休闲,上海市,上海市,徐汇区
B0HRX6PGOL,Uniee有你瑜伽&普拉提(徐家汇店),体育休闲服务;运动场馆;运动场所,080100,虹桥路355号城开国际大厦F1层,121.431496,31.193419,15216726087,4.5,1499.00,体育休闲,上海市,上海市,徐汇区
B0HU2ST210,臻龙跆拳道搏击体育中心,体育休闲服务;运动场馆;跆拳道场馆,080119,小木桥路528号206室(大木桥路地铁站3号口步行370米),121.461236,31.191496,18018585881,3.9,[],体育休闲,上海市,上海市,徐汇区
B0I6BHLEMW,梵筑瑜伽工作室(龙华中路店),体育休闲服务;运动场馆;健身中心,080111,中山南二路777弄1号底层106室,121.456165,31.186247,13003120827,4.0,2199.00,体育休闲,上海市,上海市,徐汇区
B0FFJBBVU1,Dr.stretch·拉伸専門店(美罗城店),体育休闲服务;运动场馆;综合体育馆|生活服务;生活服务场所;生活服务场所,080101|070000,徐家汇肇嘉浜路1111号美罗城3FC17,121.439676,31.192852,021-54591851,3.5,320.00,体育休闲,上海市,上海市,徐汇区
B0LGUMDQBR,复旦大学上海医学院综合游泳馆,体育休闲服务;运动场馆;游泳馆,080110,复旦大学上海医学院西区东1门旁,121.451204,31.195908,,4.5,11.00,体育休闲,上海市,上海市,徐汇区
B0L30RLRHN,薛猫普拉提,体育休闲服务;运动场馆;健身中心,080111,肇嘉浜路1018号汇金广场B栋1709室,121.439867,31.194920,,3.7,484.00,体育休闲,上海市,上海市,徐汇区
B0K1VUPBOV,利思泰24h自助台球(徐汇滨江店),体育休闲服务;运动场馆;台球厅,080113,龙华路1833号2楼205室,121.456332,31.186042,13601749525,4.3,[],体育休闲,上海市,上海市,徐汇区
B0K265V2KE,施特斯运动康复,体育休闲服务;运动场馆;健身中心,080111,华山路2088号汇银广场南楼1508室,121.437135,31.196903,18687023510,[],[],体育休闲,上海市,上海市,徐汇区
B0IKPUYHRS,徐家汇街道市民健身驿站,体育休闲服务;运动场馆;运动场所,080100,南丹东路109号徐家汇社区文化活动中心8层,121.443109,31.190964,18555078679,4.3,1549.00,体育休闲,上海市,上海市,徐汇区
B0FFFA750D,伽倍瑜伽会所(港汇店),体育休闲服务;运动场馆;健身中心,080111,华山路2088号汇银广场南楼2401,121.437261,31.196723,,4.2,428.00,体育休闲,上海市,上海市,徐汇区
B0JB6HDUKO,振世乾坤跆拳道,体育休闲服务;运动场馆;跆拳道场馆|科教文化服务;培训机构;培训机构,080119|141400,茶陵路210号,121.466979,31.197472,17717630872;18801930650,4.2,[],体育休闲,上海市,上海市,徐汇区
B0JAMCH2PK,ONE PUNCH·拳击泰拳(徐家汇店),体育休闲服务;运动场馆;运动场所,080100,徐家汇街道汇嘉大厦19楼1903室,121.439413,31.192149,17274712671,3.9,[],体育休闲,上海市,上海市,徐汇区
B0IB3UBT0C,IVO健身中心(徐汇店),体育休闲服务;运动场馆;健身中心,080111,宛平南路381号2楼,121.447596,31.191616,13651656137,4.2,2926.00,体育休闲,上海市,上海市,徐汇区
B0FFHZGRBO,威尔仕健身(汉光国际店),体育休闲服务;运动场馆;健身中心,080111,蒲汇塘路100号B1层,121.433551,31.186761,021-31659583,4.2,2920.00,体育休闲,上海市,上海市,徐汇区
B0FFH0HIG8,东英跆拳道(凯阳大厦店),体育休闲服务;运动场馆;跆拳道场馆,080119,定西路788号凯阳大厦F3层,121.424018,31.208859,15900976903,3.8,[],体育休闲,上海市,上海市,长宁区
B0L6T7DK08,长乐小院瑜伽(曹家堰店),体育休闲服务;运动场馆;健身中心,080111,曹家堰路156号,121.435750,31.212343,18221080349,4.5,105.00,体育休闲,上海市,上海市,长宁区
B0K0LDR35O,VS运动中心(南洋1931店),体育休闲服务;运动场馆;羽毛球场,080118,裕德路165号南洋1931商场4楼,121.433008,31.186259,15001723071,4.4,[],体育休闲,上海市,上海市,徐汇区
B0HU6U34OV,More Than Yoga印度瑜伽馆,体育休闲服务;运动场馆;健身中心,080111,番禺路381号E座405室,121.430567,31.204371,18721624804,4.3,196.00,体育休闲,上海市,上海市,长宁区
B0LDU1HQ75,DharmaYoga达摩瑜伽·普拉提,体育休闲服务;运动场馆;健身中心,080111,永嘉路与太原路交叉口东20米,121.454925,31.207225,,4.2,204.00,体育休闲,上海市,上海市,徐汇区
B0KKOMRR11,fjaka闲适普拉提,体育休闲服务;运动场馆;健身中心,080111,蒲汇塘路46号洞庭春商务楼F2层,121.435076,31.186137,,4.1,180.00,体育休闲,上海市,上海市,徐汇区
B0H2D7F2C6,WOWGOLF(徐汇滨江店),体育休闲服务;高尔夫相关;高尔夫球场,080201,瑞平路230号保利时光里(上海)购物中心地下二层铺B2-001-002,121.455486,31.181900,15721473146,4.4,[],体育休闲,上海市,上海市,徐汇区
B0L1R5BMBK,爱玩高尔夫(正大乐城店),体育休闲服务;高尔夫相关;高尔夫球场,080201,中山南二路699号正大乐城F4层5-401,121.458649,31.186887,,4.3,[],体育休闲,上海市,上海市,徐汇区
B0J6MHI1I4,沪高汇高尔夫俱乐部Golf Club(静安寺店),体育休闲服务;高尔夫相关;高尔夫相关,080200,延安西路1033号大众金融大厦裙楼110室,121.429594,31.212625,13301795699;15800438010;18758014434,4.3,[],体育休闲,上海市,上海市,长宁区
B0GKVA1FD0,宏羽高尔夫俱乐部(衡山路店),体育休闲服务;高尔夫相关;高尔夫球场,080201,永嘉路570号5号楼一楼,121.451062,31.206067,13917792375,4.2,[],体育休闲,上海市,上海市,徐汇区
B0J0XCHHAH,聚尔乐高尔夫(正大乐城店),体育休闲服务;高尔夫相关;高尔夫球场,080201,中山南二路699号正大乐城F4层5-401,121.458649,31.186887,,3.9,[],体育休闲,上海市,上海市,徐汇区
B0KUZAHT33,AURORA GOLF CLUB·极光高尔夫俱乐部,体育休闲服务;高尔夫相关;高尔夫练习场,080202,新华路345号F3,121.425163,31.201806,15505610627;16621614663,4.3,[],体育休闲,上海市,上海市,长宁区
B0L07H1GNK,都市罐头·24小时高尔夫·City Golf Tin,体育休闲服务;高尔夫相关;高尔夫球场,080201,延安西路与安西路交叉口东140米,121.427875,31.209775,,0.6,[],体育休闲,上海市,上海市,长宁区
B0L0772FAV,全民高尔夫(徐汇店),体育休闲服务;高尔夫相关;高尔夫球场,080201,中山南二路699号正大乐城,121.457975,31.186575,,1.6,[],体育休闲,上海市,上海市,徐汇区
B0FFH186B6,纯K(打浦桥店),体育休闲服务;娱乐场所;KTV,080302,徐家汇路618号日月光中心广场1楼直达电梯到3F,121.468262,31.207122,021-31155888,4.8,101.00,体育休闲,上海市,上海市,黄浦区
B0FFH935SZ,天天玩X秋葉原日系动漫中心,体育休闲服务;娱乐场所;娱乐场所,080300,华山路2088号汇银广场南楼7M层,121.437160,31.196619,021-54652503,4.5,109.00,体育休闲,上海市,上海市,徐汇区
B0KGU5Y44N,JZ Club(上海店),体育休闲服务;娱乐场所;酒吧,080304,衡山路8号水塔广场(衡山路地铁站3号口步行310米),121.446169,31.206762,18321718711,4.7,193.00,体育休闲,上海市,上海市,徐汇区
B0IB3CBEEF,The Union Trading Company,体育休闲服务;娱乐场所;酒吧,080304,衡山路306号(衡山路地铁站1号口步行190米),121.444954,31.202848,021-62562265,4.5,174.00,体育休闲,上海市,上海市,徐汇区
B0FFMBZK6X,Bar a Vin,体育休闲服务;娱乐场所;酒吧,080304,嘉善路87号(陕西南路地铁站7号口步行480米),121.459378,31.211454,13764405071;15921193983,4.5,250.00,体育休闲,上海市,上海市,徐汇区
B0FFIKQDEV,浅深(长宁店),生活服务;洗浴推拿场所;洗浴推拿场所|体育休闲服务;娱乐场所;娱乐场所|公司企业;公司企业;公司企业,071400|080300|170000,延安西路1146号,121.431185,31.210221,021-62806886,4.6,755.00,体育休闲,上海市,上海市,长宁区
B00155ND9E,葡道(武康路店),体育休闲服务;娱乐场所;酒吧,080304,武康庭376号楼,121.439391,31.206617,021-60907075,4.4,197.00,体育休闲,上海市,上海市,徐汇区
B0HRURI4FB,魅KTV•AI辅唱(徐家汇店),体育休闲服务;娱乐场所;KTV|生活服务;摄影冲印店;摄影冲印,080302|071300,华山路1988号,121.436739,31.197628,13761873755;15000355363;4008318273,4.6,65.00,体育休闲,上海市,上海市,徐汇区
B00157G87K,EPIC,体育休闲服务;娱乐场所;酒吧,080304,高邮路17号(近复兴西路),121.438612,31.210227,021-54111189,4.5,160.00,体育休闲,上海市,上海市,徐汇区
B0J3XDZ83Z,Blac+Blac(金地新华道店),体育休闲服务;娱乐场所;酒吧,080304,番禺路222弄55号一层F106号,121.426636,31.207506,17621215047,4.5,147.00,体育休闲,上海市,上海市,长宁区
B0KALMBXHH,网鱼电竞(宜山路地铁站店),体育休闲服务;娱乐场所;网吧,080308,宜山路455号光启城1层129-134商铺,121.429023,31.183807,13585559864,4.5,24.00,体育休闲,上海市,上海市,徐汇区
B00155MVAX,网鱼网咖(徐汇天钥桥店),体育休闲服务;娱乐场所;网吧,080308,天钥桥路458号B1楼,121.442082,31.187181,13402090257,4.6,41.00,体育休闲,上海市,上海市,徐汇区
B0FFF9SAS4,网鱼电竞(上海徐汇百联店),体育休闲服务;娱乐场所;网吧,080308,华山路2038号南楼麦当劳旁电梯4F直达,121.437306,31.197095,021-54070502;13061817163,4.5,[],体育休闲,上海市,上海市,徐汇区
B0FFH15YIF,网鱼电竞(长宁延安西路店),体育休闲服务;娱乐场所;网吧,080308,延安西路1033号大众金融大厦B座一楼102室,121.429994,31.212436,18017032508,4.7,[],体育休闲,上海市,上海市,长宁区
B0G30ZHRKV,网鱼网咖(打浦大楼店),体育休闲服务;娱乐场所;网吧,080308,肇嘉浜路10号二楼,121.466744,31.205204,18917539751,4.5,35.00,体育休闲,上海市,上海市,黄浦区
B0FFIBU5HK,唱吧麦颂KTV(上海徐汇绿地缤纷城店),体育休闲服务;娱乐场所;KTV,080302,龙华中路759号地下一层,121.456532,31.183488,021-33633033,4.5,54.00,体育休闲,上海市,上海市,徐汇区
B0FFLICATJ,网鱼网咖(徐汇双峰店),体育休闲服务;娱乐场所;网吧,080308,中山南二路933号一楼,121.448966,31.183604,17717427603,4.4,33.00,体育休闲,上海市,上海市,徐汇区
B0L3M1P7IM,酷秀KTV·派对(打浦桥店),体育休闲服务;娱乐场所;KTV,080302,大木桥路18号5层L5001-1,121.460787,31.201674,18732148888,4.6,55.00,体育休闲,上海市,上海市,徐汇区
B0JURCA0R3,泊未bowie,体育休闲服务;娱乐场所;酒吧,080304,小木桥路2-1号,121.455925,31.200762,13520133264;18687413950,4.5,43.00,体育休闲,上海市,上海市,徐汇区
B0FFJ2OC9O,INLOVE(光启城店),体育休闲服务;娱乐场所;KTV|购物服务;购物相关场所;购物相关场所,080302|060000,宜山路455号光启城L4层518-525,121.427462,31.183361,021-60737272,4.4,88.00,体育休闲,上海市,上海市,徐汇区
B0FFGJO0C1,Heyday Jazz Bar,体育休闲服务;娱乐场所;酒吧,080304,泰安路50号底层,121.437152,31.205863,021-62366075;18221267167,4.4,227.00,体育休闲,上海市,上海市,长宁区
B00155LB6I,Cotton's棉花花园西餐厅(上海新华路店),体育休闲服务;娱乐场所;酒吧|餐饮服务;餐饮相关场所;餐饮相关,080304|050000,新华路294弄1号,121.427003,31.203237,021-62826897;021-64738211;13761656240,4.5,196.00,体育休闲,上海市,上海市,长宁区
B0LDDZGY1Y,CAVE ART VENUE,体育休闲服务;娱乐场所;娱乐场所,080300,IM Shanghai长宁国际南区LG层37,121.421875,31.198525,,4.5,151.00,体育休闲,上海市,上海市,长宁区
B0K0JHB2ZP,满是福德HomeBar(打浦桥店),体育休闲服务;娱乐场所;酒吧,080304,瑞金南路海兴广场写字楼30E,121.467670,31.204389,17717349216;18855279449,4.7,189.00,体育休闲,上海市,上海市,黄浦区
B0FFFPD3WF,Abbey Road 艾比之路(上海衡山路休闲街店),体育休闲服务;娱乐场所;酒吧,080304,桃江路3号(常熟路地铁站7号口步行490米),121.451136,31.209010,021-54662069,4.4,187.00,体育休闲,上海市,上海市,徐汇区
B0J6C7OG9M,魅KTV·AI辅唱(徐汇正大乐城店),体育休闲服务;娱乐场所;KTV,080302,龙华中路602号正大乐城3楼301室(7号线/12号线/龙华中路站1号口出),121.457825,31.185852,18019376777,4.5,67.00,体育休闲,上海市,上海市,徐汇区
B0FFF3STLO,网鱼网咖(徐汇大木桥店),体育休闲服务;娱乐场所;网吧,080308,大木桥路428号五层(大木桥路地铁站4号口步行270米),121.462134,31.196416,021-64325171;13482000292,4.5,41.00,体育休闲,上海市,上海市,徐汇区
B0LRBMLDH5,赫修堂(龙华店),体育休闲服务;娱乐场所;娱乐场所,080300,龙华路2345号(龙华中路地铁站7号口步行400米),121.453130,31.182651,18901914156,4.1,245.00,体育休闲,上海市,上海市,徐汇区
B0KROCSLCC,网鱼电竞(徐汇正大乐城店),体育休闲服务;娱乐场所;网吧,080308,东安路599号201商铺(龙华中路地铁站1号口步行100米),121.457237,31.186572,15221523232,4.4,32.00,体育休闲,上海市,上海市,徐汇区
B0LGGCXQM6,CK电竞宜山路店,体育休闲服务;娱乐场所;网吧,080308,宜山路250弄12号2幢(宜山路地铁站3号口步行450米),121.429600,31.189014,021-64692678;15901860990,4.5,[],体育休闲,上海市,上海市,徐汇区
B0FFGKKR8Z,MusicLife音乐(徐汇总校),体育休闲服务;娱乐场所;娱乐场所|科教文化服务;培训机构;培训机构,080300|141400,肇嘉浜路366号3层CD座(嘉善路地铁站5号口步行270米),121.457905,31.202719,18621101045,4.3,[],体育休闲,上海市,上海市,徐汇区
B0HU3SYF79,GOTIA,体育休闲服务;娱乐场所;酒吧,080304,永康路与襄阳南路交叉口西140米,121.456350,31.210346,021-54198981,4.4,147.00,体育休闲,上海市,上海市,徐汇区
B0GRVMTNRR,12-Bar BLUES(黑石公寓店),体育休闲服务;娱乐场所;酒吧,080304,复兴中路1331弄黑石公寓1号楼,121.452473,31.210855,18621150094,4.4,173.00,体育休闲,上海市,上海市,徐汇区
B00151F190,昨天·今天·明天,体育休闲服务;娱乐场所;酒吧,080304,华山路1038弄曹家堰路173号,121.436241,31.211985,021-62402588,4.4,111.00,体育休闲,上海市,上海市,长宁区
B0I30ZIUOB,Cru9,体育休闲服务;娱乐场所;酒吧,080304,番禹路381号B座106室,121.430272,31.204530,18616606066,4.4,88.00,体育休闲,上海市,上海市,长宁区
B0LARLB9BV,幸福里homebar.年轻社交空间,体育休闲服务;娱乐场所;酒吧,080304,定西路1016号银统大厦北楼1201室,121.423742,31.210707,18114002313,4.4,166.00,体育休闲,上海市,上海市,长宁区
B0JUJO310B,黑石BLACKSTONE,体育休闲服务;娱乐场所;酒吧,080304,复兴中路1331号1号楼108室,121.452639,31.210862,15026579902,4.4,178.00,体育休闲,上海市,上海市,徐汇区
B0J1ZM89VJ,BLACKGLOVE酒吧,体育休闲服务;娱乐场所;酒吧,080304,建国中路171号3幢116室,121.467243,31.208507,13122418071,4.5,215.00,体育休闲,上海市,上海市,黄浦区
B0JR2LJFU6,魅KTV·AI辅唱(长宁国际广场店),体育休闲服务;娱乐场所;KTV,080302,凯旋路1388号长宁国际广场LG层44-1(T12栋),121.422706,31.198443,,4.5,82.00,体育休闲,上海市,上海市,长宁区
B0FFKDXUDK,Perrys(徐家汇店),体育休闲服务;娱乐场所;酒吧,080304,哈尼美食广场214号2楼,121.442088,31.190884,18930872820,4.5,93.00,体育休闲,上海市,上海市,徐汇区
B0JB5L6LQW,Cooperland昼夜,体育休闲服务;娱乐场所;娱乐场所,080300,瑞金二路272号1号楼3楼302,121.466600,31.207774,13641824409,4.6,232.00,体育休闲,上海市,上海市,黄浦区
B0FFGJ9BGX,麥坊Maltfun·威士忌·雪茄,体育休闲服务;娱乐场所;酒吧,080304,复兴西路100号,121.442541,31.210767,021-54100019,4.4,219.00,体育休闲,上海市,上海市,徐汇区
B00155M53I,大西洋(百联徐汇商业广场店),体育休闲服务;娱乐场所;夜总会,080301,华山路1988号百联徐汇商业广场1F层,121.436833,31.197859,,4.3,49.00,体育休闲,上海市,上海市,徐汇区
B0FFK1MAWI,法诺酒吧(长宁店),体育休闲服务;娱乐场所;酒吧,080304,新华路639号,121.420994,31.204759,19946287454,4.5,147.00,体育休闲,上海市,上海市,长宁区
B0FFKSPE1Z,战壕网咖(小木桥店),体育休闲服务;娱乐场所;网吧,080308,小木桥路321号底层,121.459028,31.196367,18301953419,4.4,38.00,体育休闲,上海市,上海市,徐汇区
B0FFMGGQI6,TAG,体育休闲服务;娱乐场所;酒吧|购物服务;购物相关场所;购物相关场所,080304|060000,汾阳路77-2号,121.454095,31.210628,15888037660,4.4,194.00,体育休闲,上海市,上海市,徐汇区
B0G3FSGN0K,屋有岛沉浸游戏体验馆(徐家汇旗舰店),体育休闲服务;娱乐场所;娱乐场所,080300,天钥桥路458号3楼301(公交车站旁入口),121.442087,31.187182,15618066960,4.5,306.00,体育休闲|银发极客_科技体验,上海市,上海市,徐汇区
B00155LAME,皇朝尊会(粤菜),体育休闲服务;娱乐场所;KTV,080302,延安西路1116号龙之梦大酒店3楼,121.430454,31.211026,021-61159628;13818400230,4.5,228.00,体育休闲,上海市,上海市,长宁区
B0H1U10X4A,Pop Corner,体育休闲服务;娱乐场所;酒吧,080304,绍兴路35-1号,121.462677,31.208691,13564263202,4.4,150.00,体育休闲,上海市,上海市,黄浦区
B001579S1C,DEAN'S BOTTLE SHOP(安甯邨店),购物服务;专卖店;烟酒专卖店|体育休闲服务;娱乐场所;娱乐场所,061210|080300,绍兴路37号,121.462390,31.208635,13386008880,4.4,87.00,体育休闲,上海市,上海市,黄浦区
B0J05HXGEF,Hita海獭桌游(徐汇店),体育休闲服务;娱乐场所;娱乐场所,080300,D1国际创意园区2号楼211室,121.445964,31.178563,17152157887,4.4,90.00,体育休闲,上海市,上海市,徐汇区
B0FFGB6RZV,BARBER SHOP(乌鲁木齐南路154号小区店),体育休闲服务;娱乐场所;酒吧,080304,永嘉路615号(衡山路地铁站1号口步行250米),121.448729,31.204517,18801777008,4.4,133.00,体育休闲,上海市,上海市,徐汇区
B0FFG0FYAQ,Avenue Joffre Bar,体育休闲服务;娱乐场所;酒吧,080304,永嘉路570号永嘉庭5号楼1层,121.451012,31.206061,18701701531,4.4,195.00,体育休闲,上海市,上海市,徐汇区
B0H1ULZ4YM,Metal hands铁手咖啡,体育休闲服务;娱乐场所;娱乐场所,080300,南丹路15号1楼二单元(徐家汇地铁站1号口步行160米),121.435560,31.189519,13127544675,4.5,46.00,体育休闲|独处品质空间,上海市,上海市,徐汇区
B0KR4AYBXE,DA HOUSE,体育休闲服务;娱乐场所;酒吧,080304,昭化路43弄1号101商铺,121.429791,31.212761,13564416599,4.5,124.00,体育休闲,上海市,上海市,长宁区
B0FFHE28PW,Horse露台酒吧·Live House(徐家汇店),体育休闲服务;娱乐场所;酒吧,080304,宜山北路与广元西路交叉口东北约40米,121.433268,31.195454,15021664333,4.4,125.00,体育休闲,上海市,上海市,徐汇区
B0HRRASETU,拾·shi Bar,体育休闲服务;娱乐场所;酒吧,080304,永嘉路与茂名南路交叉口南200米,121.463929,31.209177,18501785023,4.4,137.00,体育休闲,上海市,上海市,黄浦区
B0FFKZZXL7,煤气灯LIVEHOUSE(田尚坊店),体育休闲服务;娱乐场所;酒吧|餐饮服务;中餐厅;中餐厅,080304|050100,钦州北路226号地下一层01、02室,121.420089,31.180578,18321896498,4.6,138.00,体育休闲,上海市,上海市,徐汇区
B0IGSC62T5,Bella Vita Bistro(天平路店),体育休闲服务;娱乐场所;娱乐场所,080300,天平路树德坊(徐家汇地铁站13号口步行310米),121.439696,31.196615,021-64470008;19901794204,4.4,403.00,体育休闲,上海市,上海市,徐汇区
B0L6KLP3DJ,One Place 小酒馆,体育休闲服务;娱乐场所;酒吧,080304,定西路988号银统大厦南楼1503,121.423889,31.210378,18052798091,4.5,99.00,体育休闲,上海市,上海市,长宁区
B0JR1ATDG4,NICK RHINO犀牛尼克西安小酒馆,体育休闲服务;娱乐场所;酒吧,080304,平武路38号105室,121.430329,31.208503,15339027863,4.4,95.00,体育休闲,上海市,上海市,长宁区
B0IK4CP7KI,GOOSE ISLAND TAPROOM鹅岛精酿酒吧,体育休闲服务;娱乐场所;酒吧,080304,武夷路320弄6号102室,121.424309,31.212541,13162803997,4.4,[],体育休闲,上海市,上海市,长宁区
B0LAGZQ5US,Bar Rock,体育休闲服务;娱乐场所;酒吧,080304,兴国路与华山路交叉口南140米,121.435476,31.209940,13020261376,4.5,160.00,体育休闲,上海市,上海市,长宁区
B0KKDB4EPV,OPEN开张Homebar,体育休闲服务;娱乐场所;酒吧,080304,瑞金二路晴苑小区410-1U-CUBE园区一楼,121.466940,31.206556,,4.5,127.00,体育休闲,上海市,上海市,黄浦区
B0J15YWD7A,Y CLUB,体育休闲服务;娱乐场所;酒吧,080304,建国西路331号,121.456706,31.204326,18917829447,4.5,191.00,体育休闲,上海市,上海市,徐汇区
B0L1T15SV9,凯乐石(上海港汇恒隆广场店),体育休闲服务;娱乐场所;娱乐场所,080300,华山路港汇恒隆广场南座4层439,121.437390,31.194422,13738085860,4.1,[],体育休闲,上海市,上海市,徐汇区
B0K3CRASOL,Pooka Pub民谣酒肆,体育休闲服务;娱乐场所;酒吧,080304,凯滨路38号尚湾里A06,121.461442,31.180752,15502102328,4.4,200.00,体育休闲,上海市,上海市,徐汇区
B0IGBLQ81Q,暴风岛沉浸式密室(打浦桥店),体育休闲服务;娱乐场所;娱乐场所,080300,徐家汇路618号日月光中心徐家汇区5F层5F-RJ02,121.468864,31.206080,19121820809,4.6,316.00,体育休闲,上海市,上海市,黄浦区
B0JUMU4MVP,Director Bar,体育休闲服务;娱乐场所;酒吧,080304,新华路160号5楼(交通大学地铁站5号口步行450米),121.429564,31.202444,15370170585,4.4,139.00,体育休闲,上海市,上海市,长宁区
B0LRMXZ9CB,Her Horizon,体育休闲服务;娱乐场所;酒吧,080304,新华路街道番禺路381号7栋105室-106室,121.429976,31.204350,,4.3,92.00,体育休闲,上海市,上海市,长宁区
B0IATYJ9AZ,Andy's Whisky Bar(永嘉路店),体育休闲服务;娱乐场所;酒吧,080304,永嘉路45号与陕西南路交叉口,121.461925,31.210125,,4.4,143.00,体育休闲,上海市,上海市,黄浦区
B0KAZ9M2UG,SITE 新华路店,体育休闲服务;娱乐场所;娱乐场所,080300,新华路365弄6号楼101B,121.425233,31.202205,021-60751283,4.4,115.00,体育休闲,上海市,上海市,长宁区
B0FFIZ57B4,Brut Eatery悦璞食堂(肇嘉浜路店),餐饮服务;外国餐厅;西餐厅(综合风味)|体育休闲服务;娱乐场所;酒吧,050201|080304,肇嘉浜路238号咖啡餐厅(嘉善路地铁站2号口步行150米),121.461940,31.203353,021-64086783,4.5,106.00,体育休闲,上海市,上海市,徐汇区
B0JUFHUNRA,AS Lounge Bar,体育休闲服务;娱乐场所;酒吧,080304,定西路1118弄A栋108,121.423634,31.212422,13761644777,4.3,115.00,体育休闲,上海市,上海市,长宁区
B0J3LSAJYG,柒陆玖sake,体育休闲服务;娱乐场所;酒吧,080304,建国西路124号(打浦桥地铁站4号口步行450米),121.465007,31.207611,13816929367,4.4,189.00,体育休闲,上海市,上海市,黄浦区
B0JAT7TVYT,W·Light Bar,体育休闲服务;娱乐场所;酒吧,080304,法华镇路455-4号,121.426557,31.204444,17274533421,4.4,160.00,体育休闲,上海市,上海市,长宁区
B00155LLY1,哈雷酒吧(南丹东路店),体育休闲服务;娱乐场所;酒吧,080304,南丹东路265号(徐家汇地铁站2号口步行90米),121.438354,31.189247,,4.3,138.00,体育休闲,上海市,上海市,徐汇区
B0KR6LXC65,徐汇金帝商务会所,体育休闲服务;娱乐场所;KTV|公司企业;公司;公司|生活服务;生活服务场所;生活服务场所,080302|170200|070000,斜土路1268号,121.464380,31.198808,021-60748453,4.5,952.00,体育休闲,上海市,上海市,徐汇区
B001516DCE,贝尼酒吧(上海衡山路休闲街店),体育休闲服务;娱乐场所;酒吧,080304,永嘉路705号(衡山路地铁站1号口步行60米),121.445961,31.203438,021-64335964,4.4,120.00,体育休闲,上海市,上海市,徐汇区
B0LU47YYCN,G23.等待戈多,体育休闲服务;娱乐场所;酒吧,080304,衡山路23号,121.448923,31.207570,19512229699,4.4,136.00,体育休闲,上海市,上海市,徐汇区
B0KDDC8NNM,EXIT Club,体育休闲服务;娱乐场所;酒吧,080304,幸福路298号,121.431361,31.208054,13501769477;15900537038,4.5,169.00,体育休闲,上海市,上海市,长宁区
B0FFF6XM4V,汤姆熊欢乐世界(上海光启城店),体育休闲服务;娱乐场所;游戏厅,080305,宜山路455号光启城L3层309-314&320-322&324&326-327,121.428652,31.184037,021-60299896,4.1,76.00,体育休闲,上海市,上海市,徐汇区
B0FFHCPMV7,多杰拉姆藏餐吧(田子坊店),体育休闲服务;娱乐场所;酒吧,080304,泰康路248弄30号后门(瑞金二路),121.468372,31.208446,,4.4,159.00,体育休闲,上海市,上海市,黄浦区
B0G0VHM4OT,The Hai,体育休闲服务;娱乐场所;酒吧,080304,永嘉路35号,121.462968,31.210592,13671801785,4.2,[],体育休闲,上海市,上海市,黄浦区
B0KUSMFD23,W.Sheeshark,体育休闲服务;娱乐场所;酒吧,080304,衡山路191号3楼(衡山地铁站4号口旁),121.447217,31.205170,,4.5,195.00,体育休闲,上海市,上海市,徐汇区
B0FFF00IR5,Tap House扎啤工坊(永康小区北区店),体育休闲服务;娱乐场所;酒吧,080304,永康路72-74号,121.458066,31.210993,021-64750335,4.5,86.00,体育休闲,上海市,上海市,徐汇区
B00155IP6H,THE PARK TAVERN(衡山坊店),体育休闲服务;娱乐场所;酒吧,080304,天平路320弄20号(徐家汇地铁站14号口步行350米),121.439629,31.196156,021-54659312;021-54659513,4.4,130.00,体育休闲,上海市,上海市,徐汇区
B0KR6ZD29Q,FARSIDE月之暗面,体育休闲服务;娱乐场所;酒吧,080304,天钥桥路325号嘉汇国际广场A栋111室,121.442589,31.188813,15928602548,4.4,137.00,体育休闲,上海市,上海市,徐汇区
B0FFHP6X44,Constellation Wine(天平路店),体育休闲服务;娱乐场所;酒吧|购物服务;专卖店;烟酒专卖店,080304|061210,天平路34号(交通大学地铁站1号口步行430米),121.437740,31.203191,021-62372215,4.5,657.00,体育休闲,上海市,上海市,徐汇区
B0FFLL3CZF,HUNT酒吧(幸福里店),体育休闲服务;娱乐场所;酒吧,080304,幸福路42-2号(交通大学地铁站5号口步行490米),121.431201,31.203842,,4.4,106.00,体育休闲,上海市,上海市,长宁区
B0IUP7VCL0,Sugar Area暴疯糖,体育休闲服务;娱乐场所;娱乐场所,080300,建国中路171号(打浦桥地铁站1号口步行270米),121.467285,31.208614,18601719171,4.4,194.00,体育休闲,上海市,上海市,黄浦区
B0KBNND7OF,陪醺Promix·隐藏音乐酵室(上海乌鲁木齐南路店),体育休闲服务;娱乐场所;酒吧,080304,肇嘉浜路608号501-6室,121.450590,31.200063,15000618249;18715102080,4.2,85.00,体育休闲,上海市,上海市,徐汇区
B0LGRZEDQ6,The O Bar,体育休闲服务;娱乐场所;酒吧,080304,建国西路114号(打浦桥地铁站4号口步行430米),121.465197,31.207847,,4.5,149.00,体育休闲,上海市,上海市,黄浦区
B0GK1AVPYO,上海迷笛俱乐部,体育休闲服务;娱乐场所;娱乐场所,080300,天钥桥路与中山南二路交叉口东南200米,121.445494,31.178755,18221418956,4.3,230.00,体育休闲,上海市,上海市,徐汇区
B0JGVZ0EM0,You are the Apple of my eye(暂停营业),体育休闲服务;娱乐场所;酒吧,080304,襄阳南路396号,121.457868,31.207261,13801654510,4.3,126.00,体育休闲,上海市,上海市,徐汇区
B0FFLITOQO,K·H真人密室逃脱体验馆(中山公园店),体育休闲服务;娱乐场所;娱乐场所,080300,延安西路1237号,121.427602,31.210715,021-52992618;13321941060,4.4,173.00,体育休闲|银发极客_科技体验,上海市,上海市,长宁区
B0L3J6CJ6M,SEWing,体育休闲服务;娱乐场所;酒吧,080304,陕西南路550弄嘉善老市25号B栋401,121.460820,31.207342,,4.2,[],体育休闲,上海市,上海市,徐汇区
B0K3XSW2XN,大话桌游·电玩·狼人杀·惯蛋(徐家汇店),体育休闲服务;娱乐场所;游戏厅,080305,漕溪北路41号汇嘉大厦25层F室(美罗城旁),121.439444,31.192194,18521778860,4.4,77.00,体育休闲,上海市,上海市,徐汇区
B0IUKAFAYS,GuinnessSocialByButler,体育休闲服务;娱乐场所;酒吧,080304,泰康路210弄7号7室(打浦桥地铁站1号口步行190米),121.468775,31.208475,13166208357;17721322535,4.4,155.00,体育休闲,上海市,上海市,黄浦区
B0FFHUAZ1I,THE TIPSY FIDDLER(新华豪庭店),体育休闲服务;娱乐场所;酒吧,080304,法华镇路135号(交通大学地铁站5号口步行450米),121.431020,31.203489,021-52801826,4.4,81.00,体育休闲,上海市,上海市,长宁区
B0LAV75U4E,Marmot Cocktail Bar土拨鼠鸡尾酒吧(吴界店),体育休闲服务;娱乐场所;酒吧,080304,吴兴路277号1号楼1层R102a室,121.445925,31.199425,,4.4,103.00,体育休闲,上海市,上海市,徐汇区
B0LRCDERYY,奇点战棋(徐汇滨江店),体育休闲服务;娱乐场所;娱乐场所,080300,东安路888号阳光滨江天地尚湾里地下一层C25室(近3号口),121.461072,31.182197,,4.4,[],体育休闲,上海市,上海市,徐汇区
B0LBNMAYUV,Pigs home家庭式社交酒吧,体育休闲服务;娱乐场所;酒吧,080304,定西路1016弄银统大厦21楼2101A,121.423776,31.210854,15301829002,4.5,163.00,体育休闲,上海市,上海市,长宁区
B0GUZLG96N,FONTAINE,体育休闲服务;娱乐场所;酒吧,080304,武康路98号住宅,121.440615,31.211922,13651899928,4.1,38.00,体育休闲,上海市,上海市,徐汇区
B0FFGDQO08,Friends Bar朋友酒吧(田子坊店),体育休闲服务;娱乐场所;酒吧,080304,建国中路155弄36号(打浦桥地铁站1号口步行110米),121.468245,31.208277,15902196088,4.2,87.00,体育休闲,上海市,上海市,黄浦区
B0L1BDY8ZN,ONEGALLERY GATE,体育休闲服务;娱乐场所;酒吧,080304,五原路89号1楼(常熟路地铁站8号口步行230米),121.447179,31.212901,,4.5,35.00,体育休闲,上海市,上海市,徐汇区
B0LR2R53JY,鹅板凳家庭酒吧(徐家汇店),体育休闲服务;娱乐场所;酒吧,080304,天钥桥路325号2215-16室,121.442765,31.188816,13127849757,4.4,122.00,体育休闲,上海市,上海市,徐汇区
B00155LWD6,RICE BAR,体育休闲服务;娱乐场所;酒吧,080304,法华镇路532-1号二楼,121.424694,31.204978,021-52308772,4.4,119.00,体育休闲,上海市,上海市,长宁区
B0JU7CMX5A,First Floor by ARDRAY,体育休闲服务;娱乐场所;酒吧,080304,汾阳路51号2楼,121.454442,31.211625,18301779979,4.2,201.00,体育休闲,上海市,上海市,徐汇区
B0FFGM6O8Z,OSCARS PUB,体育休闲服务;娱乐场所;酒吧,080304,复兴中路1377号oscars,121.450144,31.210503,021-64316528,4.1,89.00,体育休闲,上海市,上海市,徐汇区
B0LAR7BG0D,大章鱼桌游·TRPG跑团·血染钟楼·电玩,体育休闲服务;娱乐场所;娱乐场所,080300,漕溪北路41号汇嘉大厦21层21D室,121.439422,31.192153,,4.2,89.00,体育休闲,上海市,上海市,徐汇区
B0LAKGEDGQ,WOOSHA花下酒肆·酒吧,体育休闲服务;娱乐场所;酒吧,080304,嘉汇国际广场A栋天钥桥路1楼112/113(后门),121.442663,31.188996,,4.2,103.00,体育休闲,上海市,上海市,徐汇区
B0I33ASLAN,上海无将桥牌俱乐部,体育休闲服务;娱乐场所;娱乐场所,080300,蒲汇塘路50号玉兰花苑(北2门)裙楼三楼(全家超市楼上),121.434856,31.186493,,4.1,162.00,体育休闲,上海市,上海市,徐汇区
B0LD17L3ME,Amber8·琥珀 home bar,体育休闲服务;娱乐场所;酒吧,080304,定西路788号凯阳大厦5楼5H,121.424080,31.208741,13062741110,4.4,116.00,体育休闲,上海市,上海市,长宁区
B0L2V78APV,雍中缘33SPA,体育休闲服务;娱乐场所;酒吧,080304,番禺路586号,121.429742,31.200496,15821805533,4.3,635.00,体育休闲,上海市,上海市,长宁区
B0KG4NGY2J,Shai·晒,体育休闲服务;娱乐场所;酒吧,080304,幸福路67号8号楼102室,121.430846,31.204342,,4.5,132.00,体育休闲,上海市,上海市,长宁区
B0I14XHLQH,Mingo Chamber,体育休闲服务;娱乐场所;酒吧,080304,武康路100号1-4号,121.440751,31.211664,15317733471,4.3,193.00,体育休闲,上海市,上海市,徐汇区
B0LGNOUBL1,小亲新清酒社,体育休闲服务;娱乐场所;酒吧,080304,永康路120号2层,121.457025,31.210675,,4.4,165.00,体育休闲,上海市,上海市,徐汇区
B00155L9NO,华亭咖酒吧(华石路店),体育休闲服务;娱乐场所;酒吧,080304,华石路52号,121.433118,31.178429,021-64158797,4.2,66.00,体育休闲,上海市,上海市,徐汇区
B0K3B5TPKD,8ubble19,体育休闲服务;娱乐场所;酒吧,080304,永嘉路50号,121.461238,31.210151,,4.4,122.00,体育休闲,上海市,上海市,徐汇区
B0LRC9GSJX,FIXPOINT,体育休闲服务;娱乐场所;酒吧,080304,永康路56号,121.458387,31.210917,18901724785,4.4,175.00,体育休闲,上海市,上海市,徐汇区
B0K2YHIJK4,见面杂货店(平武路),体育休闲服务;娱乐场所;酒吧,080304,平武路38号202室,121.430127,31.208531,,4.4,157.00,体育休闲,上海市,上海市,长宁区
B0LATR7GN9,BAR TENDER,体育休闲服务;娱乐场所;酒吧,080304,永嘉路333号101室,121.457579,31.208800,17701841704,4.3,123.00,体育休闲,上海市,上海市,徐汇区
B0H33CW67T,莲花城·十二宫全息沉浸式剧本杀(徐汇店),体育休闲服务;娱乐场所;娱乐场所,080300,漕溪北路41号1203室(徐家汇地铁站9号口步行140米),121.439263,31.192151,15000675251,4.4,160.00,体育休闲,上海市,上海市,徐汇区
B0JRTMZIPE,VANFO·晚疯,体育休闲服务;娱乐场所;酒吧,080304,瑞金二路272号1号楼202,121.466673,31.207701,,4.4,159.00,体育休闲,上海市,上海市,黄浦区
B0KDDLD3R6,无碍理想酒馆(新华路店)Pub HandyCup,体育休闲服务;娱乐场所;酒吧,080304,新华路365弄6号楼108铺,121.424973,31.202035,15026457628,4.4,57.00,体育休闲,上海市,上海市,长宁区
B0KK4PU9E7,FF桌游·棋妙时光(美罗城店),体育休闲服务;娱乐场所;棋牌室,080306,漕溪北路41号汇嘉大厦26楼2606室,121.439411,31.192142,13641881632,4.4,65.00,体育休闲,上海市,上海市,徐汇区
B0FFIY2HN0,龙之梦大酒店·大堂吧,体育休闲服务;娱乐场所;酒吧,080304,延安西路1116号龙之梦大酒店1层,121.430282,31.211011,021-61159988,4.4,90.00,体育休闲,上海市,上海市,长宁区
B00154DQEE,东方网点(虹桥店),体育休闲服务;娱乐场所;网吧,080308,凯旋路1669天星城5层(虹桥路地铁站6号口步行150米),121.421902,31.194911,18930266687,4.3,[],体育休闲,上海市,上海市,徐汇区
B0FFJ228OO,麦坊威士忌吧(永嘉路店),体育休闲服务;娱乐场所;酒吧,080304,永嘉路45号陕西南路口,121.461839,31.210132,15800839414,4.4,169.00,体育休闲,上海市,上海市,黄浦区
B0FFFZY35I,C'S Bar,体育休闲服务;娱乐场所;酒吧,080304,定西路685号新华商务大楼B1层,121.423549,31.206743,,4.4,104.00,体育休闲,上海市,上海市,长宁区
B00155I5HA,上海麻友之家(天星城店),体育休闲服务;娱乐场所;棋牌室,080306,凯旋路1669天星城7层(虹桥路地铁站6号口步行150米),121.421901,31.194911,021-64075622,3.1,40.00,体育休闲,上海市,上海市,徐汇区
B0KUMO61HF,造浪Beer Wave,体育休闲服务;娱乐场所;酒吧,080304,文定路209号,121.432141,31.184732,17301805180,4.3,88.00,体育休闲,上海市,上海市,徐汇区
B0L1T740E1,酌shishaBar,体育休闲服务;娱乐场所;娱乐场所|餐饮服务;餐饮相关场所;餐饮相关,080300|050000,斜土路与天钥桥路交叉口西南40米,121.442475,31.186025,13585612711,4.2,74.00,体育休闲,上海市,上海市,徐汇区
B0LDH9JP1K,灵墟Ethereal Ruins(绍兴路店),体育休闲服务;娱乐场所;酒吧,080304,绍兴路33号,121.462775,31.208675,,4.4,123.00,体育休闲,上海市,上海市,黄浦区
B0JD9H1QQY,Maryn Whisky Club(新·淮海坊店),体育休闲服务;娱乐场所;酒吧,080304,凯旋路1580新·淮海坊F1层(虹桥路地铁站6号口旁),121.422443,31.196460,17317318670,4.4,118.00,体育休闲,上海市,上海市,长宁区
B0K219UE7J,丰门堂,体育休闲服务;娱乐场所;酒吧,080304,瑞金南路1号(打浦桥地铁站3号口步行170米)A座17楼,121.467760,31.204416,,4.4,168.00,体育休闲,上海市,上海市,黄浦区
B0K241HSQZ,禾sakebar,体育休闲服务;娱乐场所;酒吧,080304,延安西路1228弄2号嘉利大厦东侧,121.428197,31.209840,17277965476,4.3,1100.00,体育休闲,上海市,上海市,长宁区
B0LAXA4B2Q,方舟桌游会员店Ark Board Game,体育休闲服务;娱乐场所;娱乐场所,080300,永嘉路35号茂名大厦204D,121.463417,31.210614,13764385605,4.3,87.00,体育休闲,上海市,上海市,黄浦区
B0LA141BWQ,宅玩部落·PS5,体育休闲服务;娱乐场所;游戏厅,080305,延安西路1228号9楼9F室,121.427934,31.209705,13262779560,3.7,62.00,体育休闲,上海市,上海市,长宁区
B0IR9UP7WN,HUATA 'Holiday Plan 花榻(衡山路店),体育休闲服务;娱乐场所;酒吧,080304,上海市衡山路8号5号楼A座201室,121.447423,31.206262,16621795767,4.4,306.00,体育休闲,上海市,上海市,徐汇区
B0L67R25QS,Rooms Club,体育休闲服务;娱乐场所;酒吧,080304,衡山路8号6号楼B1(衡山路地铁站3号口步行370米),121.447425,31.207075,19121357349,4.5,135.00,体育休闲,上海市,上海市,徐汇区
B0KKS1LSA1,Xcape异时刻密室沉浸游戏,体育休闲服务;娱乐场所;娱乐场所,080300,肇嘉浜路1117号TPY中心3楼01-03,121.439176,31.193094,,4.3,133.00,体育休闲,上海市,上海市,徐汇区
B0J6P9BT8O,Blarney Stone巧言石爱尔兰酒吧,体育休闲服务;娱乐场所;酒吧,080304,天平路街道永康路77-79号底层(近襄阳南路),121.457933,31.210806,,4.4,140.00,体育休闲,上海市,上海市,徐汇区
B0LD51UF52,Bar Bud,体育休闲服务;娱乐场所;酒吧,080304,永福路52号二层,121.443813,31.211402,13601989133,4.5,163.00,体育休闲,上海市,上海市,徐汇区
B0FFIIS0JX,奕和录音棚(科投大厦店),体育休闲服务;娱乐场所;娱乐场所,080300,建国西路285号科投大厦F2层,121.459012,31.205110,021-64180652,4.2,265.00,体育休闲,上海市,上海市,徐汇区
B0KBBNI4B5,人间观察小酒馆(徐汇绿地缤纷城西区店),体育休闲服务;娱乐场所;酒吧,080304,东安路562号徐汇绿地缤纷城西区F6层,121.456690,31.183410,17314177180,4.0,103.00,体育休闲,上海市,上海市,徐汇区
B0L2HCBDG8,小屋电玩ps5·switch主机游戏馆(打浦桥日月光店),体育休闲服务;娱乐场所;游戏厅,080305,徐家汇路打浦桥日月光中心徐家汇区3层,121.468525,31.206525,17602190251,4.3,52.00,体育休闲,上海市,上海市,黄浦区
B0LRU1DDT9,Nighty-night,体育休闲服务;娱乐场所;酒吧,080304,建国西路338号1幢101号,121.457125,31.204825,,4.4,141.00,体育休闲,上海市,上海市,徐汇区
B0LRYUVTSB,JUJU.bar,体育休闲服务;娱乐场所;酒吧,080304,宜山路333号汇鑫国际2号楼1层102室,121.429956,31.187544,18221926269,4.1,57.00,体育休闲,上海市,上海市,徐汇区
B0K1VMMY6K,黯月小镇桌游剧本,体育休闲服务;娱乐场所;娱乐场所,080300,延安西路1358号2号楼整层,121.424674,31.209367,13148170088,4.4,227.00,体育休闲,上海市,上海市,长宁区
B0JKHHB6JR,无谱游社·桌游·跑团(百脑汇店),体育休闲服务;娱乐场所;娱乐场所,080300,中金广场百脑汇4楼(徐家汇地铁站5号口步行80米),121.438475,31.190775,19121806680,4.3,71.00,体育休闲,上海市,上海市,徐汇区
B0FFIB8P3V,青松城大酒店-歌舞厅,体育休闲服务;娱乐场所;迪厅,080303,东安路8号青松城大酒店2楼(近徐家汇),121.449400,31.198399,021-64433888,4.1,35.00,体育休闲,上海市,上海市,徐汇区
B0L02MNF4Z,春日尧music cafe & bar,体育休闲服务;娱乐场所;酒吧,080304,昭化路357号昭化德必易园A座108室,121.424308,31.211706,15118283425;17784724088;18521707078,4.4,63.00,体育休闲,上海市,上海市,长宁区
B0FFHZTFFI,CAS BAR(平武路店),体育休闲服务;娱乐场所;酒吧,080304,平武路与幸福路交叉口西北20米,121.431050,31.208573,,4.5,84.00,体育休闲,上海市,上海市,长宁区
B0LUA5P3F8,EXISTENTIALISM,体育休闲服务;娱乐场所;酒吧,080304,复兴西路74号,121.443289,31.210731,,4.5,[],体育休闲,上海市,上海市,徐汇区
B0K03R4COR,STS神探社密室逃脱(徐家汇店),体育休闲服务;娱乐场所;娱乐场所,080300,华山路1988号百联徐汇商业广场1F层,121.437096,31.197056,,4.2,125.00,体育休闲,上海市,上海市,徐汇区
B0L0Y97LCQ,Ad Astra(建国西路店),体育休闲服务;娱乐场所;酒吧,080304,建国西路376号,121.456162,31.204520,18701979176,4.2,118.00,体育休闲,上海市,上海市,徐汇区
B0K12BCFPB,Vinaio by Salute,体育休闲服务;娱乐场所;酒吧,080304,复兴西路与武康路交叉口东120米,121.442350,31.210551,,4.3,37.00,体育休闲,上海市,上海市,徐汇区
B0HDGCNP9Q,一氧话探·欢乐推理剧本杀·桌游(美罗城店),体育休闲服务;娱乐场所;游戏厅,080305,漕溪北路41号汇嘉大厦F25层,121.439400,31.192169,13120766831,4.2,141.00,体育休闲,上海市,上海市,徐汇区
B0KRVPCJA4,深夜雪茄吧,体育休闲服务;娱乐场所;酒吧,080304,古宜路与宜山路交叉口西北180米,121.426130,31.185655,19921169067,4.1,[],体育休闲,上海市,上海市,徐汇区
B0L2RHM6JH,上海芠悦护理院有限公司,体育休闲服务;度假疗养场所;疗养院,080402,延安西路1303号2幢,121.426075,31.210525,13166206168,[],[],体育休闲,上海市,上海市,长宁区
B0LRM7XSHH,上海徐汇区田林社区悦颐长者照护之家,体育休闲服务;度假疗养场所;疗养院,080402,文定路223-225号,121.430510,31.180997,,4.4,[],体育休闲,上海市,上海市,徐汇区
B00156NZS8,上海徐汇区徐家汇街道敬老院,体育休闲服务;度假疗养场所;疗养院,080402,凯旋一村21号(南丹路番禺路),121.425354,31.193148,021-64475197,[],[],体育休闲,上海市,上海市,徐汇区
B0FFICLZRM,上海徐汇区悦颐养老院,体育休闲服务;度假疗养场所;疗养院,080402,茶陵路76号(大木桥路地铁站1号口步行390米),121.467806,31.194770,021-53555218,[],[],体育休闲,上海市,上海市,徐汇区
B00154DIHR,颐祥养老院,体育休闲服务;度假疗养场所;疗养院,080402,斜土路2590弄9号(上海体育场地铁站2号口步行220米),121.444223,31.187403,021-64381396,[],[],体育休闲,上海市,上海市,徐汇区
B0015318D8,上海徐汇区斜土街道敬老院,体育休闲服务;度假疗养场所;疗养院,080402,大木桥路321-323号(大木桥路地铁站4号口步行350米),121.462458,31.197166,021-64168928,[],[],体育休闲,上海市,上海市,徐汇区
B0FFHA1260,上海长青藤颐养院,体育休闲服务;度假疗养场所;疗养院|生活服务;生活服务场所;生活服务场所,080402|070000,华容路85弄8号,121.450814,31.179365,021-65695558,[],[],体育休闲,上海市,上海市,徐汇区
B0FFG751PO,康平路老公寓,体育休闲服务;度假疗养场所;疗养院|商务住宅;商务住宅相关;商务住宅相关,080402|120000,康平路182号,121.439671,31.201645,,[],[],体育休闲,上海市,上海市,徐汇区
B0FFKFPO0N,新徐汇乐尔之家,体育休闲服务;度假疗养场所;疗养院|体育休闲服务;休闲场所;休闲场所,080402|080500,茶陵路76号新徐汇(大木桥路地铁站1号口步行370米),121.467789,31.194610,15800616855,[],[],体育休闲,上海市,上海市,徐汇区
B0FFGHBG71,徐汇日晖养老院,体育休闲服务;度假疗养场所;疗养院,080402,零陵北路2号(大木桥路地铁站1号口步行390米),121.464405,31.196565,,[],[],体育休闲,上海市,上海市,徐汇区
B0LG2H8HPA,河山荟居家养老,体育休闲服务;度假疗养场所;疗养院,080402,延安西路辅路与定西路交叉口东北60米,121.423944,31.210353,,[],[],体育休闲,上海市,上海市,长宁区
B0L29BPXIG,瑞金二路街道家门口养老服务站·祥瑞里,体育休闲服务;度假疗养场所;疗养院,080402,陕西南路271弄25号2楼,121.462625,31.208125,,[],[],体育休闲,上海市,上海市,黄浦区
B0L2SP51RR,上海莳花斋养老服务有限公司,体育休闲服务;度假疗养场所;疗养院,080402,泰康路与思南路交叉口西200米,121.469293,31.207943,,[],[],体育休闲,上海市,上海市,黄浦区
B0L3OMXHW3,晴安康养居家养老护理医院护工,医疗保健服务;医疗保健服务场所;医疗保健服务场所|体育休闲服务;度假疗养场所;疗养院,090000|080402,零陵路与宛平南路交叉口西100米,121.447775,31.188775,,[],[],体育休闲,上海市,上海市,徐汇区
B0K0DZIVLO,上海挚康养老服务中心,体育休闲服务;度假疗养场所;疗养院,080402,法华镇路与香花桥路交叉口东南100米,121.426285,31.204331,,[],[],体育休闲,上海市,上海市,长宁区
B0LK4KVHSJ,挚护·医院护工·居家照护(六院店),体育休闲服务;度假疗养场所;疗养院|医疗保健服务;医疗保健服务场所;医疗保健服务场所,080402|090000,宜山路与钦州北路交叉口东北180米,121.425675,31.180525,,[],[],体育休闲,上海市,上海市,徐汇区
B0LBN1PUX1,白厢手作·陶艺·银饰·调香(打浦桥店),体育休闲服务;休闲场所;休闲场所,080500,瑞金南路1号海兴广场20层20D(中信银行旁边绿色旋转门进),121.467518,31.204565,15601662334,4.4,99.00,体育休闲,上海市,上海市,黄浦区
B0L697QCH3,bb boom亲子协作游戏·聚会·亲子·团建(徐家汇店),体育休闲服务;休闲场所;游乐场,080501,TPY中心4楼L3-03-06,121.439167,31.193012,18221864629,4.3,191.00,体育休闲,上海市,上海市,徐汇区
B0LALLILAD,玩个毛线·Tufting手作坊(徐汇店),体育休闲服务;休闲场所;休闲场所,080500,田林街道宜山路515号环线广场,121.426075,31.180175,,4.2,197.00,体育休闲,上海市,上海市,徐汇区
B0L1TU3QSN,满陇山房(港汇恒隆广场店),体育休闲服务;休闲场所;休闲场所,080500,虹桥路1号港汇恒隆广场6层(SFC上影院旁边),121.437175,31.195075,13162333626,4.3,146.00,体育休闲,上海市,上海市,徐汇区
B0G3NUOT22,是良匠手工艺术(淮海中路店),体育休闲服务;休闲场所;休闲场所,080500,嘉善路140弄1号甲D,121.458710,31.210393,18121335745,4.3,148.00,体育休闲,上海市,上海市,徐汇区
B0K0KS1O4Z,简乐工坊陶艺·tufting·流体熊团建,体育休闲服务;休闲场所;休闲场所,080500,中山西路1919号北科大厦B座802室,121.425993,31.183800,18930403341,4.2,117.00,体育休闲,上海市,上海市,徐汇区
B0JBT56DJZ,集雅GATHERING咖啡(五原路店),体育休闲服务;休闲场所;休闲场所,080500,五原路263号,121.443486,31.212055,13601972652,4.5,56.00,体育休闲|独处品质空间,上海市,上海市,徐汇区
B0FFH1070L,徐家汇公园-儿童乐园,体育休闲服务;休闲场所;游乐场,080501,肇嘉浜路986号徐家汇公园(东北角),121.443033,31.198633,,4.4,[],体育休闲,上海市,上海市,徐汇区
B0I1RZ1UPT,胶集黑胶文化艺术共享空间(大地大楼店),体育休闲服务;休闲场所;休闲场所,080500,文定路218号B座3M,121.432147,31.185845,,4.3,92.00,体育休闲,上海市,上海市,徐汇区
B0I2PAAEHW,VB金工制造局珠宝首饰银饰DIY定制约会(百脑汇店),体育休闲服务;休闲场所;休闲场所,080500,漕溪北路339号4楼4Y01-ROOM8,121.438400,31.190568,13124872501,3.9,161.00,体育休闲,上海市,上海市,徐汇区
B0L2FH1MMU,winleap city camp 云途问鲤,体育休闲服务;休闲场所;休闲场所,080500,番禺路381号4幢101室,121.429975,31.204579,,4.4,56.00,体育休闲,上海市,上海市,长宁区
B0J6PH3066,上海交通大学徐汇校区教师活动中心,科教文化服务;学校;高等院校|体育休闲服务;休闲场所;休闲场所,141201|080500,华山路1954号上海交通大学徐汇校区,121.435819,31.199460,021-62822822,[],[],体育休闲,上海市,上海市,徐汇区
B0LDCSMV3D,小虎探险队,体育休闲服务;休闲场所;休闲场所,080500,瑞金南路518号,121.468317,31.198346,13636442579,3.2,145.00,体育休闲,上海市,上海市,徐汇区
B0LKGL2VI1,O'Grain趣农场(长宁国际店),体育休闲服务;休闲场所;休闲场所,080500,IM长宁国际T8-101(虹桥路地铁站1号口步行320米),121.421800,31.199308,,4.1,54.00,体育休闲,上海市,上海市,长宁区
B0L0U9WIQ3,Team Party手作造物社,体育休闲服务;休闲场所;休闲场所,080500,瑞金二路225弄15号,121.467082,31.207926,13061618192;18742572423,3.9,52.00,体育休闲,上海市,上海市,黄浦区
B0LD39ONVP,Meetcute手工坊(建国西路店),体育休闲服务;休闲场所;休闲场所,080500,太原路与建国西路交叉口西南60米,121.455238,31.203759,,4.0,231.00,体育休闲,上海市,上海市,徐汇区
B0J3J9YSZE,Together·泰式按摩精油SPA(徐汇店),体育休闲服务;休闲场所;休闲场所,080500,华山路2088号汇银广场南楼2201室,121.437263,31.196701,17721409948,4.1,176.00,体育休闲,上海市,上海市,徐汇区
B0L24RP7IZ,有闲造物社·陶艺油画手工diy·银饰·团建(田子坊店),体育休闲服务;休闲场所;休闲场所,080500,泰康路与思南路交叉口西200米,121.469284,31.207869,,4.0,90.00,体育休闲,上海市,上海市,黄浦区
B0K17APYMF,奇异·愚人船(上体馆店),体育休闲服务;休闲场所;游乐场,080501,中山西路2368号华鼎大厦2003,121.432125,31.180425,17302102425,4.4,175.00,体育休闲,上海市,上海市,徐汇区
B0KBNHJIOU,徐汇滨江绿地-露营地,体育休闲服务;休闲场所;露营地,080504,东安路龙腾大道交界处徐汇滨江绿地,121.463425,31.181875,,4.2,[],体育休闲,上海市,上海市,徐汇区
B0LG4HDEN1,肥猫侦探·儿童探索乐园,体育休闲服务;休闲场所;游乐场|体育休闲服务;娱乐场所;娱乐场所,080501|080300,徐家汇路与打浦路交叉口西北120米,121.468546,31.206192,,4.0,139.00,体育休闲,上海市,上海市,黄浦区
B0I0UU6BUP,Adagio Renaissance Hall阿达吉奥(复兴音乐厅),体育休闲服务;休闲场所;休闲场所,080500,复兴中路1199号明园商务中心A幢307室,121.458797,31.212668,,4.4,[],体育休闲,上海市,上海市,徐汇区
B0L167S7QP,Mao Hulu陶艺工作室,体育休闲服务;休闲场所;休闲场所,080500,新华路365弄6号楼207室(FICS新华365内),121.425111,31.202012,15801986967,3.8,181.00,体育休闲,上海市,上海市,长宁区
B0LUTR63Q5,33studio tufting手工DIY团建,体育休闲服务;休闲场所;休闲场所,080500,兴国路408号兴国大厦2楼R7室(武康大楼对面DQ上二楼),121.437727,31.204238,19121501063,4.4,105.00,体育休闲,上海市,上海市,长宁区
B0I12N206B,别处艺术·玻璃·陶艺·Tufting,体育休闲服务;休闲场所;休闲场所,080500,襄阳南路383弄20号1楼,121.458559,31.207354,18057000950,4.3,250.00,体育休闲,上海市,上海市,徐汇区
B001573CKA,徐汇滨江公共开放空间,体育休闲服务;休闲场所;休闲场所,080500,滨江大道3222号,121.464216,31.181323,,4.2,[],体育休闲,上海市,上海市,徐汇区
B0JRCYAAOH,天天玩上海徐汇区店(百联徐汇商业广场店),体育休闲服务;休闲场所;休闲场所,080500,华山路1988号百联徐汇商业广场5F层,121.437144,31.196773,021-54652503,4.2,[],体育休闲,上海市,上海市,徐汇区
B0FFJXX4C3,徐汇区枫林路街道邻里汇,体育休闲服务;休闲场所;休闲场所,080500,枫林路581号邻里汇F1层,121.460062,31.189362,,3.9,26.00,体育休闲,上海市,上海市,徐汇区
B0H2NSE8VW,Homeclassroom(德必外滩WE店),体育休闲服务;休闲场所;休闲场所,080500,复兴中路1321弄2号楼102室,121.453669,31.211339,13816498059,4.3,141.00,体育休闲,上海市,上海市,徐汇区
B0LGV5XOFP,尚湾里儿童乐园,体育休闲服务;休闲场所;游乐场,080501,东安路与龙腾大道辅路交叉口西200米,121.461452,31.181015,,4.3,[],体育休闲,上海市,上海市,徐汇区
B0K3HC1KPZ,超级飞侠启航站,体育休闲服务;休闲场所;游乐场,080501,东安路与龙腾大道辅路交叉口西180米,121.461570,31.181052,,3.6,52.00,体育休闲,上海市,上海市,徐汇区
B0I09LNWDW,Yuan源运动康复工作室(阳光滨江天地·尚湾里店),体育休闲服务;休闲场所;休闲场所,080500,东安路888弄(尚湾里B11商铺)近瑞幸咖啡,121.462482,31.180709,021-60709065;13585924432,3.6,[],体育休闲,上海市,上海市,徐汇区
B0L3AZR3QZ,瑾坤心舍,体育休闲服务;休闲场所;休闲场所,080500,华山路2088号汇银南楼22层1341号,121.437175,31.196825,,3.8,206.00,体育休闲,上海市,上海市,徐汇区
B0I1GS1ALM,Perlart手作理想国,体育休闲服务;休闲场所;休闲场所,080500,淮海中路1487弄48号2楼,121.446459,31.207850,,3.7,252.00,体育休闲,上海市,上海市,徐汇区
B0LR1XUDC5,云里汇养生,体育休闲服务;休闲场所;休闲场所,080500,嘉善路与肇嘉浜路交叉口东北40米,121.461065,31.203348,,2.8,185.00,体育休闲,上海市,上海市,徐汇区
B0L3AOYJAD,桑拿SaunasOutdoorClub,体育休闲服务;休闲场所;休闲场所,080500,襄阳南路与永康路交叉口西北20米,121.457474,31.211001,,4.1,42.00,体育休闲,上海市,上海市,徐汇区
B0J26X4IXI,上海饱和音乐文化传播有限公司,体育休闲服务;休闲场所;休闲场所,080500,田林街道宜山路2020号华宜大厦1号楼702A,121.426698,31.182039,19301449886,3.7,261.00,体育休闲,上海市,上海市,徐汇区
B0GUTAI1RS,China陶社(北科大厦b座店),体育休闲服务;休闲场所;休闲场所|购物服务;购物相关场所;购物相关场所,080500|060000,中山西路1919号北科大厦B座1205室,121.425712,31.183696,18930403341,3.1,[],体育休闲,上海市,上海市,徐汇区
B0LGV1YXW9,胜利之音工作室,体育休闲服务;休闲场所;休闲场所,080500,南丹路与凯旋路交叉口东120米,121.423985,31.193787,,3.5,309.00,体育休闲,上海市,上海市,徐汇区
B0L2BLLTK0,Dslivehouse烧鸟自助,体育休闲服务;休闲场所;休闲场所,080500,衡山路与乌鲁木齐南路交叉口西南140米,121.447158,31.206210,,3.7,154.00,体育休闲,上海市,上海市,徐汇区
B0FFG4FB1H,盛大花园会所,体育休闲服务;休闲场所;休闲场所,080500,龙华弄2518弄(龙华地铁站3号口步行490米),121.453343,31.178483,,4.1,[],体育休闲,上海市,上海市,徐汇区
B0LRNZK4TK,IFBYLAND,体育休闲服务;休闲场所;休闲场所,080500,武康路与复兴西路交叉口南60米,121.440975,31.210175,,4.1,[],体育休闲,上海市,上海市,徐汇区
B0LR0HMRSI,烬·玻璃艺术工作室烧玻璃体验diy,体育休闲服务;休闲场所;休闲场所,080500,长宁区延安西路1228弄2号嘉利大厦26楼26k,121.427945,31.209718,,3.7,215.00,体育休闲,上海市,上海市,长宁区
B0LKKLOYDS,星辉(上海市店),体育休闲服务;休闲场所;休闲场所,080500,打浦路与徐家汇路交叉口东南40米,121.469987,31.205034,,3.3,[],体育休闲,上海市,上海市,黄浦区
B0IRTZCBBO,几步生活馆,体育休闲服务;休闲场所;休闲场所,080500,宜山路250弄24号福舍301,121.429075,31.189242,,3.8,[],体育休闲,上海市,上海市,徐汇区
B0LKBXUSSX,前夜事务所,体育休闲服务;休闲场所;休闲场所,080500,法华镇路与定西路交叉口东20米,121.423928,31.205734,,2.1,[],体育休闲,上海市,上海市,长宁区
B0L0RC6GPR,乐境空间vr体验,体育休闲服务;休闲场所;休闲场所|体育休闲服务;娱乐场所;娱乐场所,080500|080300,中山西路与宜山路交叉口西80米,121.425725,31.182775,,3.3,[],体育休闲|银发极客_科技体验,上海市,上海市,徐汇区
B0LGA5NSJ0,IN ONE DIY创意工坊,体育休闲服务;休闲场所;休闲场所,080500,定西路与武夷路交叉口东南80米,121.423609,31.212523,,2.8,[],体育休闲,上海市,上海市,长宁区
B0LURS3G21,群楼活动中心,体育休闲服务;休闲场所;休闲场所,080500,双峰北路与零陵路交叉口西北120米,121.445175,31.188075,,3.0,[],体育休闲,上海市,上海市,徐汇区
B00156ZEPU,徐汇滨江绿地,体育休闲服务;休闲场所;休闲场所,080500,东安路龙腾大道交界处,121.463869,31.180766,19157872860,4.8,[],体育休闲,上海市,上海市,徐汇区
B0015483FE,上海影城(新华路店),体育休闲服务;影剧院;电影院,080601,新华路160号(交通大学地铁站5号口步行480米),121.429539,31.202464,021-62806088,4.9,29.00,体育休闲,上海市,上海市,长宁区
B0FFF3T00K,捷豹上海交响音乐厅,体育休闲服务;影剧院;音乐厅,080602,复兴中路1380号(常熟路地铁站4号口步行450米),121.451646,31.211519,4008210522,4.8,202.00,体育休闲,上海市,上海市,徐汇区
B0L0772MWC,SFC上海影城(上海SHO杜比剧场),体育休闲服务;影剧院;电影院,080601,新华路160号,121.429669,31.202556,021-62806088,4.7,125.00,体育休闲,上海市,上海市,长宁区
B00155LAQL,SFC上影影城(港汇永华IMAX激光店),体育休闲服务;影剧院;电影院,080601,虹桥路1号港汇恒隆广场6层,121.436656,31.194985,021-64076622,4.6,46.00,体育休闲,上海市,上海市,徐汇区
B0FFHPK9TC,SFC上影影城(绿地缤纷城西区),体育休闲服务;影剧院;电影院,080601,东安路562号绿地缤纷城(徐汇店)西区3层,121.455493,31.183439,021-33632336,4.7,42.00,体育休闲,上海市,上海市,徐汇区
B0FFFVGBOG,上影BOE-α超级影城(美罗城店),体育休闲服务;影剧院;电影院,080601,肇嘉浜路1111号美罗城5层(徐家汇地铁站出入口旁),121.438978,31.192580,021-64268181,4.6,38.00,体育休闲,上海市,上海市,徐汇区
B0FFHI421U,孙科别墅,体育休闲服务;影剧院;剧场,080603,番禺路60号,121.428995,31.208515,,4.4,[],体育休闲,上海市,上海市,长宁区
B0LRDH6AXZ,乐影城(徐汇滨江店),体育休闲服务;影剧院;电影院,080601,东安路599号绿地中心正大乐城1号楼3层301,121.457748,31.185836,15601670870,4.5,41.00,体育休闲,上海市,上海市,徐汇区
B0HB2HW9K5,幕鱼点播影院(百联徐汇商业广场),体育休闲服务;影剧院;电影院,080601,华山路2038号(近广元西路)徐汇百联商业广场二楼星巴克旁边自动扶梯上,121.436919,31.197442,17321459520,4.2,94.00,体育休闲,上海市,上海市,徐汇区
B0IBHSHD99,WEEKS主题私人影院(徐汇百联店),体育休闲服务;影剧院;电影院,080601,华山路2088号汇银南楼2楼,121.437186,31.196656,,4.2,91.00,体育休闲,上海市,上海市,徐汇区
B0FFH16ATD,ANTHOLOGIA地球美食剧场,体育休闲服务;影剧院;剧场,080603,番禺路381号幸福里D栋105-107室,121.430844,31.204498,021-52799277;13524918617,4.3,941.00,体育休闲,上海市,上海市,长宁区
B0FFG7I2SL,约会吧私人影吧(凯托大厦店),体育休闲服务;影剧院;电影院,080601,中山西路1858号凯托大厦202美康牙科右边2层,121.425318,31.183135,,4.1,113.00,体育休闲,上海市,上海市,徐汇区
B0L2C5H4RA,WooHooo無弧XR智能影院(美罗城店),体育休闲服务;影剧院;电影院,080601,美罗城,121.439663,31.192825,,4.1,93.00,体育休闲,上海市,上海市,徐汇区
B0FFIG8URD,木槿校园影院(徐汇交大店),体育休闲服务;影剧院;电影院,080601,淮海西路与番禺路交叉口东南260米,121.431681,31.198517,,4.0,27.00,体育休闲,上海市,上海市,徐汇区
B0L0XSL52K,SFC上影影城(新衡山店),体育休闲服务;影剧院;电影院,080601,衡山路838号(天平路口),121.440525,31.197475,021-64377418,4.0,[],体育休闲,上海市,上海市,徐汇区
B0HUA55GO2,NEST巢空间·上海(城开YOYO店),体育休闲服务;影剧院;剧场,080603,复兴中路1199号明园商务中心A座3层309B,121.442034,31.192379,17521751896,3.7,[],体育休闲,上海市,上海市,徐汇区
B0KRCA5W8D,LargoStudio录音棚·音乐厅,体育休闲服务;影剧院;剧场,080603,嘉善路与永康路交叉口北80米,121.459145,31.211930,,4.2,[],体育休闲,上海市,上海市,徐汇区
B0L32Z2XU1,Fun映·日式影游小屋·自助,体育休闲服务;影剧院;电影院,080601,漕溪北路41号汇嘉大厦1703室,121.439425,31.192156,,4.3,101.00,体育休闲,上海市,上海市,徐汇区
B0FFF5QGDX,天下票仓(上海电影广场C栋店),体育休闲服务;影剧院;影剧院相关,080600,漕溪北路595号C座13层,121.438276,31.186186,021-33391213,3.8,68.00,体育休闲,上海市,上海市,徐汇区
B0FFFC1ZAU,上海越剧院排练厅,体育休闲服务;影剧院;剧场|体育休闲服务;运动场馆;运动场所,080603|080100,复兴西路10弄1-16号(常熟路地铁站7号口步行360米),121.447575,31.211275,,3.0,[],体育休闲,上海市,上海市,徐汇区
B0L3RXON4Y,Catchup开壳影业,体育休闲服务;影剧院;电影院,080601,新华路345弄5号楼一楼北,121.425125,31.201875,,[],[],体育休闲,上海市,上海市,长宁区
B0JAAXLDYN,上海电影集团公益电影放映点(上海电影广场店),体育休闲服务;影剧院;影剧院相关,080600,漕溪北路595号上海电影广场,121.438525,31.186325,,2.8,[],体育休闲,上海市,上海市,徐汇区
B0KRF1HJCK,上海音乐学院(零陵校区)贺绿汀音乐厅,体育休闲服务;影剧院;剧场,080603,零陵路与宛平南路交叉口东300米,121.451875,31.189489,,3.9,[],体育休闲,上海市,上海市,徐汇区
B0FFKJOZH3,Enjoy 影·悦(日月光店),体育休闲服务;影剧院;电影院,080601,瑞金南路1号海兴广场18层E座,121.467629,31.204537,,3.9,[],体育休闲,上海市,上海市,黄浦区
B0JAAXNXZO,尚海湾豪庭公益电影放映点,体育休闲服务;影剧院;影剧院相关,080600,上海市徐汇区豪庭,121.459663,31.178506,,3.2,[],体育休闲,上海市,上海市,徐汇区
B0JAAXPGJ8,徐家汇源公益电影放映点,体育休闲服务;影剧院;影剧院相关,080600,上海市徐汇区乐山四五村,121.432188,31.196626,,2.6,[],体育休闲,上海市,上海市,徐汇区
B0JK36CXMD,永嘉新村公益电影放映点,体育休闲服务;影剧院;电影院,080601,上海市徐汇区永嘉新村,121.450202,31.205936,,2.3,[],体育休闲,上海市,上海市,徐汇区
B0K26RK21Z,玉兰花苑公益电影放映点,体育休闲服务;影剧院;电影院,080601,上海市徐汇区息村,121.435274,31.186085,,2.1,[],体育休闲,上海市,上海市,徐汇区
B0JKTX9GUY,东安花苑公益电影放映点,体育休闲服务;影剧院;电影院,080601,上海市徐汇区东安苑(龙华中路地铁站11号口步行160米),121.455586,31.185922,,1.6,[],体育休闲,上海市,上海市,徐汇区
B0JAAXKK90,上海新邨公益电影放映点,体育休闲服务;影剧院;电影院,080601,上海市上海新村(上海图书馆地铁站2号口步行290米),121.446725,31.208360,,2.5,[],体育休闲,上海市,上海市,徐汇区
B00152513C,衡山电影院(衡山路店)(暂停营业),体育休闲服务;影剧院;电影院,080601,衡山路838号(天平路口),121.440539,31.197490,021-64377418;021-54652849,4.3,[],体育休闲,上海市,上海市,徐汇区
B0J6S752JE,耐克篮球公园(暂停营业),体育休闲服务;运动场馆;篮球场馆,080104,徐家汇体育公园内(上海体育馆地铁站6号口步行390米),121.439268,31.180167,,4.3,[],体育休闲,上海市,上海市,徐汇区
B0IRBR13MA,上海文化广场户外舞台,体育休闲服务;体育休闲服务场所;体育休闲服务场所|风景名胜;风景名胜相关;旅游景点,080000|110000,茂名南路与永嘉路交叉口西北180米,121.462175,31.211975,,3.5,[],体育休闲,上海市,上海市,黄浦区
B0JB1ZB93C,道一功夫馆,体育休闲服务;运动场馆;运动场所,080100,定西路655号2楼(近法华镇路永琪旁),121.423612,31.205975,15721157850,3.7,[],体育休闲,上海市,上海市,长宁区
B0HDYPOV0E,太极古法肩颈(华山路店),生活服务;生活服务场所;生活服务场所,070000,华山路与广元西路交叉口南100米,121.436933,31.197360,,2.9,[],体育休闲,上海市,上海市,徐汇区
B0HDUZJ3AA,太极古法肩颈(中山西路),医疗保健服务;医疗保健服务场所;医疗保健服务场所,090000,中山西路与宜山路交叉口西120米,121.425326,31.183126,,2.9,[],体育休闲,上海市,上海市,徐汇区
