id,name,type,typecode,address,lng,lat,tel,rating,cost,group,pname,cityname,adname
B00157GH8J,上海瑞金医院高架直升机场,交通设施服务;机场相关;直升机场,150106,瑞金二路197号门诊部24层楼顶,121.466879,31.210259,021-64370045,[],[],交通设施,上海市,上海市,黄浦区
BV10029707,徐家汇(地铁站),交通设施服务;地铁站;地铁站,150500,11号线;1号线;9号线,121.436603,31.195514,,[],[],交通设施,上海市,上海市,徐汇区
BV10025307,交通大学(地铁站),交通设施服务;地铁站;地铁站,150500,10号线;11号线,121.435253,31.202213,,[],[],交通设施,上海市,上海市,徐汇区
BV10039880,宜山路(地铁站),交通设施服务;地铁站;地铁站,150500,3号线;4号线;9号线,121.427194,31.186717,,[],[],交通设施,上海市,上海市,徐汇区
BV10025891,打浦桥(地铁站),交通设施服务;地铁站;地铁站,150500,9号线,121.468681,31.206309,,[],[],交通设施,上海市,上海市,黄浦区
BV10039972,虹桥路(地铁站),交通设施服务;地铁站;地铁站,150500,10号线;3号线;4号线,121.420814,31.197524,,[],[],交通设施,上海市,上海市,长宁区
BV10039861,肇嘉浜路(地铁站),交通设施服务;地铁站;地铁站,150500,7号线;9号线,121.450212,31.199436,,[],[],交通设施,上海市,上海市,徐汇区
BV10039881,嘉善路(地铁站),交通设施服务;地铁站;地铁站,150500,12号线;9号线,121.460704,31.202820,,[],[],交通设施,上海市,上海市,徐汇区
BV10039859,龙华中路(地铁站),交通设施服务;地铁站;地铁站,150500,12号线;7号线,121.457064,31.184379,,[],[],交通设施,上海市,上海市,徐汇区
BV10026004,上海体育馆(地铁站),交通设施服务;地铁站;地铁站,150500,1号线;4号线,121.437423,31.182813,,[],[],交通设施,上海市,上海市,徐汇区
BV10039860,东安路(地铁站),交通设施服务;地铁站;地铁站,150500,4号线;7号线,121.454897,31.190819,,[],[],交通设施,上海市,上海市,徐汇区
BV10039973,上海图书馆(地铁站),交通设施服务;地铁站;地铁站,150500,10号线,121.444363,31.207960,,[],[],交通设施,上海市,上海市,徐汇区
BV10039940,大木桥路(地铁站),交通设施服务;地铁站;地铁站,150500,12号线;4号线,121.463278,31.194057,,[],[],交通设施,上海市,上海市,徐汇区
BV10039894,衡山路(地铁站),交通设施服务;地铁站;地铁站,150500,1号线,121.446424,31.204528,,[],[],交通设施,上海市,上海市,徐汇区
BV10024941,上海游泳馆(地铁站),交通设施服务;地铁站;地铁站,150500,11号线,121.441424,31.179123,,[],[],交通设施,上海市,上海市,徐汇区
BV10024951,上海体育场(地铁站),交通设施服务;地铁站;地铁站,150500,(在建)23号线;4号线,121.443529,31.185605,,[],[],交通设施,上海市,上海市,徐汇区
BX10016312,交通大学地铁站7号口,交通设施服务;地铁站;出入口,150501,11号线,121.435151,31.202750,,[],[],交通设施,上海市,上海市,长宁区
BX10016160,徐家汇地铁站9号口,交通设施服务;地铁站;出入口,150501,1号线,121.438632,31.192281,,[],[],交通设施,上海市,上海市,徐汇区
BX10016061,宜山路地铁站5号口,交通设施服务;地铁站;出入口,150501,4号线,121.426159,31.188170,,[],[],交通设施,上海市,上海市,徐汇区
BX10016952,打浦桥地铁站1号口,交通设施服务;地铁站;出入口,150501,9号线,121.468704,31.207511,,[],[],交通设施,上海市,上海市,黄浦区
BX10016316,交通大学地铁站5号口,交通设施服务;地铁站;出入口,150501,10号线,121.433849,31.201833,,[],[],交通设施,上海市,上海市,长宁区
BX10016874,肇嘉浜路地铁站2号口,交通设施服务;地铁站;出入口,150501,9号线,121.450729,31.199257,,[],[],交通设施,上海市,上海市,徐汇区
BX10016174,常熟路地铁站4号口,交通设施服务;地铁站;出入口,150501,1号线,121.450253,31.212917,,[],[],交通设施,上海市,上海市,徐汇区
BX10016953,打浦桥地铁站2号口,交通设施服务;地铁站;出入口,150501,9号线,121.469464,31.205769,,[],[],交通设施,上海市,上海市,黄浦区
BX10016191,衡山路地铁站1号口,交通设施服务;地铁站;出入口,150501,1号线,121.446269,31.203921,,[],[],交通设施,上海市,上海市,徐汇区
BX10016898,嘉善路地铁站2号口,交通设施服务;地铁站;出入口,150501,9号线,121.461430,31.202664,,[],[],交通设施,上海市,上海市,徐汇区
BX10016056,宜山路地铁站4号口,交通设施服务;地铁站;出入口,150501,4号线,121.426690,31.187437,,[],[],交通设施,上海市,上海市,徐汇区
BX10022790,龙华中路地铁站5号口,交通设施服务;地铁站;出入口,150501,7号线,121.457538,31.183483,,[],[],交通设施,上海市,上海市,徐汇区
BX10016168,徐家汇地铁站16号口,交通设施服务;地铁站;出入口,150501,9号线,121.437709,31.196002,,[],[],交通设施,上海市,上海市,徐汇区
BX10016026,虹桥路地铁站6号口,交通设施服务;地铁站;出入口,150501,10号线,121.421830,31.196244,,[],[],交通设施,上海市,上海市,长宁区
BX10020128,嘉善路地铁站4号口,交通设施服务;地铁站;出入口,150501,12号线,121.460889,31.201408,,[],[],交通设施,上海市,上海市,徐汇区
BX10016954,打浦桥地铁站4号口,交通设施服务;地铁站;出入口,150501,9号线,121.467447,31.206220,,[],[],交通设施,上海市,上海市,黄浦区
BX10016027,虹桥路地铁站4号口,交通设施服务;地铁站;出入口,150501,10号线,121.422989,31.197039,,[],[],交通设施,上海市,上海市,长宁区
BX10016315,交通大学地铁站1号口,交通设施服务;地铁站;出入口,150501,10号线,121.435709,31.202106,,[],[],交通设施,上海市,上海市,徐汇区
BX10016854,东安路地铁站1号口,交通设施服务;地铁站;出入口,150501,4号线,121.455536,31.190842,,[],[],交通设施,上海市,上海市,徐汇区
BX10016060,宜山路地铁站7号口,交通设施服务;地铁站;出入口,150501,9号线,121.427817,31.184473,,[],[],交通设施,上海市,上海市,徐汇区
BX10016154,徐家汇地铁站1号口,交通设施服务;地铁站;出入口,150501,1号线,121.437006,31.189314,,[],[],交通设施,上海市,上海市,徐汇区
BX10016178,常熟路地铁站7号口,交通设施服务;地铁站;出入口,150501,7号线,121.449222,31.212715,,[],[],交通设施,上海市,上海市,徐汇区
BX10016992,上海体育场地铁站3号口,交通设施服务;地铁站;出入口,150501,4号线,121.443116,31.184598,,[],[],交通设施,上海市,上海市,徐汇区
BX10016058,宜山路地铁站9号口,交通设施服务;地铁站;出入口,150501,9号线,121.426361,31.183066,,[],[],交通设施,上海市,上海市,徐汇区
BX10016164,徐家汇地铁站14号口,交通设施服务;地铁站;出入口,150501,1号线,121.439572,31.194447,,[],[],交通设施,上海市,上海市,徐汇区
BX10016165,徐家汇地铁站11号口,交通设施服务;地铁站;出入口,150501,1号线,121.438336,31.193325,,[],[],交通设施,上海市,上海市,徐汇区
BX10016161,徐家汇地铁站10号口,交通设施服务;地铁站;出入口,150501,1号线,121.438914,31.193173,,[],[],交通设施,上海市,上海市,徐汇区
BX10016795,上海图书馆地铁站3号口,交通设施服务;地铁站;出入口,150501,10号线,121.443990,31.207588,,[],[],交通设施,上海市,上海市,徐汇区
BX10016236,上海体育馆地铁站6号口,交通设施服务;地铁站;出入口,150501,1号线,121.436545,31.180808,,[],[],交通设施,上海市,上海市,徐汇区
BX10016955,打浦桥地铁站3号口,交通设施服务;地铁站;出入口,150501,9号线,121.468348,31.205744,,[],[],交通设施,上海市,上海市,黄浦区
BX10016855,东安路地铁站6号口,交通设施服务;地铁站;出入口,150501,7号线,121.454484,31.191014,,[],[],交通设施,上海市,上海市,徐汇区
BX10016159,徐家汇地铁站20号口,交通设施服务;地铁站;出入口,150501,11号线,121.435659,31.193609,,[],[],交通设施,上海市,上海市,徐汇区
BX10016025,虹桥路地铁站1号口,交通设施服务;地铁站;出入口,150501,4号线,121.420776,31.197949,,[],[],交通设施,上海市,上海市,长宁区
BX10016241,上海体育馆地铁站8号口,交通设施服务;地铁站;出入口,150501,1号线,121.435863,31.182660,,[],[],交通设施,上海市,上海市,徐汇区
BX10022841,宜山路地铁站10号口,交通设施服务;地铁站;出入口,150501,9号线,121.427344,31.184785,,[],[],交通设施,上海市,上海市,徐汇区
BX10016053,宜山路地铁站11号口,交通设施服务;地铁站;出入口,150501,9号线,121.427272,31.185222,,[],[],交通设施,上海市,上海市,徐汇区
BX10016166,徐家汇地铁站15号口,交通设施服务;地铁站;出入口,150501,9号线,121.438255,31.195902,,[],[],交通设施,上海市,上海市,徐汇区
BX10016057,宜山路地铁站3号口,交通设施服务;地铁站;出入口,150501,4号线,121.427615,31.186422,,[],[],交通设施,上海市,上海市,徐汇区
BX10016317,交通大学地铁站2号口,交通设施服务;地铁站;出入口,150501,11号线,121.435157,31.201475,,[],[],交通设施,上海市,上海市,徐汇区
BX10016794,上海图书馆地铁站1号口,交通设施服务;地铁站;出入口,150501,10号线,121.444470,31.208358,,[],[],交通设施,上海市,上海市,徐汇区
BX10016998,大木桥路地铁站3号口,交通设施服务;地铁站;出入口,150501,4号线,121.462420,31.193486,,[],[],交通设施,上海市,上海市,徐汇区
BX10016028,虹桥路地铁站2号口,交通设施服务;地铁站;出入口,150501,4号线,121.421094,31.196892,,[],[],交通设施,上海市,上海市,长宁区
BX10020130,龙华中路地铁站7号口,交通设施服务;地铁站;出入口,150501,12号线,121.456436,31.184259,,[],[],交通设施,上海市,上海市,徐汇区
BX10016151,徐家汇地铁站3号口,交通设施服务;地铁站;出入口,150501,1号线,121.437422,31.190447,,[],[],交通设施,上海市,上海市,徐汇区
BX10016876,肇嘉浜路地铁站3号口,交通设施服务;地铁站;出入口,150501,7号线,121.450730,31.198244,,[],[],交通设施,上海市,上海市,徐汇区
BX10016240,上海体育馆地铁站4号口,交通设施服务;地铁站;出入口,150501,4号线,121.436700,31.182997,,[],[],交通设施,上海市,上海市,徐汇区
BX10016314,交通大学地铁站4号口,交通设施服务;地铁站;出入口,150501,10号线,121.434057,31.201525,,[],[],交通设施,上海市,上海市,徐汇区
BX10016156,徐家汇地铁站18号口,交通设施服务;地铁站;出入口,150501,9号线,121.435354,31.195404,,[],[],交通设施,上海市,上海市,徐汇区
BX10016313,交通大学地铁站6号口,交通设施服务;地铁站;出入口,150501,11号线,121.434380,31.202742,,[],[],交通设施,上海市,上海市,长宁区
BX10016055,宜山路地铁站8号口,交通设施服务;地铁站;出入口,150501,9号线,121.427154,31.183030,,[],[],交通设施,上海市,上海市,徐汇区
BX10016350,上海游泳馆地铁站2号口,交通设施服务;地铁站;出入口,150501,11号线,121.441915,31.178878,,[],[],交通设施,上海市,上海市,徐汇区
BX10016238,上海体育馆地铁站7号口,交通设施服务;地铁站;出入口,150501,1号线,121.435858,31.181028,,[],[],交通设施,上海市,上海市,徐汇区
BX10016169,徐家汇地铁站2号口,交通设施服务;地铁站;出入口,150501,1号线,121.437702,31.189281,,[],[],交通设施,上海市,上海市,徐汇区
BX10016875,肇嘉浜路地铁站4号口,交通设施服务;地铁站;出入口,150501,7号线,121.450111,31.198763,,[],[],交通设施,上海市,上海市,徐汇区
BX10016897,嘉善路地铁站5号口,交通设施服务;地铁站;出入口,150501,9号线,121.460252,31.202383,,[],[],交通设施,上海市,上海市,徐汇区
BX10036788,龙华中路地铁站1号口,交通设施服务;地铁站;出入口,150501,7号线,121.457235,31.185655,,[],[],交通设施,上海市,上海市,徐汇区
BX10016239,上海体育馆地铁站2号口,交通设施服务;地铁站;出入口,150501,4号线,121.438046,31.182716,,[],[],交通设施,上海市,上海市,徐汇区
BX10016852,东安路地铁站4号口,交通设施服务;地铁站;出入口,150501,7号线,121.454237,31.192152,,[],[],交通设施,上海市,上海市,徐汇区
BX10016052,宜山路地铁站1号口,交通设施服务;地铁站;出入口,150501,3号线,121.427327,31.186673,,[],[],交通设施,上海市,上海市,徐汇区
BX10016153,徐家汇地铁站17号口,交通设施服务;地铁站;出入口,150501,9号线,121.436923,31.195832,,[],[],交通设施,上海市,上海市,徐汇区
BX10016024,虹桥路地铁站3号口,交通设施服务;地铁站;出入口,150501,3号线,121.420576,31.197885,,[],[],交通设施,上海市,上海市,长宁区
BX10016857,东安路地铁站3号口,交通设施服务;地铁站;出入口,150501,4号线,121.453911,31.190537,,[],[],交通设施,上海市,上海市,徐汇区
BX10020125,大木桥路地铁站6号口,交通设施服务;地铁站;出入口,150501,12号线,121.464496,31.193213,,[],[],交通设施,上海市,上海市,徐汇区
BX10016793,上海图书馆地铁站2号口,交通设施服务;地铁站;出入口,150501,10号线,121.444928,31.208199,,[],[],交通设施,上海市,上海市,徐汇区
BX10036787,龙华中路地铁站11号口,交通设施服务;地铁站;出入口,150501,7号线,121.456626,31.185719,,[],[],交通设施,上海市,上海市,徐汇区
BX10020119,大木桥路地铁站1号口,交通设施服务;地铁站;出入口,150501,4号线,121.464175,31.194582,,[],[],交通设施,上海市,上海市,徐汇区
BX10016999,大木桥路地铁站4号口,交通设施服务;地铁站;出入口,150501,4号线,121.463322,31.194264,,[],[],交通设施,上海市,上海市,徐汇区
BX10016991,上海体育场地铁站2号口,交通设施服务;地铁站;出入口,150501,4号线,121.444287,31.185883,,[],[],交通设施,上海市,上海市,徐汇区
BX10016352,上海游泳馆地铁站3号口,交通设施服务;地铁站;出入口,150501,11号线,121.441443,31.178515,,[],[],交通设施,上海市,上海市,徐汇区
BX10016194,衡山路地铁站4号口,交通设施服务;地铁站;出入口,150501,1号线,121.447029,31.204989,,[],[],交通设施,上海市,上海市,徐汇区
BX10022791,龙华中路地铁站6号口,交通设施服务;地铁站;出入口,150501,7号线,121.457151,31.184379,,[],[],交通设施,上海市,上海市,徐汇区
BX10016059,宜山路地铁站6号口,交通设施服务;地铁站;出入口,150501,4号线,121.427307,31.187201,,[],[],交通设施,上海市,上海市,徐汇区
BX10016162,徐家汇地铁站13号口,交通设施服务;地铁站;出入口,150501,1号线,121.438584,31.194764,,[],[],交通设施,上海市,上海市,徐汇区
BX10016243,上海体育馆地铁站3号口,交通设施服务;地铁站;出入口,150501,4号线,121.436881,31.182411,,[],[],交通设施,上海市,上海市,徐汇区
BX10016155,徐家汇地铁站8号口,交通设施服务;地铁站;出入口,150501,1号线,121.438072,31.192378,,[],[],交通设施,上海市,上海市,徐汇区
BX10016158,徐家汇地铁站4号口,交通设施服务;地铁站;出入口,150501,1号线,121.438314,31.190702,,[],[],交通设施,上海市,上海市,徐汇区
BX10016318,交通大学地铁站3号口,交通设施服务;地铁站;出入口,150501,10号线,121.434855,31.201948,,[],[],交通设施,上海市,上海市,徐汇区
BX10016856,东安路地铁站5号口,交通设施服务;地铁站;出入口,150501,7号线,121.455326,31.190575,,[],[],交通设施,上海市,上海市,徐汇区
BX10022839,徐家汇地铁站11号口,交通设施服务;地铁站;出入口,150501,1号线,121.438066,31.193622,,[],[],交通设施,上海市,上海市,徐汇区
BX10016157,徐家汇地铁站5号口,交通设施服务;地铁站;出入口,150501,1号线,121.438438,31.191041,,[],[],交通设施,上海市,上海市,徐汇区
BX10016193,衡山路地铁站2号口,交通设施服务;地铁站;出入口,150501,1号线,121.446004,31.204354,,[],[],交通设施,上海市,上海市,徐汇区
BX10016853,东安路地铁站2号口,交通设施服务;地铁站;出入口,150501,4号线,121.454066,31.190321,,[],[],交通设施,上海市,上海市,徐汇区
BX10016192,衡山路地铁站3号口,交通设施服务;地铁站;出入口,150501,1号线,121.446455,31.205254,,[],[],交通设施,上海市,上海市,徐汇区
BX10016054,宜山路地铁站2号口,交通设施服务;地铁站;出入口,150501,3号线,121.427681,31.186140,,[],[],交通设施,上海市,上海市,徐汇区
BX10016993,上海体育场地铁站4号口,交通设施服务;地铁站;出入口,150501,4号线,121.442611,31.185684,,[],[],交通设施,上海市,上海市,徐汇区
BX10016351,上海游泳馆地铁站1号口,交通设施服务;地铁站;出入口,150501,11号线,121.441444,31.179511,,[],[],交通设施,上海市,上海市,徐汇区
BX10016163,徐家汇地铁站7号口,交通设施服务;地铁站;出入口,150501,1号线,121.438521,31.191955,,[],[],交通设施,上海市,上海市,徐汇区
BX09905157,徐家汇地铁站10号口,交通设施服务;地铁站;出入口,150501,1号线,121.439281,31.193416,,[],[],交通设施,上海市,上海市,徐汇区
BX10036786,龙华中路地铁站2号口,交通设施服务;地铁站;出入口,150501,7号线,121.457976,31.185628,,[],[],交通设施,上海市,上海市,徐汇区
BX10016237,上海体育馆地铁站1号口,交通设施服务;地铁站;出入口,150501,4号线,121.437134,31.182978,,[],[],交通设施,上海市,上海市,徐汇区
BX10020132,龙华中路地铁站10号口,交通设施服务;地铁站;出入口,150501,12号线,121.456516,31.185120,,[],[],交通设施,上海市,上海市,徐汇区
BX10016242,上海体育馆地铁站5号口,交通设施服务;地铁站;出入口,150501,1号线,121.436774,31.182391,,[],[],交通设施,上海市,上海市,徐汇区
BX10020127,嘉善路地铁站6号口,交通设施服务;地铁站;出入口,150501,12号线,121.460821,31.201734,,[],[],交通设施,上海市,上海市,徐汇区
BX10020126,大木桥路地铁站5号口,交通设施服务;地铁站;出入口,150501,12号线,121.463695,31.193590,,[],[],交通设施,上海市,上海市,徐汇区
BX10016152,徐家汇地铁站19号口,交通设施服务;地铁站;出入口,150501,11号线,121.435730,31.194644,,[],[],交通设施,上海市,上海市,徐汇区
BX10022840,徐家汇地铁站12A号口,交通设施服务;地铁站;出入口,150501,1号线,121.437781,31.193978,,[],[],交通设施,上海市,上海市,徐汇区
BX10016997,大木桥路地铁站2号口,交通设施服务;地铁站;出入口,150501,4号线,121.464166,31.193799,,[],[],交通设施,上海市,上海市,徐汇区
BX10022821,打浦桥地铁站出入口,交通设施服务;地铁站;出入口,150501,9号线,121.468592,31.206743,,[],[],交通设施,上海市,上海市,黄浦区
BX09914587,打浦桥地铁站出入口,交通设施服务;地铁站;出入口,150501,9号线,121.467879,31.206354,,[],[],交通设施,上海市,上海市,黄浦区
BX10016167,徐家汇地铁站12B号口,交通设施服务;地铁站;出入口,150501,1号线,121.438135,31.194510,,[],[],交通设施,上海市,上海市,徐汇区
BX09904500,嘉善路地铁站出入口,交通设施服务;地铁站;出入口,150501,12号线,121.460823,31.201537,,[],[],交通设施,上海市,上海市,徐汇区
BX10027300,徐家汇地铁站出口,交通设施服务;地铁站;出入口,150501,9号线,121.437429,31.195204,,[],[],交通设施,上海市,上海市,徐汇区
BX09905155,徐家汇地铁站出入口,交通设施服务;地铁站;出入口,150501,1号线,121.437266,31.193982,,[],[],交通设施,上海市,上海市,徐汇区
BX10020131,龙华中路地铁站9号口,交通设施服务;地铁站;出入口,150501,12号线,121.455795,31.183816,,[],[],交通设施,上海市,上海市,徐汇区
BX09903998,徐家汇地铁站出入口,交通设施服务;地铁站;出入口,150501,1号线,121.438335,31.190811,,[],[],交通设施,上海市,上海市,徐汇区
BX09903082,宜山路地铁站出入口,交通设施服务;地铁站;出入口,150501,9号线,121.427072,31.184690,,[],[],交通设施,上海市,上海市,徐汇区
BX09905156,徐家汇地铁站出入口,交通设施服务;地铁站;出入口,150501,1号线,121.438727,31.192488,,[],[],交通设施,上海市,上海市,徐汇区
BX09903084,宜山路地铁站出入口,交通设施服务;地铁站;出入口,150501,9号线,121.428072,31.184556,,[],[],交通设施,上海市,上海市,徐汇区
BX09905209,徐家汇地铁站出入口,交通设施服务;地铁站;出入口,150501,1号线,121.438188,31.193434,,[],[],交通设施,上海市,上海市,徐汇区
BX10035900,徐家汇地铁站出入口,交通设施服务;地铁站;出入口,150501,1号线,121.439009,31.193194,,[],[],交通设施,上海市,上海市,徐汇区
BX09918067,徐家汇地铁站出入口,交通设施服务;地铁站;出入口,150501,9号线,121.437814,31.195858,,[],[],交通设施,上海市,上海市,徐汇区
BX10020129,龙华中路地铁站8号口,交通设施服务;地铁站;出入口,150501,12号线,121.456203,31.184150,,[],[],交通设施,上海市,上海市,徐汇区
BX09905147,龙华中路地铁站出入口,交通设施服务;地铁站;出入口,150501,7号线,121.457170,31.183972,,[],[],交通设施,上海市,上海市,徐汇区
BX09918068,徐家汇地铁站出入口,交通设施服务;地铁站;出入口,150501,1号线,121.437358,31.190548,,[],[],交通设施,上海市,上海市,徐汇区
BX09903085,宜山路地铁站出入口,交通设施服务;地铁站;出入口,150501,9号线,121.427462,31.183752,,[],[],交通设施,上海市,上海市,徐汇区
BX09903083,宜山路地铁站出入口,交通设施服务;地铁站;出入口,150501,9号线,121.427381,31.183468,,[],[],交通设施,上海市,上海市,徐汇区
BX09905150,龙华中路地铁站出入口,交通设施服务;地铁站;出入口,150501,12号线,121.456653,31.184252,,[],[],交通设施,上海市,上海市,徐汇区
BX09905149,龙华中路地铁站出入口,交通设施服务;地铁站;出入口,150501,7号线,121.457454,31.185547,,[],[],交通设施,上海市,上海市,徐汇区
BX09918066,徐家汇地铁站出入口,交通设施服务;地铁站;出入口,150501,1号线,121.438452,31.192003,,[],[],交通设施,上海市,上海市,徐汇区
BX09905148,龙华中路地铁站出入口,交通设施服务;地铁站;出入口,150501,7号线,121.457430,31.183816,,[],[],交通设施,上海市,上海市,徐汇区
BV10031528,淮海中路武康路(公交站),交通设施服务;公交车站;公交车站相关,150700,26路;911路;911路双层;926路,121.438533,31.204397,,[],[],交通设施,上海市,上海市,徐汇区
BV10026003,上海体育馆(公交站),交通设施服务;公交车站;公交车站相关,150700,120路;122路;138路;157路;167路;178路大站车;198路;218路;315路;456路;49路;703路;704路;704路B线;718路;720路;721路;754路;808路;824路;89路;923路;926路;92路;957路;985路;徐川专线;春运10线(原315路),121.439575,31.183466,,[],[],交通设施,上海市,上海市,徐汇区
BV10382937,肇嘉浜路天平路(徐家汇)(公交站),交通设施服务;公交车站;公交车站相关,150700,171路;303路;43路;44路;50路;572路;72路;824路;836路;927路;93路;956路;957路;985路;徐川专线;徐闵夜宵专线;徐闵线;春运24线(原303路),121.439885,31.194341,,[],[],交通设施,上海市,上海市,徐汇区
BV10029706,徐家汇(公交站),交通设施服务;公交车站;公交车站相关,150700,167路;205路;303路;320路;42路;43路;50路;732路;824路;830路;926路;946路;957路;徐闵线;春运24线(原303路);松江DZ5线;隧道夜宵一线,121.437695,31.190569,,[],[],交通设施,上海市,上海市,徐汇区
BV10024773,漕溪北路裕德路(公交站),交通设施服务;公交车站;公交车站相关,150700,167路;303路;342路;43路;50路;56路;754路;770路;824路;923路;926路;927路;946路;957路;958路;大桥六线;徐川专线;徐闵线;春运24线(原303路);隧道二线,121.436508,31.185103,,[],[],交通设施,上海市,上海市,徐汇区
BV10024950,上海体育场(公交站),交通设施服务;公交车站;公交车站相关,150700,15路;178路大站车;315路;44路;733路;770路;808路;824路;927路;92路;932路;957路;958路;大桥六线;春运10线(原315路);隧道二线,121.439575,31.183466,,[],[],交通设施,上海市,上海市,徐汇区
BV10025198,西区汽车站(公交站),交通设施服务;公交车站;公交车站相关,150700,186路;224路;224路大站车;48路;548路;808路;857路;87路,121.420135,31.188793,,[],[],交通设施,上海市,上海市,徐汇区
BV10031489,瑞金医院(公交站),交通设施服务;公交车站;公交车站相关,150700,104路;146路内圈;301路;41路;864路;955路;955路大站车;96路,121.466392,31.209639,,[],[],交通设施,上海市,上海市,黄浦区
BV10343205,天钥桥路辛耕路(徐家汇)(公交站),交通设施服务;公交车站;公交车站相关,150700,15路;315路;44路;572路;72路;732路;770路;864路;927路;958路;徐闵夜宵专线;春运10线(原315路);隧道夜宵一线,121.441645,31.192595,,[],[],交通设施,上海市,上海市,徐汇区
BV10031495,陕西南路永嘉路(公交站),交通设施服务;公交车站;公交车站相关,150700,104路;146路外圈;24路;301路;304路;41路;786路;864路;955路;春运4线(原301路),121.461276,31.211519,,[],[],交通设施,上海市,上海市,黄浦区
BV10025889,打浦桥(公交站),交通设施服务;公交车站;公交车站相关,150700,146路内圈;146路外圈;17路;218路;303路;41路;43路;786路;955路;955路大站车;96路;985路;徐川专线;春运24线(原303路);隧道一线;隧道一线区间;隧道夜宵一线,121.468866,31.205470,,[],[],交通设施,上海市,上海市,黄浦区
BV10025983,肇嘉浜路大木桥路(公交站),交通设施服务;公交车站;公交车站相关,150700,104路;146路外圈;17路;205路;218路;301路;303路;327路;41路;43路;45路;786路;864路;985路;春运24线(原303路);春运4线(原301路);隧道夜宵一线,121.463234,31.203186,,[],[],交通设施,上海市,上海市,徐汇区
BV10025306,交通大学(公交站),交通设施服务;公交车站;公交车站相关,150700,26路;320路;72路;923路;926路;946路;大桥六线;春运23线(原320路),121.436172,31.201216,,[],[],交通设施,上海市,上海市,徐汇区
BV10341877,徐家汇(华山路)(公交站),交通设施服务;公交车站;公交车站相关,150700,320路;923路;926路;946路;958路;春运23线(原320路),121.437298,31.197423,,[],[],交通设施,上海市,上海市,徐汇区
BV10860389,定西路(快速公交站),交通设施服务;公交车站;快速公交站,150704,1250路(71路支线1);71路;71路区间,121.422649,31.209548,,[],[],交通设施,上海市,上海市,长宁区
BV10024937,中山南二路大木桥路(公交站),交通设施服务;公交车站;公交车站相关,150700,111路;327路;41路;456路;45路;572路;734路;933路;大桥六线;隧道一线;隧道一线区间;隧道二线;隧道夜宵一线,121.464219,31.191589,,[],[],交通设施,上海市,上海市,徐汇区
BV10029581,龙华中路东安路(公交站),交通设施服务;公交车站;公交车站相关,150700,50路;734路;818路;徐汇滨江环线;滨江2路,121.456521,31.184800,,[],[],交通设施,上海市,上海市,徐汇区
BV10025990,香花桥(公交站),交通设施服务;公交车站;公交车站相关,150700,48路;911路;946路,121.425638,31.203475,,[],[],交通设施,上海市,上海市,长宁区
BV11600388,龙华医院(公交站),交通设施服务;公交车站;公交车站相关,150700,167路;301路;44路;50路;733路;864路;932路,121.449704,31.187074,,[],[],交通设施,上海市,上海市,徐汇区
BV10339423,平江路枫林路(公交站),交通设施服务;公交车站;公交车站相关,150700,957路,121.454221,31.199720,,[],[],交通设施,上海市,上海市,徐汇区
BV10029692,肇嘉浜路东安路(公交站),交通设施服务;公交车站;公交车站相关,150700,171路;205路;303路;43路;50路;864路;927路;957路;徐川专线;春运24线(原303路),121.448650,31.199218,,[],[],交通设施,上海市,上海市,徐汇区
BV10025702,斜土路枫林路(公交站),交通设施服务;公交车站;公交车站相关,150700,171路;301路;303路;49路;572路;72路;733路;89路;932路;徐汇滨江环线;春运24线(原303路);春运4线(原301路);隧道二线;隧道夜宵一线,121.457077,31.196325,,[],[],交通设施,上海市,上海市,徐汇区
BV10024938,中山南二路东安路(公交站),交通设施服务;公交车站;公交车站相关,150700,104路;111路;41路;456路;49路;734路;818路;933路;大桥六线,121.457622,31.187418,,[],[],交通设施,上海市,上海市,徐汇区
BV09313466,宛平南路瑞宁路(公交站),交通设施服务;公交车站;公交车站相关,150700,818路,121.455245,31.179328,,[],[],交通设施,上海市,上海市,徐汇区
BV10025709,斜土路东安路(公交站),交通设施服务;公交车站;公交车站相关,150700,218路;301路;303路;572路;72路;733路;89路;932路;徐闵夜宵专线;春运4线(原301路);隧道二线;隧道夜宵一线,121.451004,31.193697,,[],[],交通设施,上海市,上海市,徐汇区
BV10038830,肇嘉浜路高安路(公交站),交通设施服务;公交车站;公交车站相关,150700,徐闵线,121.447938,31.199023,,[],[],交通设施,上海市,上海市,徐汇区
BV10031529,淮海中路高安路(公交站),交通设施服务;公交车站;公交车站相关,150700,26路;320路;911路;911路双层;926路;春运23线(原320路),121.442953,31.207171,,[],[],交通设施,上海市,上海市,徐汇区
BV10860380,番禺路(快速公交站),交通设施服务;公交车站;快速公交站,150704,71路;71路区间,121.429790,31.211526,,[],[],交通设施,上海市,上海市,长宁区
BV10024964,凯旋路虹桥路(公交站),交通设施服务;公交车站;公交车站相关,150700,141路;149路,121.420413,31.198649,,[],[],交通设施,上海市,上海市,长宁区
BV10031530,淮海中路乌鲁木齐中路(公交站),交通设施服务;公交车站;公交车站相关,150700,26路;320路;911路;911路双层;926路;春运23线(原320路),121.446137,31.209149,,[],[],交通设施,上海市,上海市,徐汇区
BV10025984,肇嘉浜路枫林路(公交站),交通设施服务;公交车站;公交车站相关,150700,171路;205路;218路;42路;43路;49路;864路;957路;985路;徐川专线,121.454259,31.200667,,[],[],交通设施,上海市,上海市,徐汇区
BV10025305,宛平南路斜土路(公交站),交通设施服务;公交车站;公交车站相关,150700,178路大站车;218路;301路;44路;50路;864路;89路;956路;徐川专线;徐闵夜宵专线,121.448385,31.189466,,[],[],交通设施,上海市,上海市,徐汇区
BV10029738,定西路武夷路(公交站),交通设施服务;公交车站;公交车站相关,150700,857路;946路,121.423296,31.211874,,[],[],交通设施,上海市,上海市,长宁区
BV10031527,左家宅(公交站),交通设施服务;公交车站;公交车站相关,150700,113路;138路;26路;320路;328路;44路;572路;72路;827路;春运23线(原320路),121.425507,31.198229,,[],[],交通设施,上海市,上海市,徐汇区
BV10029832,虹桥路恭城路(公交站),交通设施服务;公交车站;公交车站相关,150700,44路;548路;572路;830路;836路;855路;93路;958路;大桥六线,121.435629,31.193316,,[],[],交通设施,上海市,上海市,徐汇区
BV10031569,衡山路宛平路(公交站),交通设施服务;公交车站;公交车站相关,150700,15路;315路;320路;824路;830路;93路;春运10线(原315路),121.442018,31.198691,,[],[],交通设施,上海市,上海市,徐汇区
BV10033252,漕溪北路蒲汇塘路(公交站),交通设施服务;公交车站;公交车站相关,150700,703路,121.437011,31.185497,,[],[],交通设施,上海市,上海市,徐汇区
BV10555464,辛耕路天钥桥路(徐家汇)(公交站),交通设施服务;公交车站;公交车站相关,150700,178路大站车,121.442381,31.192360,,[],[],交通设施,上海市,上海市,徐汇区
BV10024924,华山路湖南路(公交站),交通设施服务;公交车站;公交车站相关,150700,113路;138路;328路;48路;923路,121.433449,31.205963,,[],[],交通设施,上海市,上海市,长宁区
BV10024772,中山西路宜山路(公交站),交通设施服务;公交车站;公交车站相关,150700,1211路;122路;138路;224路;224路大站车;303路;721路;754路;808路;87路;89路;927路;春运24线(原303路),121.425426,31.183320,,[],[],交通设施,上海市,上海市,徐汇区
BV10024933,淮海西路凯旋路(公交站),交通设施服务;公交车站;公交车站相关,150700,113路;138路;26路;320路;328路;572路;72路;春运23线(原320路),121.423050,31.196436,,[],[],交通设施,上海市,上海市,长宁区
BV10627822,宛平南路肇嘉浜路(公交站),交通设施服务;公交车站;公交车站相关,150700,15路;167路;864路,121.445259,31.196043,,[],[],交通设施,上海市,上海市,徐汇区
BV10386953,广元西路华山路(公交站),交通设施服务;公交车站;公交车站相关,150700,958路,121.434262,31.196503,,[],[],交通设施,上海市,上海市,徐汇区
BV10030607,凯旋路宜山路(公交站),交通设施服务;公交车站;公交车站相关,150700,1211路;76路,121.426630,31.187817,,[],[],交通设施,上海市,上海市,徐汇区
BV10024931,中山西路漕溪北路(公交站),交通设施服务;公交车站;公交车站相关,150700,138路;721路;808路;87路;89路,121.434242,31.180831,,[],[],交通设施,上海市,上海市,徐汇区
BV10025303,宛平南路龙华路(公交站),交通设施服务;公交车站;公交车站相关,150700,41路;44路;733路;818路;864路;933路,121.452500,31.182708,,[],[],交通设施,上海市,上海市,徐汇区
BV10031513,衡山路复兴中路(公交站),交通设施服务;公交车站;公交车站相关,150700,15路;167路;315路;824路;830路;927路;春运10线(原315路),121.449788,31.209090,,[],[],交通设施,上海市,上海市,徐汇区
BV10025313,天钥桥路斜土路(公交站),交通设施服务;公交车站;公交车站相关,150700,178路大站车;218路;342路;44路;56路;770路;864路;956路;958路;大桥六线;隧道二线,121.442296,31.187308,,[],[],交通设施,上海市,上海市,徐汇区
BV10031601,华容路双峰路(公交站),交通设施服务;公交车站;公交车站相关,150700,714路,121.450639,31.180268,,[],[],交通设施,上海市,上海市,徐汇区
BV10025986,天平路广元路(公交站),交通设施服务;公交车站;公交车站相关,150700,320路;72路;926路;春运23线(原320路),121.438004,31.199181,,[],[],交通设施,上海市,上海市,徐汇区
BV10030814,南丹东路天钥桥路(公交站),交通设施服务;公交车站;公交车站相关,150700,218路;89路;932路;隧道二线;隧道夜宵一线,121.443804,31.190441,,[],[],交通设施,上海市,上海市,徐汇区
BV10031627,枫林路斜土路(公交站),交通设施服务;公交车站;公交车站相关,150700,171路;218路;49路;徐闵夜宵专线,121.455986,31.195391,,[],[],交通设施,上海市,上海市,徐汇区
BV10031606,太原路汾阳路(公交站),交通设施服务;公交车站;公交车站相关,150700,42路;45路,121.454106,31.209731,,[],[],交通设施,上海市,上海市,徐汇区
BV10024932,虹桥路宜山路(公交站),交通设施服务;公交车站;公交车站相关,150700,138路;171路;44路;548路;572路;754路;76路;836路;855路;93路,121.432361,31.192201,,[],[],交通设施,上海市,上海市,徐汇区
BV10024952,中山南二路船厂路(公交站),交通设施服务;公交车站;公交车站相关,150700,104路;111路;41路;456路;734路;933路;大桥六线,121.459635,31.188333,,[],[],交通设施,上海市,上海市,徐汇区
BV10024934,华山路淮海西路(公交站),交通设施服务;公交车站;公交车站相关,150700,113路;138路;328路;48路;923路,121.434235,31.204098,,[],[],交通设施,上海市,上海市,长宁区
BV10024939,中山南二路宛平南路(公交站),交通设施服务;公交车站;公交车站相关,150700,104路;111路;301路;49路;大桥六线;春运4线(原301路),121.449460,31.184528,,[],[],交通设施,上海市,上海市,徐汇区
BV11601491,中山医院(公交站),交通设施服务;公交车站;公交车站相关,150700,171路;49路,121.454110,31.199188,,[],[],交通设施,上海市,上海市,徐汇区
BV10031512,衡山路高安路(公交站),交通设施服务;公交车站;公交车站相关,150700,15路;167路;315路;320路;824路;830路;93路;春运10线(原315路),121.444272,31.201586,,[],[],交通设施,上海市,上海市,徐汇区
BV10031222,大木桥路斜土路(公交站),交通设施服务;公交车站;公交车站相关,150700,104路;327路;45路;572路;932路;隧道二线,121.462051,31.197714,,[],[],交通设施,上海市,上海市,徐汇区
BV10025989,新华路番禺路(公交站),交通设施服务;公交车站;公交车站相关,150700,48路;911路;946路,121.429414,31.202131,,[],[],交通设施,上海市,上海市,长宁区
BV10031515,建国中路瑞金二路(公交站),交通设施服务;公交车站;公交车站相关,150700,17路;24路;304路;DZ414线,121.468047,31.209106,,[],[],交通设施,上海市,上海市,黄浦区
BV10025703,斜土路大木桥路(公交站),交通设施服务;公交车站;公交车站相关,150700,205路;301路;303路;72路;733路;89路;932路;徐汇滨江环线;春运24线(原303路);隧道夜宵一线,121.460419,31.197718,,[],[],交通设施,上海市,上海市,徐汇区
BV10031223,南丹东路漕溪北路(公交站),交通设施服务;公交车站;公交车站相关,150700,342路;56路;隧道二线,121.438854,31.189206,,[],[],交通设施,上海市,上海市,徐汇区
BV10024927,虹桥路凯旋路(公交站),交通设施服务;公交车站;公交车站相关,150700,138路;26路;44路;754路;827路;836路;855路,121.424858,31.194975,,[],[],交通设施,上海市,上海市,徐汇区
BV10031572,宝庆路淮海中路(公交站),交通设施服务;公交车站;公交车站相关,150700,15路;315路;49路;824路;830路;927路;春运10线(原315路),121.449903,31.211587,,[],[],交通设施,上海市,上海市,徐汇区
BV10030603,番禺路平武路(公交站),交通设施服务;公交车站;公交车站相关,150700,76路,121.429296,31.206202,,[],[],交通设施,上海市,上海市,长宁区
BV10025710,斜土路宛平南路(公交站),交通设施服务;公交车站;公交车站相关,150700,218路;303路;572路;72路;733路;89路;932路;隧道二线;隧道夜宵一线,121.449875,31.193119,,[],[],交通设施,上海市,上海市,徐汇区
BV10029691,宜山路中山西路(公交站),交通设施服务;公交车站;公交车站相关,150700,1211路;171路;205路;732路;830路;93路,121.427502,31.184537,,[],[],交通设施,上海市,上海市,徐汇区
BV10032304,新华路定西路(公交站),交通设施服务;公交车站;公交车站相关,150700,141路,121.421803,31.204717,,[],[],交通设施,上海市,上海市,长宁区
BV10032925,定西路延安西路(公交站),交通设施服务;公交车站;公交车站相关,150700,44路;946路,121.423911,31.208277,,[],[],交通设施,上海市,上海市,长宁区
BV10031613,安顺路凯旋路(公交站),交通设施服务;公交车站;公交车站相关,150700,141路;48路;911路,121.421094,31.201708,,[],[],交通设施,上海市,上海市,长宁区
BV10025480,延安西路定西路(公交站),交通设施服务;公交车站;公交车站相关,150700,311路;57路,121.424398,31.210073,,[],[],交通设施,上海市,上海市,长宁区
BV10025487,延安西路番禺路(公交站),交通设施服务;公交车站;公交车站相关,150700,311路;44路;57路;76路,121.430467,31.212593,,[],[],交通设施,上海市,上海市,长宁区
BV10025705,斜土路打浦路(公交站),交通设施服务;公交车站;公交车站相关,150700,17路;733路;89路;932路;96路,121.470004,31.201671,,[],[],交通设施,上海市,上海市,黄浦区
BV10031696,复兴中路淮海中路(公交站),交通设施服务;公交车站;公交车站相关,150700,96路,121.449172,31.210546,,[],[],交通设施,上海市,上海市,徐汇区
BV10030256,双峰路中山南二路(公交站),交通设施服务;公交车站;公交车站相关,150700,44路,121.448429,31.182778,,[],[],交通设施,上海市,上海市,徐汇区
BV10024929,宜山路蒲汇塘路(公交站),交通设施服务;公交车站;公交车站相关,150700,138路;171路;205路;732路;754路;76路;830路;93路,121.430013,31.189249,,[],[],交通设施,上海市,上海市,徐汇区
BV10030820,零陵路双峰北路(公交站),交通设施服务;公交车站;公交车站相关,150700,178路大站车;218路;89路;徐闵夜宵专线,121.445613,31.187207,,[],[],交通设施,上海市,上海市,徐汇区
BV10029715,日晖新村(公交站),交通设施服务;公交车站;公交车站相关,150700,72路,121.465253,31.197529,,[],[],交通设施,上海市,上海市,徐汇区
BV10338443,中山南二路天钥桥路(公交站),交通设施服务;公交车站;公交车站相关,150700,111路;456路;49路;87路;956路;徐川专线,121.443034,31.179132,,[],[],交通设施,上海市,上海市,徐汇区
BV10025314,天钥桥路中山南二路(公交站),交通设施服务;公交车站;公交车站相关,150700,104路;166路;178路大站车;301路;342路;56路;714路;733路;770路;864路;932路;徐闵夜宵专线;春运4线(原301路),121.445239,31.178056,,[],[],交通设施,上海市,上海市,徐汇区
BV10030255,安顺路定西路(公交站),交通设施服务;公交车站;公交车站相关,150700,44路,121.424054,31.200720,,[],[],交通设施,上海市,上海市,长宁区
BV10385409,中山西路吴中路(公交站),交通设施服务;公交车站;公交车站相关,150700,224路;224路大站车;48路;857路,121.420877,31.189988,,[],[],交通设施,上海市,上海市,徐汇区
BV10024925,淮海西路番禺路(公交站),交通设施服务;公交车站;公交车站相关,150700,113路;138路;26路;320路;328路;572路;72路;春运23线(原320路),121.431343,31.200655,,[],[],交通设施,上海市,上海市,长宁区
BV10033253,天钥桥路南丹东路(公交站),交通设施服务;公交车站;公交车站相关,150700,15路;315路;703路;733路;89路;春运10线(原315路),121.441979,31.188785,,[],[],交通设施,上海市,上海市,徐汇区
BV10031630,桃江路衡山路(公交站),交通设施服务;公交车站;公交车站相关,150700,49路;927路,121.451183,31.209067,,[],[],交通设施,上海市,上海市,徐汇区
BV10029739,定西路法华镇路(公交站),交通设施服务;公交车站;公交车站相关,150700,44路;946路,121.423963,31.207791,,[],[],交通设施,上海市,上海市,长宁区
BV10031224,小木桥路中山南二路(公交站),交通设施服务;公交车站;公交车站相关,150700,104路;45路;隧道二线,121.461339,31.191721,,[],[],交通设施,上海市,上海市,徐汇区
BV10030604,番禺路新华路(公交站),交通设施服务;公交车站;公交车站相关,150700,76路,121.429865,31.200855,,[],[],交通设施,上海市,上海市,长宁区
BV10025893,瑞金南路瞿溪路(公交站),交通设施服务;公交车站;公交车站相关,150700,205路;41路;781路,121.468503,31.199145,,[],[],交通设施,上海市,上海市,黄浦区
BV10028109,小木桥路斜土路(公交站),交通设施服务;公交车站;公交车站相关,150700,104路;171路;301路;303路;327路;45路;春运4线(原301路);隧道一线;隧道一线区间;隧道夜宵一线,121.457146,31.199125,,[],[],交通设施,上海市,上海市,徐汇区
BV10031582,襄阳南路永嘉路(公交站),交通设施服务;公交车站;公交车站相关,150700,327路;42路;45路,121.457932,31.208542,,[],[],交通设施,上海市,上海市,徐汇区
BV10029965,华山路武康路(公交站),交通设施服务;公交车站;公交车站相关,150700,113路;328路;48路;548路,121.438702,31.212587,,[],[],交通设施,上海市,上海市,徐汇区
BV10976515,龙腾大道瑞宁路(公交站),交通设施服务;公交车站;公交车站相关,150700,浦西滨江1路,121.463510,31.183913,,[],[],交通设施,上海市,上海市,徐汇区
BV10031639,武康路复兴西路(公交站),交通设施服务;公交车站;公交车站相关,150700,548路,121.440741,31.209674,,[],[],交通设施,上海市,上海市,徐汇区
BV10029810,南丹路宜山路(公交站),交通设施服务;公交车站;公交车站相关,150700,205路;42路;732路;754路;830路,121.431641,31.189592,,[],[],交通设施,上海市,上海市,徐汇区
BV10025985,肇嘉浜路吴兴路(公交站),交通设施服务;公交车站;公交车站相关,150700,171路;205路;42路;43路;548路;864路;927路;957路,121.446339,31.198538,,[],[],交通设施,上海市,上海市,徐汇区
BV10024923,华山路江苏路(公交站),交通设施服务;公交车站;公交车站相关,150700,113路;138路;328路;48路;923路,121.433744,31.210385,,[],[],交通设施,上海市,上海市,长宁区
BV09450395,昭平路恭城路(公交站),交通设施服务;公交车站;公交车站相关,150700,42路;855路,121.435065,31.195833,,[],[],交通设施,上海市,上海市,徐汇区
BV10030602,番禺路延安西路(公交站),交通设施服务;公交车站;公交车站相关,150700,76路,121.429418,31.209358,,[],[],交通设施,上海市,上海市,长宁区
BV10548495,大木桥路中山南二路(公交站),交通设施服务;公交车站;公交车站相关,150700,104路;327路;45路;572路;徐汇滨江环线;隧道二线,121.464188,31.193438,,[],[],交通设施,上海市,上海市,徐汇区
BV10025704,斜土路瑞金南路(公交站),交通设施服务;公交车站;公交车站相关,150700,205路;733路;89路;932路,121.466637,31.200600,,[],[],交通设施,上海市,上海市,徐汇区
BV10031573,天平路淮海中路(公交站),交通设施服务;公交车站;公交车站相关,150700,320路;926路;春运23线(原320路),121.437821,31.202496,,[],[],交通设施,上海市,上海市,徐汇区
BV10032466,双峰路华容路(公交站),交通设施服务;公交车站;公交车站相关,150700,166路,121.449129,31.181135,,[],[],交通设施,上海市,上海市,徐汇区
BV10386624,瑞金南路斜土路(公交站),交通设施服务;公交车站;公交车站相关,150700,205路;41路;781路;96路,121.467636,31.201986,,[],[],交通设施,上海市,上海市,徐汇区
BV10030167,东安路斜土路(公交站),交通设施服务;公交车站;公交车站相关,150700,218路;303路;49路;50路;春运24线(原303路),121.451775,31.195417,,[],[],交通设施,上海市,上海市,徐汇区
BV10030744,宜山北路虹桥路(公交站),交通设施服务;公交车站;公交车站相关,150700,42路;855路,121.432217,31.193037,,[],[],交通设施,上海市,上海市,徐汇区
BV10029811,南丹路文定路(公交站),交通设施服务;公交车站;公交车站相关,150700,205路;42路;754路;830路,121.434757,31.188915,,[],[],交通设施,上海市,上海市,徐汇区
BV10024928,宜山路虹桥路(公交站),交通设施服务;公交车站;公交车站相关,150700,138路;171路;824路;830路;93路,121.431328,31.191510,,[],[],交通设施,上海市,上海市,徐汇区
BV11600387,肿瘤医院(公交站),交通设施服务;公交车站;公交车站相关,150700,301路;49路;50路;徐汇滨江环线;春运4线(原301路),121.453528,31.192841,,[],[],交通设施,上海市,上海市,徐汇区
BV10031525,陕西南路建国西路(公交站),交通设施服务;公交车站;公交车站相关,150700,146路外圈;17路;301路;41路;786路;96路;春运4线(原301路),121.462130,31.205537,,[],[],交通设施,上海市,上海市,徐汇区
BV10030354,番禺路虹桥路(公交站),交通设施服务;公交车站;公交车站相关,150700,572路;76路;827路,121.428247,31.194870,,[],[],交通设施,上海市,上海市,徐汇区
BV10031581,襄阳南路建国西路(公交站),交通设施服务;公交车站;公交车站相关,150700,327路;42路;45路,121.458043,31.205608,,[],[],交通设施,上海市,上海市,徐汇区
BV10031688,复兴西路武康路(公交站),交通设施服务;公交车站;公交车站相关,150700,96路,121.442086,31.210720,,[],[],交通设施,上海市,上海市,徐汇区
BV10031570,斜土路南丹东路(公交站),交通设施服务;公交车站;公交车站相关,150700,15路;315路;春运10线(原315路),121.445943,31.190144,,[],[],交通设施,上海市,上海市,徐汇区
BV10031695,复兴中路汾阳路(公交站),交通设施服务;公交车站;公交车站相关,150700,96路,121.456261,31.212349,,[],[],交通设施,上海市,上海市,徐汇区
BV10405705,建国西路宛平路(公交站),交通设施服务;公交车站;公交车站相关,150700,42路,121.444843,31.200428,,[],[],交通设施,上海市,上海市,徐汇区
BV10032885,东安路肇嘉浜路(公交站),交通设施服务;公交车站;公交车站相关,150700,218路,121.450616,31.197582,,[],[],交通设施,上海市,上海市,徐汇区
BV10031526,广元西路虹桥路(公交站),交通设施服务;公交车站;公交车站相关,150700,26路,121.431172,31.194089,,[],[],交通设施,上海市,上海市,徐汇区
BV10025701,零陵路东安路(公交站),交通设施服务;公交车站;公交车站相关,150700,733路;932路,121.455755,31.191134,,[],[],交通设施,上海市,上海市,徐汇区
BV10030605,番禺路淮海西路(公交站),交通设施服务;公交车站;公交车站相关,150700,76路;827路,121.428872,31.198325,,[],[],交通设施,上海市,上海市,徐汇区
BV10031496,华山路复兴西路(公交站),交通设施服务;公交车站;公交车站相关,150700,113路;328路;48路;96路,121.436145,31.211211,,[],[],交通设施,上海市,上海市,长宁区
BV10031663,零陵路大木桥路(公交站),交通设施服务;公交车站;公交车站相关,150700,932路,121.462619,31.193787,,[],[],交通设施,上海市,上海市,徐汇区
BV10031692,永嘉路陕西南路(公交站),交通设施服务;公交车站;公交车站相关,150700,96路,121.460510,31.209835,,[],[],交通设施,上海市,上海市,徐汇区
BV10031550,建国西路陕西南路(公交站),交通设施服务;公交车站;公交车站相关,150700,24路;304路,121.463346,31.207028,,[],[],交通设施,上海市,上海市,黄浦区
BV10976516,瑞宁路龙腾大道(公交站),交通设施服务;公交车站;公交车站相关,150700,徐汇滨江环线;浦西滨江1路;滨江2路,121.467062,31.186124,,[],[],交通设施,上海市,上海市,徐汇区
BV10025840,吴中东路凯旋路(公交站),交通设施服务;公交车站;公交车站相关,150700,548路,121.424085,31.190419,,[],[],交通设施,上海市,上海市,徐汇区
BV10031571,宛平路衡山路(公交站),交通设施服务;公交车站;公交车站相关,150700,15路;315路;830路;春运10线(原315路),121.443539,31.199353,,[],[],交通设施,上海市,上海市,徐汇区
BV10031691,永嘉路襄阳南路(公交站),交通设施服务;公交车站;公交车站相关,150700,96路,121.457001,31.208546,,[],[],交通设施,上海市,上海市,徐汇区
BV10029714,南丹东路斜土路(公交站),交通设施服务;公交车站;公交车站相关,150700,72路;隧道二线;隧道夜宵一线,121.444995,31.190769,,[],[],交通设施,上海市,上海市,徐汇区
BV10031579,太原路永嘉路(公交站),交通设施服务;公交车站;公交车站相关,150700,327路;42路,121.455200,31.205711,,[],[],交通设施,上海市,上海市,徐汇区
BV10031621,乌鲁木齐南路衡山路(公交站),交通设施服务;公交车站;公交车站相关,150700,49路;96路,121.448451,31.206402,,[],[],交通设施,上海市,上海市,徐汇区
BV10025715,龙华路宛平南路(公交站),交通设施服务;公交车站;公交车站相关,150700,41路;933路,121.453540,31.182769,,[],[],交通设施,上海市,上海市,徐汇区
BV10031603,建国西路乌鲁木齐南路(公交站),交通设施服务;公交车站;公交车站相关,150700,42路,121.449057,31.201873,,[],[],交通设施,上海市,上海市,徐汇区
BV10382862,乌鲁木齐中路复兴中路(公交站),交通设施服务;公交车站;公交车站相关,150700,93路,121.446601,31.211008,,[],[],交通设施,上海市,上海市,徐汇区
BV10027213,南丹路漕溪北路(公交站),交通设施服务;公交车站;公交车站相关,150700,205路;42路;732路,121.434718,31.188993,,[],[],交通设施,上海市,上海市,徐汇区
BV10031629,岳阳路建国西路(公交站),交通设施服务;公交车站;公交车站相关,150700,49路;927路,121.452948,31.202671,,[],[],交通设施,上海市,上海市,徐汇区
BV10031638,复兴西路华山路(公交站),交通设施服务;公交车站;公交车站相关,150700,548路;96路,121.440109,31.210820,,[],[],交通设施,上海市,上海市,徐汇区
BV10338441,东安路中山南二路(公交站),交通设施服务;公交车站;公交车站相关,150700,301路;49路;春运4线(原301路),121.456145,31.188060,,[],[],交通设施,上海市,上海市,徐汇区
BV10386567,复兴中路乌鲁木齐中路(公交站),交通设施服务;公交车站;公交车站相关,150700,96路,121.448882,31.210524,,[],[],交通设施,上海市,上海市,徐汇区
BV10030355,小木桥路零陵路(公交站),交通设施服务;公交车站;公交车站相关,150700,572路,121.461339,31.191721,,[],[],交通设施,上海市,上海市,徐汇区
BV10031690,永嘉路岳阳路(公交站),交通设施服务;公交车站;公交车站相关,150700,96路,121.451347,31.205687,,[],[],交通设施,上海市,上海市,徐汇区
BV10031580,太原路建国西路(公交站),交通设施服务;公交车站;公交车站相关,150700,327路;42路;45路,121.455727,31.203785,,[],[],交通设施,上海市,上海市,徐汇区
BV10031575,高安路淮海中路(公交站),交通设施服务;公交车站;公交车站相关,150700,320路;548路,121.443982,31.206415,,[],[],交通设施,上海市,上海市,徐汇区
BV10030606,番禺路南丹路(公交站),交通设施服务;公交车站;公交车站相关,150700,76路,121.426324,31.192079,,[],[],交通设施,上海市,上海市,徐汇区
BV10031622,乌鲁木齐南路建国西路(公交站),交通设施服务;公交车站;公交车站相关,150700,49路;927路,121.449884,31.201302,,[],[],交通设施,上海市,上海市,徐汇区
BV10031604,建国西路岳阳路(公交站),交通设施服务;公交车站;公交车站相关,150700,42路,121.451892,31.203212,,[],[],交通设施,上海市,上海市,徐汇区
BV10031636,吴兴路淮海中路(公交站),交通设施服务;公交车站;公交车站相关,150700,548路,121.441904,31.205967,,[],[],交通设施,上海市,上海市,徐汇区
BV10031635,吴兴路衡山路(公交站),交通设施服务;公交车站;公交车站相关,150700,548路,121.444116,31.202690,,[],[],交通设施,上海市,上海市,徐汇区
BV10030257,华容路龙华路(公交站),交通设施服务;公交车站;公交车站相关,150700,44路,121.450264,31.180148,,[],[],交通设施,上海市,上海市,徐汇区
BV10031668,乌鲁木齐南路东平路(公交站),交通设施服务;公交车站;公交车站相关,150700,93路,121.447938,31.208320,,[],[],交通设施,上海市,上海市,徐汇区
BV10031637,永福路湖南路(公交站),交通设施服务;公交车站;公交车站相关,150700,548路,121.442767,31.208361,,[],[],交通设施,上海市,上海市,徐汇区
BV10031640,高安路建国西路(公交站),交通设施服务;公交车站;公交车站相关,150700,548路,121.446740,31.200731,,[],[],交通设施,上海市,上海市,徐汇区
B0G02Z2I8M,港汇恒隆广场地下停车场,交通设施服务;停车场;公共停车场,150904,虹桥路1号上海港汇恒隆广场,121.437387,31.193972,,[],[],交通设施,上海市,上海市,徐汇区
B0HRTM5H60,复旦大学附属中山医院东院区地下停车场,交通设施服务;停车场;公共停车场,150904,小木桥路268弄1-2号枫林路179号5号门,121.456093,31.198072,,[],[],交通设施,上海市,上海市,徐汇区
B0KG3ZHUSR,上海市第六人民医院地面停车场,交通设施服务;停车场;公共停车场,150904,宜山路600号上海交通大学医学院附属第六人民医院(徐汇院区),121.420851,31.178460,,[],[],交通设施,上海市,上海市,徐汇区
B0GKKCX7MI,正大乐城停车场,交通设施服务;停车场;公共停车场,150904,龙华中路上海绿地中心(龙华中路地铁站1号口步行230米),121.459027,31.185973,,[],[],交通设施,上海市,上海市,徐汇区
B0G0TRFPI9,日月光中心地下停车场,交通设施服务;停车场;公共停车场,150904,徐家汇路618号日月光中心B3(打浦桥地铁站2号口旁),121.469443,31.205901,,[],[],交通设施,上海市,上海市,黄浦区
B0GKNU83YA,美罗城地下停车场,交通设施服务;停车场;公共停车场,150904,肇嘉浜路1111号美罗城B2,121.440522,31.193502,,[],[],交通设施,上海市,上海市,徐汇区
B0HR5ZA56N,复旦大学附属中山医院西院区地下停车场,交通设施服务;停车场;公共停车场,150904,枫林路180号复旦大学附属中山医院(西院区),121.452747,31.198943,,[],[],交通设施,上海市,上海市,徐汇区
B0KBNSFSIF,上海市徐汇区牙病防治所地面停车场,交通设施服务;停车场;公共停车场,150904,枫林路500号,121.459100,31.189863,,[],[],交通设施,上海市,上海市,徐汇区
B0G0TRGBZZ,徐家汇ITC商场地下停车场,交通设施服务;停车场;公共停车场,150904,华山路1901号One ITC商场落客区(昭平路),121.438431,31.197822,,[],[],交通设施,上海市,上海市,徐汇区
B0HR5HALJO,龙华医院停车场,交通设施服务;停车场;公共停车场,150904,宛平南路725号上海中医药大学附属龙华医院(徐汇院区),121.450403,31.187699,,[],[],交通设施,上海市,上海市,徐汇区
B00156YMUT,上海文化广场地下停车场,交通设施服务;停车场;公共停车场,150904,瑞金二路街道陕西南路225号,121.461422,31.212195,021-54619961;021-64729000,[],[],交通设施,上海市,上海市,黄浦区
B0FFHGY328,桃江路-道路停车位,交通设施服务;停车场;路边停车场,150906,桃江路启华大厦南侧约130米,121.449151,31.209482,,[],[],交通设施,上海市,上海市,徐汇区
B0HRR5UVLN,上海交通大学医学院附属瑞金医院地下停车场,交通设施服务;停车场;公共停车场,150904,瑞金医院院内11号楼旁边,121.468280,31.211899,,[],[],交通设施,上海市,上海市,黄浦区
B0H6ZUSDI2,绿地缤纷城徐汇店地下停车场,交通设施服务;停车场;公共停车场,150904,斜土路街道东安路562号绿地缤纷城购物广场B3,121.456618,31.183416,,[],[],交通设施,上海市,上海市,徐汇区
B0GKCRUKE1,星游城地下停车场,交通设施服务;停车场;公共停车场,150904,天钥桥路580号(上海体育场地铁站3号口步行100米),121.442082,31.184702,,[],[],交通设施,上海市,上海市,徐汇区
B0KUPS2OAM,复旦大学附属肿瘤医院徐汇院区地下停车场,交通设施服务;停车场;公共停车场,150904,东安路270号复旦大学附属肿瘤医院(徐汇院区),121.452173,31.191211,,[],[],交通设施,上海市,上海市,徐汇区
B0FFG69PHV,昭化路-道路停车位,交通设施服务;停车场;路边停车场,150906,昭化路321-4号附近,121.427515,31.212353,,[],[],交通设施,上海市,上海市,长宁区
B0FFH5ATB2,绍兴路-道路停车位,交通设施服务;停车场;路边停车场,150906,绍兴路9-2号附近,121.463800,31.209230,,[],[],交通设施,上海市,上海市,黄浦区
B0H1CC3YLW,上海市胸科医院地面停车场,交通设施服务;停车场;公共停车场,150904,徐家汇街道淮海西路241号(虹桥路地铁站4号口步行390米),121.425537,31.197351,,[],[],交通设施,上海市,上海市,徐汇区
B0GKKUYFCQ,光启城北地面停车场,交通设施服务;停车场;公共停车场,150904,宜山路455号光启城(宜山路地铁站出入口步行160米),121.428855,31.184386,,[],[],交通设施,上海市,上海市,徐汇区
B0IGU943WJ,宛平剧院地下停车场,交通设施服务;停车场;公共停车场,150904,枫林路街道中山南二路857-859号宛平剧院,121.451486,31.184827,,[],[],交通设施,上海市,上海市,徐汇区
B0FFFZQW2L,太原路-道路停车位,交通设施服务;停车场;路边停车场,150906,太原路汾阳路112弄小区东南侧约40米,121.454080,31.209939,,[],[],交通设施,上海市,上海市,徐汇区
B0H2G7UE31,泰安路-道路停车位,交通设施服务;停车场;路边停车场,150906,泰安路与兴国路交叉口东80米,121.438155,31.205915,,[],[],交通设施,上海市,上海市,徐汇区
B001570GC8,嘉善路-道路停车位,交通设施服务;停车场;路边停车场,150906,嘉善路与永康路交叉口北60米,121.459317,31.211812,,[],[],交通设施,上海市,上海市,徐汇区
B0GKKUY8IV,光启城地下停车场,交通设施服务;停车场;公共停车场,150904,宜山路455号光启城(宜山路地铁站8号口步行180米),121.427980,31.183603,,[],[],交通设施,上海市,上海市,徐汇区
B0H2G7UDWA,永康路-道路停车位,交通设施服务;停车场;路边停车场,150906,太原路太原小区,121.454633,31.209713,,[],[],交通设施,上海市,上海市,徐汇区
B00156TK9C,永福路-道路停车位,交通设施服务;停车场;路边停车场,150906,永福路57-59号附近,121.444042,31.211074,,[],[],交通设施,上海市,上海市,徐汇区
B0FFGJSEJR,复旦大学附属眼耳鼻喉科医院停车场,交通设施服务;停车场;公共停车场,150904,汾阳路83号复旦大学附属眼耳鼻喉科医院内,121.453011,31.208870,,[],[],交通设施,上海市,上海市,徐汇区
B0FFKCUA7E,上生新所停车场,交通设施服务;停车场;公共停车场,150904,,121.426979,31.207772,,[],[],交通设施,上海市,上海市,长宁区
B00155QNUQ,徐家汇公园地下停车场,交通设施服务;停车场;公共停车场,150904,肇嘉浜路940号(徐家汇地铁站14号口步行480米),121.443153,31.196904,,[],[],交通设施,上海市,上海市,徐汇区
B0GKKUY1I1,光启城东地面停车场,交通设施服务;停车场;公共停车场,150904,宜山路455号光启城(宜山路地铁站7号口步行170米),121.429038,31.184208,,[],[],交通设施,上海市,上海市,徐汇区
B0HRCCM68E,上海交通大学医学院附属国际和平妇幼保健院停车场,交通设施服务;停车场;公共停车场,150904,华山路1961号上海交通大学医学院附属国际和平妇幼保健院,121.439147,31.195899,,[],[],交通设施,上海市,上海市,徐汇区
B00156CQ1A,安亭路-道路停车位,交通设施服务;停车场;路边停车场,150906,安亭路与永嘉路交叉口南60米,121.447639,31.203713,,[],[],交通设施,上海市,上海市,徐汇区
B0H2G7W24F,余庆路-道路停车位,交通设施服务;停车场;路边停车场,150906,天平路与淮海中路交叉口东南160米,121.438657,31.202678,,[],[],交通设施,上海市,上海市,徐汇区
B00155KQZA,慈云街-道路停车位,交通设施服务;停车场;路边停车场,150906,慈云街与天钥桥路交叉口西40米,121.441531,31.188180,,[],[],交通设施,上海市,上海市,徐汇区
B0IKAHOWTU,IM Shanghai长宁国际地下停车场,交通设施服务;停车场;公共停车场,150904,凯旋路1398号IM Shanghai长宁国际,121.421327,31.200058,,[],[],交通设施,上海市,上海市,长宁区
B0GKKCY2D1,正大乐城地下停车场,交通设施服务;停车场;公共停车场,150904,斜土路街道船厂路183-12号西南50米,121.458986,31.186804,,[],[],交通设施,上海市,上海市,徐汇区
B0G02R6JBU,海兴广场地下停车场,交通设施服务;停车场;公共停车场,150904,瑞金南路1-8附近(打浦桥地铁站3号口步行380米),121.467653,31.204374,021-64181001,[],[],交通设施,上海市,上海市,黄浦区
B0H2G7VFW8,高邮路-道路停车位,交通设施服务;停车场;路边停车场,150906,复兴西路与华山路交叉口东南180米,121.438202,31.210022,,[],[],交通设施,上海市,上海市,徐汇区
B0H1KS1RH2,上海交通大学医学院附属精神卫生中心停车场,交通设施服务;停车场;公共停车场,150904,宛平南路600号上海市精神卫生中心,121.449324,31.186954,,[],[],交通设施,上海市,上海市,徐汇区
B0G0R5E86Y,汇金百货地下停车场,交通设施服务;停车场;公共停车场,150904,肇嘉浜路1000号汇金百货,121.440233,31.195880,,[],[],交通设施,上海市,上海市,徐汇区
B0IGU94J8B,复旦大学附属眼耳鼻喉科医院汾阳院区地面停车场,交通设施服务;停车场;公共停车场,150904,汾阳路83号复旦大学附属眼耳鼻喉科医院(汾阳院区),121.453343,31.209790,,[],[],交通设施,上海市,上海市,徐汇区
B0FFIAQQTN,上海交通大学医学院附属瑞金医院地面停车场,交通设施服务;停车场;公共停车场,150904,瑞金二路192附近,121.466770,31.211990,,[],[],交通设施,上海市,上海市,黄浦区
B0H2G7TKO3,五原路-道路停车位,交通设施服务;停车场;路边停车场,150906,五原路永福物业第五小区,121.442454,31.211872,,[],[],交通设施,上海市,上海市,徐汇区
B0H2G7ULW8,辛耕路-道路停车位,交通设施服务;停车场;路边停车场,150906,辛耕路与宛平南路交叉口西南140米,121.444718,31.193595,,[],[],交通设施,上海市,上海市,徐汇区
B0GKY9LDI8,南洋1931地下停车场,交通设施服务;停车场;公共停车场,150904,裕德路111号,121.433501,31.186117,,[],[],交通设施,上海市,上海市,徐汇区
B0KATROIEG,斜土路1995号地下停车场,交通设施服务;停车场;公共停车场,150904,斜土路1995号,121.450611,31.193790,,[],[],交通设施,上海市,上海市,徐汇区
B0FFFCQT9S,龙美术馆西岸馆西门地下停车场,交通设施服务;停车场;公共停车场,150904,龙腾大道,121.463930,31.183993,021-64227636,[],[],交通设施,上海市,上海市,徐汇区
B0H2G7V04V,吴兴路-道路停车位,交通设施服务;停车场;路边停车场,150906,吴兴路与淮海中路交叉口东南120米,121.442160,31.205338,,[],[],交通设施,上海市,上海市,徐汇区
B0G0XL2SS7,保利.时光里地下停车场,交通设施服务;停车场;公共停车场,150904,瑞平路230号保利·时光里B3,121.454837,31.181952,,[],[],交通设施,上海市,上海市,徐汇区
B0J3K5TSSG,徐家汇体育公园P1停车场,交通设施服务;停车场;公共停车场,150904,中山南二路1500号13号门,121.438537,31.179203,,[],[],交通设施,上海市,上海市,徐汇区
B0HGLZQSWR,武夷坊停车场,交通设施服务;停车场;公共停车场,150904,定西路1118号,121.423463,31.212304,,[],[],交通设施,上海市,上海市,长宁区
B0GK75ZR9C,腾飞大厦地下停车场,交通设施服务;停车场;公共停车场,150904,天钥桥路333号腾飞大厦内(近南丹东路),121.442505,31.188302,,[],[],交通设施,上海市,上海市,徐汇区
B0IBZH63ZE,阳光滨江天地尚湾里地下停车场,交通设施服务;停车场;公共停车场,150904,凯滨路38号阳光滨江天地·尚湾里,121.461820,31.181574,,[],[],交通设施,上海市,上海市,徐汇区
B0FFIYV1AB,26路公交车,交通设施服务;停车场;停车场相关,150900,广元西路与乐山路交叉口东北40米,121.430885,31.194092,,[],[],交通设施,上海市,上海市,徐汇区
B0FFGCHL73,安亭路-道路停车位,交通设施服务;停车场;路边停车场,150906,安亭路与建国西路交叉口北100米,121.447903,31.202429,,[],[],交通设施,上海市,上海市,徐汇区
B0HA6ZA55K,轻科大厦停车场,交通设施服务;停车场;公共停车场,150904,汾阳路与太原路交叉口西120米,121.452670,31.210117,,[],[],交通设施,上海市,上海市,徐汇区
B0HK3HILNQ,上海图书馆北停车场,交通设施服务;停车场;公共停车场,150904,淮海中路1555号上海图书馆(淮海路馆),121.443983,31.206708,,[],[],交通设施,上海市,上海市,徐汇区
B0HRTM52HE,复旦大学附属中山医院东院区地下停车场(入口),交通设施服务;停车场;停车场入口,150907,清真路1599号,121.456162,31.198139,,[],[],交通设施,上海市,上海市,徐汇区
B0GKY9LCSQ,飞洲国际大厦地下停车场,交通设施服务;停车场;公共停车场,150904,零陵路899-1号飞洲国际大厦,121.437167,31.183478,,[],[],交通设施,上海市,上海市,徐汇区
B0H32U6GUF,九〇五医院停车场,交通设施服务;停车场;公共停车场,150904,华山路1328号中国人民解放军海军第九O五医院本部,121.433073,31.209903,,[],[],交通设施,上海市,上海市,长宁区
B00155KJ84,昭化路-道路停车位,交通设施服务;停车场;路边停车场,150906,昭化路昭化小区,121.422208,31.211343,,[],[],交通设施,上海市,上海市,长宁区
B0JR0USKYQ,WYSH翡悦里地下停车场,交通设施服务;停车场;公共停车场,150904,昭化路119号,121.428389,31.212540,,[],[],交通设施,上海市,上海市,长宁区
B0HRHS31FR,定西路-道路停车位,交通设施服务;停车场;路边停车场,150906,定西路与延安西路交叉口南80米,121.423848,31.208878,,[],[],交通设施,上海市,上海市,长宁区
B0FFGZHS33,定西路-道路停车位,交通设施服务;停车场;路边停车场,150906,新华路452号,121.423574,31.205043,,[],[],交通设施,上海市,上海市,长宁区
B0L2SU5RAA,徐家汇中心地下停车场,交通设施服务;停车场;公共停车场,150904,虹桥路183号徐家汇中心,121.434501,31.194763,,[],[],交通设施,上海市,上海市,徐汇区
B0LAAHMFUF,西岸中环汇停车场,交通设施服务;停车场;公共停车场,150904,大木桥路889弄3号西岸中环汇公寓,121.468830,31.188193,,[],[],交通设施,上海市,上海市,徐汇区
B0H12H9OGQ,青松城大酒店停车场,交通设施服务;停车场;公共停车场,150904,枫林路街道东安路8号(肇嘉浜路地铁站4号口步行150米),121.449965,31.198906,,[],[],交通设施,上海市,上海市,徐汇区
B0G3ZSRHVR,瑞金医院门诊部停车场,交通设施服务;停车场;公共停车场,150904,瑞金二路197号,121.467145,31.210347,,[],[],交通设施,上海市,上海市,黄浦区
B0H31H08EJ,上海博爱医院停车场,交通设施服务;停车场;公共停车场,150904,淮海中路1590号上海博爱医院,121.444517,31.208745,,[],[],交通设施,上海市,上海市,徐汇区
B0FFI0GKC2,零陵北路-道路停车位,交通设施服务;停车场;路边停车场,150906,零陵北路上海市公安局徐汇分局斜土路派出所,121.465343,31.195507,,[],[],交通设施,上海市,上海市,徐汇区
B0H2BZKX5T,南鹰饭店停车场,交通设施服务;停车场;公共停车场,150904,淮海中路1728号南鹰饭店,121.440559,31.206423,,[],[],交通设施,上海市,上海市,徐汇区
B0H2J7VBQV,卢湾体育馆停车场,交通设施服务;停车场;公共停车场,150904,肇嘉浜路128号卢湾体育馆(嘉善路地铁站2号口步行480米),121.463841,31.204736,,[],[],交通设施,上海市,上海市,黄浦区
B0G0X71F0S,上海龙之梦大酒店地下停车场,交通设施服务;停车场;公共停车场,150904,延安西路1116号,121.430795,31.211173,,[],[],交通设施,上海市,上海市,长宁区
B0H0MUIEQ3,玖时活力中心停车场,交通设施服务;停车场;停车场相关,150900,肇嘉浜路333号-8-9层(嘉善路地铁站6号口步行60米),121.460444,31.201884,17721294547,[],[],交通设施,上海市,上海市,徐汇区
B0GK7R2PWY,圣爱大厦地下停车场,交通设施服务;停车场;公共停车场,150904,漕溪北路88号圣爱大厦(徐家汇地铁站8号口步行160米),121.437206,31.191890,,[],[],交通设施,上海市,上海市,徐汇区
B0H2G7V85X,茶陵路-道路停车位,交通设施服务;停车场;路边停车场,150906,茶陵路与零陵路交叉口北80米,121.467557,31.195820,,[],[],交通设施,上海市,上海市,徐汇区
B0IG7SPSR0,永新坊天钥桥路店地下停车场,交通设施服务;停车场;公共停车场,150904,辛耕路105号,121.443487,31.192493,,[],[],交通设施,上海市,上海市,徐汇区
B0IG7RSRBQ,沪港国际地面停车场,交通设施服务;停车场;公共停车场,150904,宛平南路381号沪港国际大厦,121.448171,31.191660,,[],[],交通设施,上海市,上海市,徐汇区
B0G0RUDTX6,汇嘉大厦停车场,交通设施服务;停车场;公共停车场,150904,漕溪北路41号汇嘉大厦(徐家汇地铁站9号口步行140米),121.439633,31.191994,,[],[],交通设施,上海市,上海市,徐汇区
B0HRLR342B,兴国大厦地下停车场,交通设施服务;停车场;公共停车场,150904,淮海中路1950弄2号兴国大厦,121.437284,31.204411,,[],[],交通设施,上海市,上海市,长宁区
B0FFG09P23,文定路-道路停车位,交通设施服务;停车场;路边停车场,150906,文定路东方曼哈顿尚-东区(徐家汇地铁站20号口步行470米),121.434217,31.191084,,[],[],交通设施,上海市,上海市,徐汇区
B0IGR7X08B,复旦大学附属中山医院门诊综合楼地面停车场,交通设施服务;停车场;公共停车场,150904,复旦大学附属中山医院西院区门诊综合楼,121.453751,31.199248,,[],[],交通设施,上海市,上海市,徐汇区
B0G0TRGBZL,瑞丽大厦停车场,交通设施服务;停车场;公共停车场,150904,淮海中路1325号瑞丽大厦(常熟路地铁站4号口步行140米),121.450317,31.212417,,[],[],交通设施,上海市,上海市,徐汇区
B0H6Z5SC2R,均瑶国际广场地下停车场,交通设施服务;停车场;公共停车场,150904,肇嘉浜路789号均瑶国际广场,121.449119,31.197937,,[],[],交通设施,上海市,上海市,徐汇区
B0H6SC0JHX,飞洲国际广场停车场,交通设施服务;停车场;公共停车场,150904,徐家汇街道零陵路899号飞洲国际广场B2,121.437482,31.183524,,[],[],交通设施,上海市,上海市,徐汇区
B0HD2ZBIOX,TWO itc地下停车场,交通设施服务;停车场;公共停车场,150904,恭城路160号TWO itc,121.436634,31.196975,,[],[],交通设施,上海市,上海市,徐汇区
B00155KWPQ,上海教育会堂停车场,交通设施服务;停车场;公共停车场,150904,岳阳路1号上海教育会堂,121.452235,31.208193,,[],[],交通设施,上海市,上海市,徐汇区
B0GK7R3QF8,汇京国际广场地下停车场,交通设施服务;停车场;公共停车场,150904,虹桥路777号汇京国际广场B1,121.424017,31.195742,,[],[],交通设施,上海市,上海市,徐汇区
B00155HO9H,日晖绿地地下停车场,交通设施服务;停车场;公共停车场,150904,斜土路1530号日晖绿地(东北角),121.460233,31.197153,021-64430670,[],[],交通设施,上海市,上海市,徐汇区
B00155A3J0,家饰佳停车场,交通设施服务;停车场;公共停车场,150904,宜山路450号(宜山路地铁站9号口步行140米),121.425717,31.183998,,[],[],交通设施,上海市,上海市,徐汇区
B00155KTUZ,五原路-道路停车位,交通设施服务;停车场;路边停车场,150906,五原路291号,121.441209,31.211635,,[],[],交通设施,上海市,上海市,徐汇区
B0HAFRY2Y3,中山万博国际中心地下停车场,交通设施服务;停车场;公共停车场,150904,新华路街道淮海西路666号(虹桥路地铁站4号口步行120米),121.422283,31.197004,,[],[],交通设施,上海市,上海市,长宁区
B0FFGCHTOJ,钦州北路-道路停车位,交通设施服务;停车场;路边停车场,150906,钦州北路与周沈巷交叉口西20米,121.421920,31.180278,,[],[],交通设施,上海市,上海市,徐汇区
B0H6SAYYHB,汇银广场地下停车场,交通设施服务;停车场;公共停车场,150904,华山路2088号汇银广场(徐家汇地铁站16号口步行310米),121.436548,31.197584,,[],[],交通设施,上海市,上海市,徐汇区
B0H2G7U7R1,桃江路-道路停车位,交通设施服务;停车场;路边停车场,150906,桃江路与乌鲁木齐南路交叉口东北40米,121.448031,31.209199,,[],[],交通设施,上海市,上海市,徐汇区
B0HBGUF3QW,城开YOYO地下停车场,交通设施服务;停车场;公共停车场,150904,辛耕路与天钥桥路交叉口东北80米,121.442350,31.192644,,[],[],交通设施,上海市,上海市,徐汇区
B0H2G7VFXU,永福路-道路停车位,交通设施服务;停车场;路边停车场,150906,永福路与复兴西路交叉口西南100米,121.443427,31.209879,,[],[],交通设施,上海市,上海市,徐汇区
B0K3RH2022,上海市徐汇区牙病防治所地面停车场(入口),交通设施服务;停车场;停车场入口,150907,枫林路500号上海市徐汇区牙病防治所地面停车场,121.459321,31.189963,,[],[],交通设施,上海市,上海市,徐汇区
B0H6SC0R7C,中金国际广场地下停车场,交通设施服务;停车场;公共停车场,150904,漕溪北路339号中金国际广场,121.438995,31.190447,,[],[],交通设施,上海市,上海市,徐汇区
B0FFHJZ234,余庆路-道路停车位,交通设施服务;停车场;路边停车场,150906,余庆路与淮海中路交叉口东南60米,121.438200,31.203473,,[],[],交通设施,上海市,上海市,徐汇区
B0H6ZZQ9VB,上海实业大厦立体停车场,交通设施服务;停车场;公共停车场,150904,漕溪北路18号-8楼(徐家汇地铁站8号口步行50米),121.437678,31.192592,,[],[],交通设施,上海市,上海市,徐汇区
B0FFHG97X3,上海电影博物馆停车场,交通设施服务;停车场;公共停车场,150904,漕溪北路595号上海电影广场,121.438772,31.186206,,[],[],交通设施,上海市,上海市,徐汇区
B0HGC7J6NW,银统大厦地面停车场,交通设施服务;停车场;公共停车场,150904,定西路988号银统大厦,121.423668,31.210732,,[],[],交通设施,上海市,上海市,长宁区
B0H2G7U7OH,定西路-道路停车位,交通设施服务;停车场;路边停车场,150906,定西路东方金门花园,121.424039,31.207805,,[],[],交通设施,上海市,上海市,长宁区
B0HGZA26XE,时代大厦地下停车场,交通设施服务;停车场;公共停车场,150904,番禺路与法华镇路交叉口西北100米,121.429755,31.204140,,[],[],交通设施,上海市,上海市,长宁区
B0HKJCZ1U9,上海新东亚酒店(南丹东路店)地下停车点,交通设施服务;停车场;公共停车场,150904,南丹东路238号金轩大厦(徐家汇地铁站2号口步行260米),121.439104,31.188678,,[],[],交通设施,上海市,上海市,徐汇区
B0FFKCIT4D,停车场(高架桥荫),交通设施服务;停车场;公共停车场,150904,中山西路三汇路高架桥荫(上海体育馆地铁站7号口步行390米),121.432880,31.180965,13621820241,[],[],交通设施,上海市,上海市,徐汇区
B0JUN5CVMF,上影国际立体停车场,交通设施服务;停车场;公共停车场,150904,法华镇路299号,121.429942,31.203681,,[],[],交通设施,上海市,上海市,长宁区
B0FFGJSEQC,复旦大学附属眼耳鼻喉科医院停车场,交通设施服务;停车场;公共停车场,150904,汾阳路83号复旦大学附属眼耳鼻喉科医院内,121.453835,31.208774,,[],[],交通设施,上海市,上海市,徐汇区
B00156XXCR,上海理日科技工业园地面停车场,交通设施服务;停车场;公共停车场,150904,宝庆路20号上海理日科技工业园,121.449806,31.209647,,[],[],交通设施,上海市,上海市,徐汇区
B0H6AZL3YA,天亿大厦地下停车场,交通设施服务;停车场;公共停车场,150904,小木桥路与斜土路交叉口北100米,121.458213,31.197774,,[],[],交通设施,上海市,上海市,徐汇区
B0HRVZU8S1,上海中医药大学附属光华医院总部停车场,交通设施服务;停车场;公共停车场,150904,新华路568号上海中医药大学附属光华医院(总部),121.422790,31.204920,,[],[],交通设施,上海市,上海市,长宁区
B0L0FS116G,钦州北路68号停车场,交通设施服务;停车场;公共停车场,150904,钦州北路68号,121.422958,31.181197,18701713712,[],[],交通设施,上海市,上海市,徐汇区
B0GK4AO1QO,永升大厦停车场,交通设施服务;停车场;公共停车场,150904,中山西路2025号永升大厦(宜山路地铁站8号口步行90米),121.427408,31.182735,,[],[],交通设施,上海市,上海市,徐汇区
B0FFK0013Q,慈云街-道路停车位,交通设施服务;停车场;路边停车场,150906,漕西北路689号鑫国家园(徐家汇地铁站2号口步行440米),121.438993,31.187351,,[],[],交通设施,上海市,上海市,徐汇区
B0H2KU8QYD,上海天平宾馆停车场,交通设施服务;停车场;公共停车场,150904,天平路与昭平路交叉口东60米,121.439638,31.197598,,[],[],交通设施,上海市,上海市,徐汇区
B0H6ZUSZ8U,绿地缤纷城徐汇店地下停车场(入口),交通设施服务;停车场;停车场入口,150907,绿地缤纷城徐汇店地下停车场,121.456270,31.182541,,[],[],交通设施,上海市,上海市,徐汇区
B00156CTE7,枫林大楼停车场,交通设施服务;停车场;公共停车场,150904,肇嘉浜路661-665号枫林大楼,121.452636,31.200042,,[],[],交通设施,上海市,上海市,徐汇区
B0FFFZXZO1,斜土路小木桥路地面停车场,交通设施服务;停车场;公共停车场,150904,斜土路小木桥路,121.459254,31.197412,,[],[],交通设施,上海市,上海市,徐汇区
B0GK7AYZ2N,建汇大厦地下停车场(新六百YOUNG停车场),交通设施服务;停车场;公共停车场,150904,衡山路922号建汇大厦(徐家汇地铁站13号口步行140米),121.439185,31.195374,,[],[],交通设施,上海市,上海市,徐汇区
B0H1XR5IZ7,上海衡山路十二号华邑酒店地下停车场,交通设施服务;停车场;公共停车场,150904,衡山路12号上海衡山路十二号华邑酒店,121.445537,31.205225,,[],[],交通设施,上海市,上海市,徐汇区
B0H2KS6T8H,上海市光华中西医结合医院延安西路院区地面停车场,交通设施服务;停车场;公共停车场,150904,延安西路1508号上海市光华中西医结合医院(延安西路院区),121.422325,31.208901,,[],[],交通设施,上海市,上海市,长宁区
B0H6MCG98T,科投大厦停车场,交通设施服务;停车场;公共停车场,150904,建国西路285号科投大厦,121.458998,31.205231,,3.0,[],交通设施,上海市,上海市,徐汇区
B0J0AM3HFY,均瑶国际广场停车场,交通设施服务;停车场;公共停车场,150904,肇嘉浜路789号均瑶国际广场,121.448545,31.197632,,[],[],交通设施,上海市,上海市,徐汇区
B0H6SAXPV8,百联徐汇商业广场地下停车场,交通设施服务;停车场;公共停车场,150904,华山路1988号百联徐汇商业广场,121.436425,31.197790,,[],[],交通设施,上海市,上海市,徐汇区
B0LARA5D5M,上海奥林匹克俱乐部丽笙酒店停车场,交通设施服务;停车场;公共停车场,150904,零陵路797号(上海体育馆地铁站2号口步行130米),121.438815,31.182550,,[],[],交通设施,上海市,上海市,徐汇区
B0FFHJ5VKS,龙之梦大厦地下停车场,交通设施服务;停车场;公共停车场,150904,延安西路1118号龙之梦大厦,121.430123,31.210889,,[],[],交通设施,上海市,上海市,长宁区
B0HA6Z8GRM,华京商务大厦停车场,交通设施服务;停车场;公共停车场,150904,钦州北路188号,121.421267,31.180847,,[],[],交通设施,上海市,上海市,徐汇区
B0G09CPS42,上海平安大厦地下停车场,交通设施服务;停车场;公共停车场,150904,凯滨路206号上海平安大厦,121.456380,31.182540,,[],[],交通设施,上海市,上海市,徐汇区
B0HKXSO4OC,西华酒店地下停车场,交通设施服务;停车场;公共停车场,150904,淮海西路1号西华酒店(交通大学地铁站2号口步行110米),121.435442,31.201692,,[],[],交通设施,上海市,上海市,徐汇区
B0GKUSG1OU,港汇恒隆广场地下停车场(出入口),交通设施服务;停车场;停车场出入口,150909,虹桥路1号港汇恒隆广场B2,121.436277,31.194632,,[],[],交通设施,上海市,上海市,徐汇区
B0IGU94Z54,复旦大学附属肿瘤医院徐汇院区内部地面停车场,交通设施服务;停车场;专用停车场,150905,东安路270号复旦大学附属肿瘤医院(徐汇院区),121.453033,31.190160,,[],[],交通设施,上海市,上海市,徐汇区
B0H13CMYAM,衡山花园酒店停车场,交通设施服务;停车场;公共停车场,150904,衡山路534号上海衡山花园酒店,121.443879,31.202298,,[],[],交通设施,上海市,上海市,徐汇区
B0HGMHY91W,华鼎大厦地下停车场,交通设施服务;停车场;公共停车场,150904,中山西路2240号,121.432070,31.180718,,[],[],交通设施,上海市,上海市,徐汇区
B0H64LK1CM,宏汇国际广场地下停车场,交通设施服务;停车场;公共停车场,150904,中山西路1600-1602号宏汇国际广场,121.421394,31.186383,,[],[],交通设施,上海市,上海市,徐汇区
B0HG1STLWG,华业大厦停车场,交通设施服务;停车场;公共停车场,150904,医学院路69号华业大厦,121.455403,31.199908,,[],[],交通设施,上海市,上海市,徐汇区
B0HA65C0Z9,南丹大楼停车场,交通设施服务;停车场;公共停车场,150904,天钥桥路250弄8号南丹大楼,121.441766,31.190173,,[],[],交通设施,上海市,上海市,徐汇区
B0HGYDXG8F,之俊大厦地面停车场,交通设施服务;停车场;公共停车场,150904,斜土路1221、1223号之俊大厦,121.464315,31.199243,,[],[],交通设施,上海市,上海市,徐汇区
B0HK3HKBVY,锦和越界原力方停车场,交通设施服务;停车场;公共停车场,150904,凯旋路与宜山路交叉口东100米,121.429235,31.185899,,[],[],交通设施,上海市,上海市,徐汇区
B0HD9AY8ZH,ITC2期地下停车场,交通设施服务;停车场;公共停车场,150904,TWO itc(徐家汇地铁站16号口步行220米),121.436636,31.196980,,[],[],交通设施,上海市,上海市,徐汇区
B0HBNZWJOU,尚街Loft停车场,交通设施服务;停车场;公共停车场,150904,嘉善路与肇嘉浜路交叉口西北140米,121.459995,31.204078,,[],[],交通设施,上海市,上海市,徐汇区
B0FFFZKROI,汽联大厦停车场,交通设施服务;停车场;公共停车场,150904,清真路1600号汽联大厦,121.456883,31.198690,,[],[],交通设施,上海市,上海市,徐汇区
B0HGA7Z4ML,五洲国际大厦停车场,交通设施服务;停车场;公共停车场,150904,肇嘉浜路807号五洲国际大厦,121.448017,31.198140,,[],[],交通设施,上海市,上海市,徐汇区
B0HK3HJGUX,上海图书馆南停车场,交通设施服务;停车场;公共停车场,150904,高安路与淮海中路交叉口东南100米,121.443941,31.206588,,[],[],交通设施,上海市,上海市,徐汇区
B0GKA956EM,徐家汇ITC商场地下停车场(出入口),交通设施服务;停车场;停车场出入口,150909,徐家汇ITC商场地下停车场,121.438427,31.197406,,[],[],交通设施,上海市,上海市,徐汇区
B0GKKUY8IW,光启城地下停车场(入口),交通设施服务;停车场;停车场入口,150907,光启城地下停车场(宜山路地铁站8号口步行130米),121.427882,31.183117,,[],[],交通设施,上海市,上海市,徐汇区
B0HG5UBB10,中城国际大厦地下停车场,交通设施服务;停车场;公共停车场,150904,虹桥路500号中城国际大厦,121.428843,31.193223,,[],[],交通设施,上海市,上海市,徐汇区
B0HG5CBBPL,茂名大厦地下停车场,交通设施服务;停车场;公共停车场,150904,永嘉路29-35号茂名大厦,121.463751,31.210731,,[],[],交通设施,上海市,上海市,黄浦区
B0HGZA1RQY,时代大厦地面停车场,交通设施服务;停车场;公共停车场,150904,番禺路390号时代大厦,121.429423,31.204108,,[],[],交通设施,上海市,上海市,长宁区
B0HR957KQY,种德桥路-道路停车位,交通设施服务;停车场;路边停车场,150906,种德桥路与延安西路辅路交叉口南80米,121.420544,31.207965,,[],[],交通设施,上海市,上海市,长宁区
B0FFHUGFX9,金星苑停车场,交通设施服务;停车场;公共停车场,150904,斜土路1636号,121.457264,31.196242,,[],[],交通设施,上海市,上海市,徐汇区
B0FFM8S6ZJ,停车场,交通设施服务;停车场;路边停车场,150906,昭化路80-108号西侧,121.426316,31.212110,,[],[],交通设施,上海市,上海市,长宁区
B0H2G7TKI3,零陵北路-道路停车位,交通设施服务;停车场;路边停车场,150906,大木桥路地铁站1号口步行330米,121.465029,31.196279,,[],[],交通设施,上海市,上海市,徐汇区
B0HKJCZ98V,上海建国宾馆停车场,交通设施服务;停车场;公共停车场,150904,漕溪北路439号上海建国宾馆,121.438310,31.190055,,[],[],交通设施,上海市,上海市,徐汇区
B0H1HSS2DG,中国人民解放军海军特色医学中心停车场,交通设施服务;停车场;公共停车场,150904,淮海西路338号中国人民解放军海军特色医学中心,121.428445,31.201009,,[],[],交通设施,上海市,上海市,长宁区
B0HGAZZA5J,长峰中心地下停车场,交通设施服务;停车场;公共停车场,150904,延安西路1088号(近番禺路)长峰中心,121.431116,31.210954,,[],[],交通设施,上海市,上海市,长宁区
B00156XYWD,深发展公寓地上停车场,交通设施服务;停车场;公共停车场,150904,泰康路288号(打浦桥地铁站1号口步行80米),121.467855,31.207672,021-64672002,[],[],交通设施,上海市,上海市,黄浦区
B0H1FUFCOO,上海兴国丽笙宾馆停车场,交通设施服务;停车场;公共停车场,150904,兴国路78号上海兴国宾馆丽笙精选,121.433458,31.208532,,[],[],交通设施,上海市,上海市,长宁区
B0H26R1N4N,枫林国际中心Ⅱ停车场,交通设施服务;停车场;公共停车场,150904,枫林路与零陵路交叉口东南140米,121.458146,31.190640,,[],[],交通设施,上海市,上海市,徐汇区
B0H2G7U7F3,茶陵路-道路停车位,交通设施服务;停车场;路边停车场,150906,茶陵路日晖三村(大木桥路地铁站4号口步行360米),121.463382,31.196595,,[],[],交通设施,上海市,上海市,徐汇区
B0IG7SPZLI,幸福里地面停车场,交通设施服务;停车场;公共停车场,150904,幸福路与法华镇路交叉口北100米,121.431020,31.204141,,[],[],交通设施,上海市,上海市,长宁区
B0G0R5D6DK,汇金百货停车场,交通设施服务;停车场;公共停车场,150904,肇嘉浜路1000号汇金百货B3,121.440296,31.195754,,[],[],交通设施,上海市,上海市,徐汇区
B0HG7RKICC,上海电影广场地下停车场,交通设施服务;停车场;公共停车场,150904,漕溪北路595号上海电影广场,121.438642,31.187063,,[],[],交通设施,上海市,上海市,徐汇区
B0L6TS5DC3,美罗城地下停车场(入口),交通设施服务;停车场;停车场入口,150907,美罗城地下停车场,121.440482,31.193561,,[],[],交通设施,上海市,上海市,徐汇区
B0HAKUJAKN,友谊时代大厦停车场,交通设施服务;停车场;公共停车场,150904,肇嘉浜路159号友谊时代大厦,121.464633,31.202832,,[],[],交通设施,上海市,上海市,徐汇区
B0H6Z5TE5G,明申中心大厦停车场,交通设施服务;停车场;公共停车场,150904,凯旋路3131号(上海体育馆地铁站7号口步行480米),121.432382,31.181801,,[],[],交通设施,上海市,上海市,徐汇区
B0HGJZJ3WJ,云海大厦地下停车场,交通设施服务;停车场;公共停车场,150904,淮海中路1329号云海大厦(常熟路地铁站7号口步行160米),121.449211,31.211737,,[],[],交通设施,上海市,上海市,徐汇区
B0H6Z7ST9Z,中煌大厦停车场,交通设施服务;停车场;公共停车场,150904,中山南二路1007号中煌大厦,121.446181,31.180779,,[],[],交通设施,上海市,上海市,徐汇区
B0FFHGNNCU,东安花苑地面停车场,交通设施服务;停车场;公共停车场,150904,中山南二路777弄3-22号东安苍苑,121.456421,31.186328,,[],[],交通设施,上海市,上海市,徐汇区
B00156CSF5,上海体育场停车场,交通设施服务;停车场;公共停车场,150904,中山南二路1800号上海体育场,121.443964,31.180881,,[],[],交通设施,上海市,上海市,徐汇区
B0HGDU88J1,爱乐大厦停车场,交通设施服务;停车场;公共停车场,150904,零陵路629-631号爱乐大厦,121.446362,31.188177,,[],[],交通设施,上海市,上海市,徐汇区
B0G0RUDTX7,汇嘉大厦地下停车场,交通设施服务;停车场;公共停车场,150904,漕溪北路41号汇嘉大厦(徐家汇地铁站9号口步行170米),121.439791,31.192231,,[],[],交通设施,上海市,上海市,徐汇区
B0HGS549M1,武康庭地下停车场,交通设施服务;停车场;公共停车场,150904,泰安路与武康路交叉口西北40米,121.438963,31.206588,,[],[],交通设施,上海市,上海市,徐汇区
B0KU4MZHGP,上海体育场地下停车场(暂停营业),交通设施服务;停车场;公共停车场,150904,徐家汇街道天钥桥路666号上海体育场,121.439048,31.182353,,[],[],交通设施,上海市,上海市,徐汇区
B0FFGL1CTO,上海文化广场地下停车场(入口),交通设施服务;停车场;停车场入口,150907,陕西南路221号,121.461470,31.212138,,[],[],交通设施,上海市,上海市,黄浦区
B0IGU92TTH,宛平剧院地下停车场(出入口),交通设施服务;停车场;停车场出入口,150909,宛平剧院地下停车场,121.451354,31.184545,,[],[],交通设施,上海市,上海市,徐汇区
B0G0X70KSF,嘉汇广场地下停车场,交通设施服务;停车场;公共停车场,150904,斜土路2601-2611号嘉汇广场,121.442807,31.188050,,[],[],交通设施,上海市,上海市,徐汇区
B0H2G7UTH1,柳州路-道路停车位,交通设施服务;停车场;路边停车场,150906,纬一路与经三路交叉口东160米,121.421079,31.184572,,[],[],交通设施,上海市,上海市,徐汇区
B0IG7SPD7F,锦和巴黎时韵地面停车场,交通设施服务;停车场;公共停车场,150904,襄阳南路500号锦和巴黎时韵,121.457931,31.205996,,[],[],交通设施,上海市,上海市,徐汇区
B0H2BDJOMQ,上海徐家汇A.T.House停车场,交通设施服务;停车场;公共停车场,150904,南丹路15号上海徐家汇ATHOUSE酒店,121.435360,31.189296,,[],[],交通设施,上海市,上海市,徐汇区
B0HGS74LV2,凯阳大厦停车场,交通设施服务;停车场;公共停车场,150904,定西路788号凯阳大厦,121.424235,31.208820,,[],[],交通设施,上海市,上海市,长宁区
B0HGUUEVIO,欧登大厦地下停车场,交通设施服务;停车场;公共停车场,150904,永嘉路与安亭路交叉口西北160米,121.446730,31.205415,,[],[],交通设施,上海市,上海市,徐汇区
B0G13C2ILC,华山花苑停车场,交通设施服务;停车场;专用停车场,150905,华山路1615-1635号、淮海中路2006弄6-16号华山花苑,121.435215,31.203369,,[],[],交通设施,上海市,上海市,长宁区
B0H1278PBU,明珠大饭店停车场,交通设施服务;停车场;公共停车场,150904,陕西南路228-2号(嘉善路地铁站2号口步行250米),121.462646,31.203794,,[],[],交通设施,上海市,上海市,黄浦区
B0FFH9VU8W,东方明珠凯旋中心地面停车场,交通设施服务;停车场;公共停车场,150904,凯旋路1522号(虹桥路地铁站1号口步行170米),121.421648,31.197770,,[],[],交通设施,上海市,上海市,长宁区
B0HAJC6ZWG,枫林国际中心Ⅰ地下停车场,交通设施服务;停车场;公共停车场,150904,枫林路388号枫林国际中心Ⅰ,121.458200,31.190862,,[],[],交通设施,上海市,上海市,徐汇区
B0H0BC1EII,恒悦轩精致香港粤菜徐家汇店停车场,交通设施服务;停车场;公共停车场,150904,恒悦轩精致香港粤菜(徐家汇店),121.443986,31.197570,,[],[],交通设施,上海市,上海市,徐汇区
B0HK2UXP9A,全季酒店(肇嘉浜路店)停车场,交通设施服务;停车场;公共停车场,150904,肇嘉浜路221号全季酒店(上海徐家汇肇嘉浜路店),121.462967,31.202758,,[],[],交通设施,上海市,上海市,徐汇区
B0FFH8A7FW,金祥苑东二门停车场,交通设施服务;停车场;公共停车场,150904,柳州路628弄-1-35号金祥苑东2门,121.420313,31.179274,,[],[],交通设施,上海市,上海市,徐汇区
B0H2NUFT8C,上海银星皇冠假日酒店地面停车场,交通设施服务;停车场;公共停车场,150904,番禺路400号上海银星皇冠假日酒店,121.429624,31.203372,,[],[],交通设施,上海市,上海市,长宁区
B0FFHGOSKW,尚海湾豪庭2期停车场,交通设施服务;停车场;专用停车场,150905,凯滨路18弄1-5号,121.460958,31.179574,,[],[],交通设施,上海市,上海市,徐汇区
B0HGC7IJNC,大众金融大厦地下停车场,交通设施服务;停车场;公共停车场,150904,延安西路1033号大众金融大厦(昭化路店),121.430081,31.212464,,[],[],交通设施,上海市,上海市,长宁区
B0HGYCWFVQ,湘江大厦停车场,交通设施服务;停车场;公共停车场,150904,凯旋路与南丹路交叉口西240米,121.420442,31.192788,,[],[],交通设施,上海市,上海市,长宁区
B0H6SAXDD2,光启文化广场停车场,交通设施服务;停车场;公共停车场,150904,影业街与斜土路交叉口西北120米,121.441332,31.186089,,[],[],交通设施,上海市,上海市,徐汇区
B0IG2U8QOM,西岸创意园立体停车场,交通设施服务;停车场;公共停车场,150904,徐虹中路与古宜路交叉口东北100米,121.424668,31.188408,,[],[],交通设施,上海市,上海市,徐汇区
B0FFG6GYE2,钦州北路-道路停车位,交通设施服务;停车场;路边停车场,150906,钦州北路与周沈巷交叉口东20米,121.422396,31.180148,,[],[],交通设施,上海市,上海市,徐汇区
B0FFGYZYWQ,上海高级金融学院停车场,交通设施服务;停车场;公共停车场,150904,淮海西路211号上海交通大学徐汇校区上海高级金融学院,121.431283,31.200222,,[],[],交通设施,上海市,上海市,徐汇区
B0FFFWU6FN,怡丰文化商娱中心地下停车场,交通设施服务;停车场;公共停车场,150904,衡山路与乌鲁木齐南路交叉口西100米,121.447338,31.206906,,[],[],交通设施,上海市,上海市,徐汇区
B0G0VUL6KJ,海兴广场地下停车场(入口),交通设施服务;停车场;停车场入口,150907,海兴广场地下停车场(打浦桥地铁站3号口步行330米),121.467465,31.204126,,[],[],交通设施,上海市,上海市,黄浦区
B0GK6RSZIN,嘉利大厦延安西路地下停车场,交通设施服务;停车场;公共停车场,150904,延安西路与安西路交叉口东120米,121.427663,31.209881,,[],[],交通设施,上海市,上海市,长宁区
B0I66SH2C4,复旦大学附属华山医院江苏路分部地面停车场,交通设施服务;停车场;公共停车场,150904,江苏路796号复旦大学附属华山医院(江苏路分部),121.433694,31.212336,,[],[],交通设施,上海市,上海市,长宁区
B0HGMSWRAI,永丰国际广场停车场,交通设施服务;停车场;公共停车场,150904,宛平南路88号(永丰国际广场),121.444814,31.195270,,[],[],交通设施,上海市,上海市,徐汇区
B0G0XL2LHD,兆丰环球大厦停车场,交通设施服务;停车场;公共停车场,150904,中山西路1800号兆丰环球大厦,121.424021,31.183314,,[],[],交通设施,上海市,上海市,徐汇区
B00156O8UQ,上汽·上海文化广场内部停车场,交通设施服务;停车场;专用停车场,150905,复兴中路597号,121.463047,31.211187,,[],[],交通设施,上海市,上海市,黄浦区
B0H6YUB6CB,飞雕国际大厦地下停车场,交通设施服务;停车场;公共停车场,150904,肇嘉浜路1065号飞雕国际大厦,121.441286,31.194136,,[],[],交通设施,上海市,上海市,徐汇区
B0H1VDQK9S,上海西华商旅大厦地下停车场,交通设施服务;停车场;公共停车场,150904,淮海西路1号上海西华商旅大厦,121.435453,31.201730,,[],[],交通设施,上海市,上海市,徐汇区
B0HKJC272J,上海利园国际大酒店地下停车场,交通设施服务;停车场;公共停车场,150904,东安路与斜土路交叉口东南240米,121.454011,31.192782,,[],[],交通设施,上海市,上海市,徐汇区
B0HBNDXDVT,美千居商业广场地下停车场,交通设施服务;停车场;公共停车场,150904,田林街道中山西路2352号,121.431611,31.180605,,[],[],交通设施,上海市,上海市,徐汇区
B0G0TRG4G7,中华门大厦停车场,交通设施服务;停车场;公共停车场,150904,宜山路520号中华门大厦(宜山路地铁站3号口步行200米),121.425770,31.181502,,[],[],交通设施,上海市,上海市,徐汇区
B0M65AGXVI,上生新所地面停车场,交通设施服务;停车场;公共停车场,150904,延安西路1262号上生新所,121.427034,31.206957,,[],[],交通设施,上海市,上海市,长宁区
B0H2N7I9NI,上海西藏大厦万怡酒店停车场,交通设施服务;停车场;公共停车场,150904,虹桥路100号(徐家汇地铁站20号口步行410米),121.434644,31.192042,,[],[],交通设施,上海市,上海市,徐汇区
B0FFM7GPG1,上海伽玛医院停车场,交通设施服务;停车场;公共停车场,150904,吴中东路上海伽玛医院,121.421768,31.190011,,[],[],交通设施,上海市,上海市,徐汇区
B0M6AUYMM0,东安大楼地上停车场,交通设施服务;停车场;公共停车场,150904,东安路338弄之1-4号东安大楼,121.454929,31.190410,,[],[],交通设施,上海市,上海市,徐汇区
B0FFH9AQLM,昭化路-道路停车位,交通设施服务;停车场;路边停车场,150906,,121.430142,31.212779,,[],[],交通设施,上海市,上海市,长宁区
B0HGZZ1ZGO,徐汇商务大厦停车场,交通设施服务;停车场;公共停车场,150904,裕德路158号,121.432927,31.185406,,[],[],交通设施,上海市,上海市,徐汇区
B0KU4MZMB6,衡山路8号地下停车场,交通设施服务;停车场;专用停车场,150905,衡山路8号上海水气石商业管理公司,121.446867,31.206722,,[],[],交通设施,上海市,上海市,徐汇区
B00155KI57,清真路-道路停车位,交通设施服务;停车场;路边停车场,150906,清真路25-27号附近(近枫林路),121.459979,31.199671,,[],[],交通设施,上海市,上海市,徐汇区
B0H13CMR3V,衡山花园酒店地下停车场,交通设施服务;停车场;公共停车场,150904,衡山路534号上海衡山花园酒店,121.443514,31.202250,,[],[],交通设施,上海市,上海市,徐汇区
B001573288,徐汇游泳馆停车场,交通设施服务;停车场;专用停车场,150905,枫林路329号徐汇游泳馆(东安路地铁站1号口步行430米),121.457051,31.193473,,[],[],交通设施,上海市,上海市,徐汇区
B0HG05Y8QN,紫苑大厦停车场,交通设施服务;停车场;公共停车场,150904,陕西南路888弄1-7号正西方向80米,121.461096,31.203709,,[],[],交通设施,上海市,上海市,徐汇区
B0FFG7LS7V,停车场(陕西南路),交通设施服务;停车场;公共停车场,150904,建国西路151号(嘉善路地铁站2号口步行410米),121.462180,31.205870,,[],[],交通设施,上海市,上海市,黄浦区
B0FFGL0RY2,四季园地面停车场,交通设施服务;停车场;公共停车场,150904,东安路149弄1-8号四季园,121.452658,31.194804,,[],[],交通设施,上海市,上海市,徐汇区
B0H6SAXJS6,光启文化广场地下停车场,交通设施服务;停车场;公共停车场,150904,影业街与斜土路交叉口西80米,121.441240,31.185266,,[],[],交通设施,上海市,上海市,徐汇区
B0FFFZWRMZ,爱中爱华公寓停车场,交通设施服务;停车场;公共停车场,150904,宛平南路658号爱中爱华公寓,121.449121,31.186241,,[],[],交通设施,上海市,上海市,徐汇区
