id,name,type,typecode,address,lng,lat,tel,rating,cost,group,pname,cityname,adname
B0FFGM2TAK,豫园百货天裕楼,购物服务;商场;购物中心|风景名胜;风景名胜;风景名胜,060101|110200,方浜中路249号,121.491268,31.225715,,4.3,[],购物菜场|风景名胜,上海市,上海市,黄浦区
B00155F9RW,上海邮政博物馆,科教文化服务;博物馆;博物馆,140100,天潼路395号(天潼路地铁站3号口步行290米),121.484749,31.244286,,4.7,[],文化地标|风景名胜,上海市,上海市,虹口区
B0FFK2KA0K,中国证券博物馆,科教文化服务;博物馆;博物馆,140100,黄浦路15号,121.490941,31.244246,021-63246332,4.7,[],文化地标|风景名胜,上海市,上海市,虹口区
B00156EGYU,钱学森图书馆,科教文化服务;博物馆;博物馆,140100,华山路1800号,121.435504,31.201055,021-62932068,4.6,[],文化地标|风景名胜|科技体验,上海市,上海市,徐汇区
B00155LL5X,上海工艺美术博物馆,科教文化服务;博物馆;博物馆,140100,汾阳路79号,121.454495,31.210087,021-64314074;021-64372509,4.4,[],文化地标|风景名胜,上海市,上海市,徐汇区
B00155LW7J,张乐平故居,科教文化服务;博物馆;博物馆,140100,五原路288弄3号,121.443329,31.212563,021-64183811,4.2,[],文化地标|风景名胜,上海市,上海市,徐汇区
B00156YO69,上海博物馆文物保护科技中心,科教文化服务;博物馆;博物馆,140100,龙吴路1114-1118号,121.451251,31.144859,,4.2,[],文化地标|风景名胜,上海市,上海市,徐汇区
B00155E2PL,上海蔡元培故居陈列馆,科教文化服务;博物馆;博物馆,140100,华山路303弄16号(静安寺地铁站12号口步行310米),121.447808,31.218916,021-62484996,4.0,[],文化地标|风景名胜,上海市,上海市,静安区
B00156NV3G,中共淞浦特委机关旧址陈列馆,科教文化服务;博物馆;博物馆|风景名胜;风景名胜;风景名胜,140100|110200,山海关路339号(自然博物馆地铁站1号口步行230米),121.463593,31.235919,021-62094660,4.2,[],文化地标|风景名胜,上海市,上海市,静安区
B0FFIBLIHR,西王花园弄堂博物馆,科教文化服务;博物馆;博物馆,140100,石门二路街道石门二路街道石门二路街道石门二路街道奉贤路68弄西王小区,121.461396,31.231857,,3.9,[],文化地标|风景名胜,上海市,上海市,静安区
B00155KRWM,沪西革命史陈列馆,风景名胜;风景名胜;红色景区|科教文化服务;展览馆;展览馆,110210|140200,曹杨路520号(沪西工人文化宫内),121.420322,31.238477,021-62442218;021-62449799,4.2,[],文化地标|风景名胜|科技体验,上海市,上海市,普陀区
B00155L9RG,上海工人第三次武装起义发布命令地点,风景名胜;风景名胜;风景名胜|科教文化服务;展览馆;展览馆,110200|140200,自忠路361号(一大会址·新天地地铁站6号口步行290米),121.473885,31.218108,,3.8,[],文化地标|风景名胜|科技体验,上海市,上海市,黄浦区
B0FFHLMGDW,军史陈列馆,风景名胜;风景名胜;纪念馆|科教文化服务;展览馆;展览馆,110204|140200,常德路与新闸路交叉口南100米,121.446240,31.228563,,4.1,[],文化地标|风景名胜|科技体验,上海市,上海市,静安区
B00155FHOA,上海城隍庙,风景名胜;风景名胜;寺庙道观,110205,方浜中路249号,121.492466,31.225879,021-63284494,4.8,[],文化地标|风景名胜,上海市,上海市,黄浦区
B0GKOS77AU,上海四行仓库抗战纪念馆,风景名胜;风景名胜;纪念馆,110204,光复路21号(曲阜路地铁站2号口步行300米),121.471104,31.240340,021-63800180;021-63808222,4.8,[],文化地标|风景名胜,上海市,上海市,静安区
B00154QFBG,中国共产党第一次全国代表大会会址纪念馆,风景名胜;风景名胜;纪念馆,110204,黄陂南路374号,121.475251,31.220139,021-53832171,4.8,[],文化地标|风景名胜,上海市,上海市,黄浦区
B00151EA79,上海宋庆龄故居纪念馆,风景名胜;风景名胜;红色景区,110210,淮海中路1843号,121.439062,31.204017,021-64747183,4.5,[],文化地标|风景名胜,上海市,上海市,徐汇区
B00154570C,上海孙中山故居纪念馆,风景名胜;风景名胜;纪念馆,110204,香山路7号,121.467744,31.216109,021-53063361,4.3,[],文化地标|风景名胜,上海市,上海市,黄浦区
B00155CAZT,中共代表团驻沪办事处纪念馆,风景名胜;风景名胜;风景名胜,110200,思南路73号,121.468480,31.214194,021-64730420,4.5,[],文化地标|风景名胜,上海市,上海市,黄浦区
B00155CAZU,中共二大会址纪念馆,风景名胜;风景名胜;红色景区,110210,老成都北路7弄30号,121.466693,31.224193,021-51311515,4.0,[],文化地标|风景名胜,上海市,上海市,静安区
B0HD6SBAAC,中共一大纪念馆一大广场,风景名胜;公园广场;城市广场,110105,黄陂南路与湖滨路交叉口,121.476246,31.220104,021-53832171,4.6,[],文化地标|风景名胜,上海市,上海市,黄浦区
B0GKJOYAH8,荣宗敬故居(不对外开放),风景名胜;风景名胜;纪念馆,110204,陕西北路186号(近南京西路),121.455852,31.226690,,4.1,[],文化地标|风景名胜,上海市,上海市,静安区
B0GUVZW63S,远望1号,风景名胜;风景名胜相关;旅游景点,110000,龙华东路黄浦滨江3号口东南200米江南造船原址2号船坞,121.489179,31.194261,15221053659,4.4,[],文化地标|风景名胜,上海市,上海市,黄浦区
B0HATSXLKE,义勇军进行曲灌制地纪念馆,风景名胜;风景名胜;红色景区,110210,衡山路811号,121.441928,31.197851,,4.4,[],文化地标|风景名胜,上海市,上海市,徐汇区
B0FFHG7QAQ,蔡元培先生故居,风景名胜;风景名胜;风景名胜,110200,静安寺街道华山路303弄16号(昆仑大酒店斜对面),121.447783,31.218916,021-62484996,4.3,[],文化地标|风景名胜,上海市,上海市,静安区
B00155KKT5,中共上海地下组织斗争史陈列馆,风景名胜;风景名胜;红色景区,110210,愚园路81号(静安寺地铁站出入口步行310米),121.446568,31.224725,021-62155939,4.2,[],文化地标|风景名胜,上海市,上海市,静安区
B0FFH9VT2B,柯灵故居,风景名胜;风景名胜;纪念馆,110204,复兴西路147号,121.442448,31.210553,19946177295,4.2,[],文化地标|风景名胜,上海市,上海市,徐汇区
B0FFGXK5WR,徐光启纪念馆,风景名胜;风景名胜相关;旅游景点,110000,徐家汇街道南丹路17号(徐家汇地铁站1号口步行290米),121.434317,31.189282,021-64381780;021-64689252,4.2,[],文化地标|风景名胜,上海市,上海市,徐汇区
B0FFFV4AU5,中国社会主义青年团中央机关旧址纪念馆,风景名胜;风景名胜;风景名胜,110200,淮海中路567弄1-6号(淮海中路地铁站1号口步行370米),121.468151,31.220489,021-53823370,4.3,[],文化地标|风景名胜,上海市,上海市,黄浦区
B0FFGST34N,上海市外滩历史纪念馆,风景名胜;风景名胜;红色景区|风景名胜;风景名胜;纪念馆,110210|110204,中山东一路475号,121.491470,31.242302,021-53082636;021-53089124,4.4,[],文化地标|风景名胜,上海市,上海市,黄浦区
B00154B0EA,上海市龙华烈士纪念馆,风景名胜;风景名胜;纪念馆,110204,龙华西路180号,121.449023,31.176658,021-64683059;021-64685995,4.2,[],文化地标|风景名胜,上海市,上海市,徐汇区
B0L19SFTSC,上海黄道婆纪念公园,风景名胜;公园广场;公园|风景名胜;风景名胜;风景名胜,110101|110200,徐梅路700号,121.448763,31.124546,021-64830899;021-64963328,4.1,[],文化地标|风景名胜,上海市,上海市,徐汇区
B0HATSX6SD,中共中央军委机关旧址纪念馆,风景名胜;风景名胜;红色景区,110210,新闸路613弄12号(自然博物馆地铁站3号口步行50米),121.462466,31.237338,021-31783930,[],[],文化地标|风景名胜,上海市,上海市,静安区
B0JU2U5RU7,中共中央秘书处机关旧址纪念馆,风景名胜;风景名胜;红色景区|风景名胜;风景名胜;纪念馆,110210|110204,江宁路673弄10号,121.449229,31.237540,021-31783920,4.5,[],文化地标|风景名胜,上海市,上海市,静安区
B00155HU5Z,西岸自然艺术公园-邹容纪念馆,风景名胜;风景名胜相关;旅游景点,110000,华泾镇华泾路868号(西岸自然艺术公园内),121.450751,31.119783,021-54825660,3.9,[],文化地标|风景名胜,上海市,上海市,徐汇区
B0LKAM81F5,周璇故居,风景名胜;风景名胜;纪念馆,110204,武康路与泰安路交叉口南20米,121.439189,31.206074,,4.0,[],文化地标|风景名胜,上海市,上海市,徐汇区
B0KURAX0RQ,圣约翰大学校长故居,风景名胜;风景名胜;风景名胜,110200,万航渡路1575号,121.415486,31.227856,,4.0,[],文化地标|风景名胜,上海市,上海市,长宁区
B0FFIDFFZD,J.G Ballard故居,风景名胜;风景名胜相关;旅游景点,110000,番禺路508号,121.429765,31.200994,,4.2,[],文化地标|风景名胜,上海市,上海市,长宁区
B0FFHKOKY5,陈立夫故居,风景名胜;风景名胜;纪念馆,110204,武康路67号,121.440577,31.212647,,4.0,[],文化地标|风景名胜,上海市,上海市,徐汇区
B0FFGAQS05,丰田纺织厂纪念馆,风景名胜;风景名胜;纪念馆,110204,万航渡路2318号,121.408421,31.221841,,4.0,[],文化地标|风景名胜,上海市,上海市,长宁区
B0FFK4R6GL,宋子文故居,风景名胜;风景名胜;纪念馆,110204,永嘉路501号,121.452895,31.205920,,4.0,[],文化地标|风景名胜,上海市,上海市,徐汇区
B0LA6S7PB6,上海孙中山故居纪念馆-孙中山铜像,风景名胜;风景名胜;风景名胜,110200,香山路7号(近思南路)上海孙中山故居纪念馆内(西侧),121.467468,31.216061,,3.5,[],文化地标|风景名胜,上海市,上海市,黄浦区
B0FFHOQKOJ,中共一大会址纪念馆保管部,风景名胜;风景名胜;纪念馆,110204,淮海中路1834-1号附近,121.438664,31.204520,,4.0,[],文化地标|风景名胜,上海市,上海市,徐汇区
B0FFFWPTQF,史良故居,风景名胜;风景名胜;纪念馆,110204,武定西路1357号,121.431477,31.224437,,3.9,[],文化地标|风景名胜,上海市,上海市,长宁区
B00151F88E,阮玲玉故居,风景名胜;风景名胜;纪念馆,110204,新闸路1124弄9号,121.454318,31.233236,,4.0,[],文化地标|风景名胜,上海市,上海市,静安区
B0FFHVXRIH,严裕堂故居,风景名胜;风景名胜;纪念馆,110204,武康路212号,121.440509,31.209299,,4.2,[],文化地标|风景名胜,上海市,上海市,徐汇区
B0HUGBP1AT,中国共产党第二次全国代表大会会址,风景名胜;风景名胜相关;旅游景点,110000,延安中路625号,121.466555,31.224155,,4.3,[],文化地标|风景名胜,上海市,上海市,静安区
B0FFHVXQCO,顾祝同故居,风景名胜;风景名胜;纪念馆,110204,武康路109号,121.440788,31.209289,,4.0,[],文化地标|风景名胜,上海市,上海市,徐汇区
B0015732PA,两弹一星爱国主义教育基地,科教文化服务;培训机构;培训机构,141400,德州路380弄1号,121.485545,31.166006,021-58455816;021-58456327,4.2,[],文化地标|风景名胜,上海市,上海市,浦东新区
B00152162E,明徐光启故居,风景名胜;风景名胜;纪念馆,110204,乔家路238号(小南门地铁站2号口步行460米),121.494631,31.217607,,4.0,[],文化地标|风景名胜,上海市,上海市,黄浦区
B00156GSJS,周信芳故居(不对外开放),风景名胜;风景名胜;纪念馆,110204,长乐路788-1号(常熟路地铁站8号口步行350米),121.449151,31.216494,,4.0,[],文化地标|风景名胜,上海市,上海市,静安区
B0FFG55FRP,白杨故居,风景名胜;风景名胜;纪念馆,110204,华山路978号,121.437649,31.211874,,4.0,[],文化地标|风景名胜,上海市,上海市,长宁区
B0FFLC0Q3R,上海旅游纪念馆,风景名胜;风景名胜;纪念馆,110204,方浜中路与旧校场路交叉口西南20米,121.490970,31.225070,,3.8,[],文化地标|风景名胜,上海市,上海市,黄浦区
B00155IMOE,豫园-挹秀楼,风景名胜;风景名胜相关;旅游景点,110000,福佑路168号上海豫园(豫园地铁站7号口步行420米),121.491427,31.226424,021-63260830,3.8,[],文化地标|风景名胜,上海市,上海市,黄浦区
B0IBA58HER,周家桥三十七民众夜校旧址纪念馆,科教文化服务;学校;成人教育,141205,万航渡路与凯旋路辅路交叉口西南20米,121.413301,31.222642,,3.5,[],文化地标|风景名胜,上海市,上海市,长宁区
B0G3HR85D9,周恩来同志发布《七月指示》所在地,风景名胜;风景名胜;红色景区,110210,贵州路160号中国饭店(现上海铁道宾馆),121.476140,31.236864,,4.2,[],文化地标|风景名胜,上海市,上海市,黄浦区
B0KUB7VSD7,孤军奋战,风景名胜;风景名胜相关;旅游景点,110000,光复路21号上海四行仓库抗战纪念馆,121.470973,31.240297,,3.6,[],文化地标|风景名胜,上海市,上海市,静安区
B0H3T5H498,黄道婆纪念堂,风景名胜;风景名胜;纪念馆,110204,龙吴路1111号(近百色路)上海植物园内黄母祠,121.448560,31.150688,021-54363369,3.8,[],文化地标|风景名胜,上海市,上海市,徐汇区
B0FFL9BUSC,原张治中故居,风景名胜;风景名胜;纪念馆,110204,长宁路712弄77号(中山公园地铁站4号口步行490米),121.422156,31.221448,,3.9,[],文化地标|风景名胜,上海市,上海市,长宁区
B00155IMGN,四明公所,风景名胜;风景名胜;风景名胜,110200,人民路582号(大世界地铁站5号口步行380米),121.482668,31.225387,,3.7,[],文化地标|风景名胜,上海市,上海市,黄浦区
B00156NYD2,宣景琳故居,风景名胜;风景名胜;纪念馆,110204,胶州路148弄3-25号,121.444907,31.227126,,3.6,[],文化地标|风景名胜,上海市,上海市,静安区
B0FFK6UR4P,孙道临故居,风景名胜;风景名胜;纪念馆,110204,武康路115号(上海图书馆地铁站3号口步行410米),121.440457,31.208434,,3.8,[],文化地标|风景名胜,上海市,上海市,徐汇区
B0KUFCSHTD,上海机器工会纪念雕塑,风景名胜;风景名胜;风景名胜,110200,自忠路170号太平桥公园(东南角),121.477302,31.219270,,3.7,[],文化地标|风景名胜,上海市,上海市,黄浦区
B0FFF9Z2QP,孙中山文物馆,风景名胜;风景名胜;风景名胜,110200,瑞金二路街道瑞金二路街道香山路9-1号附近,121.467720,31.216123,,3.8,[],文化地标|风景名胜,上海市,上海市,黄浦区
B0FFFQ6X7L,禽蛋大王故居,风景名胜;风景名胜相关;旅游景点,110000,永嘉路617号(衡山路地铁站1号口步行210米),121.448486,31.204160,,3.9,[],文化地标|风景名胜,上海市,上海市,徐汇区
B0HBKAOL6E,民进成立旧址纪念馆,风景名胜;风景名胜;纪念馆,110204,陕西南路235明复图书馆会心楼,121.461916,31.209049,021-64370835,[],[],文化地标|风景名胜,上海市,上海市,黄浦区
B0FFINNSI9,中国青年新闻记者协会成立会址纪念馆,风景名胜;风景名胜;红色景区|风景名胜;风景名胜;纪念馆,110210|110204,山西南路200号(南京东路地铁站1号口步行130米),121.482168,31.237644,021-63335997,3.6,[],文化地标|风景名胜,上海市,上海市,黄浦区
B00156YOQ0,刘晓故居,风景名胜;风景名胜;红色景区,110210,愚园路579弄44号,121.437807,31.220609,,3.5,[],文化地标|风景名胜,上海市,上海市,静安区
B0KUBRYR6W,为了忘却的记念园,风景名胜;风景名胜;纪念馆,110204,华容路与双峰路交叉口东南200米,121.450777,31.178475,,3.5,[],文化地标|风景名胜,上海市,上海市,徐汇区
B0FFGM75G3,刘鸿生故居,风景名胜;风景名胜;纪念馆,110204,肇家浜路687弄7-8号(近东安路),121.451452,31.199076,,3.7,[],文化地标|风景名胜,上海市,上海市,徐汇区
B00156R4X5,西岸自然艺术公园-刘三故居,风景名胜;风景名胜;纪念馆,110204,华泾路190号西岸自然艺术公园(西南角),121.450721,31.119819,,3.4,[],文化地标|风景名胜,上海市,上海市,徐汇区
B00155M0OA,李天马故居,风景名胜;风景名胜;纪念馆,110204,万航渡路223弄1-42号(武定路地铁站2号口步行410米),121.440718,31.225620,,3.6,[],文化地标|风景名胜,上海市,上海市,静安区
B0KUNCB2F6,二六轰炸纪念碑,风景名胜;风景名胜;纪念馆,110204,泰康路与思南路交叉口东南40米,121.471587,31.207987,,3.6,[],文化地标|风景名胜,上海市,上海市,黄浦区
B0FFHRC0QM,伍廷芳故居,风景名胜;风景名胜;纪念馆,110204,北京西路与陕西北路交叉口东北约120米,121.453817,31.230593,,3.6,[],文化地标|风景名胜,上海市,上海市,静安区
B0FFK2UO25,杨森故居,风景名胜;风景名胜;纪念馆,110204,瑞金二路街道瑞金二路街道思南路36号,121.466476,31.217695,,3.6,[],文化地标|风景名胜,上海市,上海市,黄浦区
B0LDYU2L4R,严裕棠故居,风景名胜;风景名胜;纪念馆,110204,武康路与湖南路交叉口北100米,121.440498,31.209307,,3.1,[],文化地标|风景名胜,上海市,上海市,徐汇区
B0L37ALO54,屿念宠物生命纪念馆,风景名胜;风景名胜;纪念馆,110204,东兰路248号69幢105室,121.401733,31.158606,,3.6,[],文化地标|风景名胜,上海市,上海市,闵行区
B00156R4UW,应野平故居,风景名胜;风景名胜;纪念馆,110204,愚园路361弄37号(静安寺地铁站1号口步行380米),121.442060,31.222684,,3.3,[],文化地标|风景名胜,上海市,上海市,静安区
B0HG0AXPM4,上海怀旧堂,风景名胜;风景名胜;风景名胜,110200,武定西路开纳公寓(江苏路地铁站5号口步行490米),121.430941,31.224320,,2.6,[],文化地标|风景名胜,上海市,上海市,长宁区
B0H2PHOCMJ,上海孙中山故居纪念馆-自助存包柜,风景名胜;风景名胜相关;旅游景点,110000,香山路7号(近思南路)上海孙中山故居纪念馆,121.467284,31.216048,,3.6,[],文化地标|风景名胜,上海市,上海市,黄浦区
B0LGBH4JCB,中共一大纪念馆新媒体与元宇宙实验室,风景名胜;风景名胜;纪念馆,110204,漕宝路与桂林路交叉口东北120米(桂林公园地铁站1号口旁),121.419748,31.167461,,[],[],文化地标|风景名胜,上海市,上海市,徐汇区
B0FFG4F2ME,古美徐素珍纪念馆,风景名胜;风景名胜;纪念馆,110204,平阳路1375弄-30号,121.387147,31.134217,,3.1,[],文化地标|风景名胜,上海市,上海市,闵行区
B0FFJ5FJ9S,市中心淮海中路海派名人故居一居(南昌路店),风景名胜;风景名胜;风景名胜,110200,淮海中路与成都南路交叉口南160米,121.467768,31.219192,,3.3,[],文化地标|风景名胜,上海市,上海市,黄浦区
B0KUBRXPPT,四一二殉难者雕塑,风景名胜;风景名胜;风景名胜,110200,龙华路与后马路交叉口北380米,121.452424,31.177010,,3.4,[],文化地标|风景名胜,上海市,上海市,徐汇区
B0FFIJKXUZ,吴稚晖故居,风景名胜;风景名胜;纪念馆,110204,南昌路与思南路交叉口东北140米,121.467476,31.218884,,3.2,[],文化地标|风景名胜,上海市,上海市,黄浦区
B00157HVB8,来楚生故居,风景名胜;风景名胜;纪念馆,110204,康定东路3弄8号,121.457876,31.236754,,3.4,[],文化地标|风景名胜,上海市,上海市,静安区
B0FFF4HEXQ,黎锦晖故居,风景名胜;风景名胜;纪念馆,110204,愚园路576弄3-77号(江苏路地铁站2号口步行490米),121.437851,31.221619,,3.4,[],文化地标|风景名胜,上海市,上海市,静安区
B0L1TC3ME6,茸光屿宠物生命服务纪念馆,风景名胜;风景名胜;纪念馆,110204,天山支路168号716室,121.396305,31.215206,,3.0,[],文化地标|风景名胜,上海市,上海市,长宁区
B00155ITJ1,武康大楼,商务住宅;住宅区;住宅小区,120302,湖南路街道淮海中路1850号,121.438278,31.204430,,4.8,[],文化地标|风景名胜|金融住宿政府|商务产业,上海市,上海市,徐汇区
B001515DC7,五卅运动纪念碑,风景名胜;风景名胜;纪念馆,110204,人民广场下沉式广场内(人民广场地铁站7号口步行90米),121.472937,31.233698,021-63221279,4.2,[],文化地标|风景名胜,上海市,上海市,黄浦区
B00156R4MS,上海交通大学建校100周年纪念碑,风景名胜;风景名胜;纪念馆,110204,华山路1954号上海交通大学徐汇校区,121.434727,31.199049,,4.0,[],文化地标|风景名胜,上海市,上海市,徐汇区
B001557POD,上海市人民英雄纪念塔,风景名胜;风景名胜;红色景区,110210,中山东一路475号黄浦公园(近黄浦公园),121.491409,31.242287,021-53082636,4.7,[],文化地标|风景名胜,上海市,上海市,黄浦区
B00157917M,上海人民广场,风景名胜;公园广场;城市广场,110105,人民大道185号,121.475213,31.228827,,4.7,[],文化地标|风景名胜,上海市,上海市,黄浦区
B0FFGL08VA,龙华革命烈士纪念地,风景名胜;风景名胜;红色景区|风景名胜;风景名胜;纪念馆,110210|110204,龙华西路180号上海市龙华烈士陵园(东北角),121.452140,31.177366,021-64685995;021-64683059,4.8,[],文化地标|风景名胜,上海市,上海市,徐汇区
B0FFG2I0VX,复旦大学上海医学院枫林路校区西区实验动物纪念碑,风景名胜;风景名胜;纪念馆,110204,东安路131号复旦大学枫林校区内,121.448024,31.195874,,3.4,[],文化地标|风景名胜,上海市,上海市,徐汇区
B0G0RPBMTN,烈士纪念碑,风景名胜;风景名胜;纪念馆,110204,龙华西路180号上海市龙华烈士陵园,121.449420,31.175780,021-64685995,[],[],文化地标|风景名胜,上海市,上海市,徐汇区
B00156O477,上海市尊师重教纪念碑,风景名胜;风景名胜;纪念馆,110204,华山路189号静安公园(静安寺地铁站2号口步行190米),121.447447,31.222321,021-62483238,3.3,[],文化地标|风景名胜,上海市,上海市,静安区
B00156EH0U,巴金故居(装修中),风景名胜;风景名胜;纪念馆,110204,武康路113号(上海图书馆地铁站3号口步行440米),121.440727,31.208583,021-33685656,4.4,[],文化地标|风景名胜,上海市,上海市,徐汇区
B00156NYDQ,中央特科机关旧址纪念馆,风景名胜;风景名胜;红色景区,110210,武定路930弄14号(昌平路地铁站3号口步行490米),121.443617,31.230786,,4.2,[],文化地标|风景名胜,上海市,上海市,静安区
B00155IRAJ,蒋宋旧居爱庐(不对外开放),风景名胜;风景名胜;纪念馆,110204,东平路9号,121.449753,31.208152,,4.1,[],文化地标|风景名胜,上海市,上海市,徐汇区
B001558CF6,中共三大后中央局机关历史纪念馆(装修中),风景名胜;风景名胜;红色景区,110210,浙江北路118号(曲阜路地铁站5号口步行400米),121.476278,31.243668,021-33010988,4.1,[],文化地标|风景名胜,上海市,上海市,静安区
B00154C4DC,韬奋纪念馆(暂停开放),风景名胜;风景名胜;红色景区|风景名胜;风景名胜;纪念馆,110210|110204,重庆南路205弄53号,121.471445,31.214456,021-63842690;021-63842811,4.0,[],文化地标|风景名胜,上海市,上海市,黄浦区
B001572DHP,邬达克纪念馆(暂停开放),风景名胜;风景名胜;纪念馆,110204,番禺路127-129号,121.430055,31.207954,021-62309166,4.0,[],文化地标|风景名胜,上海市,上海市,长宁区
B0FFFWPVTL,粟宗华故居,风景名胜;风景名胜;纪念馆,110204,华亭路与延庆路交叉口北60米,121.450096,31.215297,,2.9,[],文化地标|风景名胜,上海市,上海市,徐汇区
B0FFGBI0T4,上海四行仓库抗战纪念地晋元纪念广场,风景名胜;公园广场;城市广场,110105,国庆路与晋元路交叉口东南50米,121.470487,31.240089,,4.4,[],文化地标|风景名胜,上海市,上海市,静安区
B00155IM05,上海文化广场,风景名胜;公园广场;城市广场,110105,茂名南路178号(陕西南路地铁站6号口步行390米),121.462196,31.211941,021-54619961,4.7,[],文化地标|风景名胜,上海市,上海市,黄浦区
B0015397C9,上海动物园,风景名胜;公园广场;动物园,110102,虹桥路2381号,121.363009,31.193277,021-62109210,4.8,[],风景名胜,上海市,上海市,长宁区
B0FFKTGH5N,世博文化公园,风景名胜;公园广场;公园,110101,济坤路100号,121.476426,31.182085,021-58839818,4.8,[],风景名胜,上海市,上海市,浦东新区
B00157G053,中山公园,风景名胜;公园广场;公园,110101,长宁路780号,121.419034,31.221611,021-62117994;021-62525225,4.7,[],风景名胜,上海市,上海市,长宁区
B00154DWH8,上海植物园,风景名胜;公园广场;植物园,110103,龙吴路1111号,121.444271,31.147478,021-54363369,4.7,[],风景名胜,上海市,上海市,徐汇区
B00155KTVH,复兴公园,风景名胜;公园广场;公园,110101,复兴中路516号,121.469115,31.216980,021-53860187;021-53861069,4.7,[],风景名胜,上海市,上海市,黄浦区
B0IU15ZN3L,世博文化公园上海温室花园,风景名胜;公园广场;植物园,110103,济明路199号(上海世博文化公园内),121.475064,31.178387,021-58839818,4.7,[],风景名胜,上海市,上海市,浦东新区
B00155KKQJ,人民公园,风景名胜;公园广场;公园,110101,南京西路231号,121.473115,31.232135,021-63271333,4.7,[],风景名胜,上海市,上海市,黄浦区
B00155KK03,上海长风公园,风景名胜;公园广场;公园,110101,大渡河路189号,121.400804,31.224607,021-62453270,4.7,[],风景名胜,上海市,上海市,普陀区
B00155KKCG,静安雕塑公园,风景名胜;公园广场;公园,110101,石门二路128号(近北京西路)(自然博物馆地铁站1号口旁),121.463871,31.234819,021-52289562,4.6,[],风景名胜,上海市,上海市,静安区
B0FFGFW4NK,前滩休闲公园,风景名胜;公园广场;公园,110101,前滩大道北侧滨江,121.466195,31.150864,,4.7,[],风景名胜,上海市,上海市,浦东新区
B0FFG2PQVL,上海闵行文化公园,风景名胜;公园广场;公园,110101,吴中路2019号,121.360524,31.164728,021-64787780;15221215158,4.7,[],风景名胜,上海市,上海市,闵行区
B0FFFEK7RU,两栖爬行动物区域,风景名胜;公园广场;动物园,110102,虹桥路2381号(近虹井路)上海动物园内(东侧),121.368410,31.191632,,3.9,[],风景名胜,上海市,上海市,长宁区
B001508193,上海闵行体育公园,风景名胜;公园广场;公园,110101,新镇路456号,121.370878,31.143166,021-54823272;021-64612503,4.7,[],风景名胜|体育休闲,上海市,上海市,闵行区
B00155FHN3,上海长风海洋世界,风景名胜;公园广场;水族馆,110104,大渡河路189号(长风公园地铁站2号口步行150米),121.396998,31.225042,021-60721488;4000988966,4.5,[],风景名胜,上海市,上海市,普陀区
B0FFGEFO90,莘庄梅园,风景名胜;公园广场;公园,110101,虹莘路688号,121.393098,31.115368,,4.6,[],风景名胜,上海市,上海市,闵行区
B00155G2UQ,西岸自然艺术公园,风景名胜;公园广场;公园,110101,华泾路190号,121.452554,31.121755,021-64969992,4.6,[],风景名胜,上海市,上海市,徐汇区
B0FFHN56OF,世博展览馆北广场,风景名胜;公园广场;城市广场,110105,博成路850号,121.489738,31.183657,021-20893600,4.6,[],风景名胜,上海市,上海市,浦东新区
B00155G6WO,外滩-陈毅广场,风景名胜;公园广场;城市广场,110105,中山东一路外滩内(北侧),121.490390,31.238992,,4.4,[],风景名胜,上海市,上海市,黄浦区
B00155HNA3,辅德里公园,风景名胜;公园广场;公园,110101,大沽路379号(南京西路地铁站8号口步行490米),121.466665,31.224808,021-62173540,4.7,[],风景名胜,上海市,上海市,静安区
B00155HSD8,上海南站南广场,风景名胜;公园广场;城市广场,110105,上海南站地铁站2号口步行210米,121.431993,31.151079,,[],[],风景名胜,上海市,上海市,徐汇区
B00155CXXY,上海南站北广场,风景名胜;公园广场;城市广场,110105,漕河泾镇动力北三路(上海南站地铁站4号入口步行360米),121.426475,31.153055,,[],[],风景名胜,上海市,上海市,徐汇区
B0IB17DOMI,申园,风景名胜;公园广场;公园,110101,世博大道世博文化公园内(西侧),121.474285,31.182313,021-58839818,4.6,[],风景名胜,上海市,上海市,浦东新区
B0FFGBBSCX,上海世博展览馆-南广场,风景名胜;公园广场;城市广场,110105,世博大道1500号,121.490148,31.181334,,4.4,[],风景名胜,上海市,上海市,浦东新区
B0FFF6XTM4,世纪广场(南京路步行街),风景名胜;公园广场;城市广场,110105,南京东路587号(南京东路地铁站4号口步行300米),121.479688,31.235308,,4.4,[],风景名胜,上海市,上海市,黄浦区
B001556ZBL,古城公园,风景名胜;公园广场;公园,110101,人民路333号(豫园地铁站7号口步行280米),121.493836,31.228427,,4.5,[],风景名胜,上海市,上海市,黄浦区
B0G295OTG0,前滩体育公园,风景名胜;公园广场;公园,110101,前滩大道735号,121.464880,31.146551,021-20285577,4.6,[],风景名胜|体育休闲,上海市,上海市,浦东新区
B00154DIBB,天山公园,风景名胜;公园广场;公园,110101,上海市天山路街道延安西路1731号(近凯旋路),121.415854,31.210160,021-62594887,4.3,[],风景名胜,上海市,上海市,长宁区
B0FFGBDZTS,外滩金牛广场,风景名胜;公园广场;城市广场,110105,福州路与中山东一路交汇处路东,121.490891,31.235581,,4.4,[],风景名胜,上海市,上海市,黄浦区
B00155DTC6,新虹桥中心花园,风景名胜;公园广场;公园,110101,延安西路2238号(伊犁路地铁站4号口旁),121.404791,31.200239,021-62753869,4.4,[],风景名胜,上海市,上海市,长宁区
B00155R0GW,后滩公园,风景名胜;公园广场;公园,110101,世博大道2200号,121.472766,31.183833,,4.5,[],风景名胜,上海市,上海市,浦东新区
B0JBFLZSCS,黄浦公园,风景名胜;公园广场;公园,110101,外滩中山东一路479号,121.490990,31.241760,,4.3,[],风景名胜,上海市,上海市,黄浦区
B0H1SUJKH4,半马苏河公园,风景名胜;公园广场;公园,110101,光复西路6号(北岸长风南侧),121.388857,31.219351,,4.5,[],风景名胜,上海市,上海市,普陀区
B0FFK039C0,育音堂音乐公园,风景名胜;公园广场;水族馆|体育休闲服务;娱乐场所;娱乐场所,110104|080300,愚园路1398号B1层B1-02,121.422275,31.219175,021-52378662,4.7,120.00,风景名胜|体育休闲,上海市,上海市,长宁区
B0015581AB,襄阳公园,风景名胜;公园广场;公园,110101,淮海中路1008号(近襄阳北路),121.456737,31.216991,021-54042208,4.4,[],风景名胜,上海市,上海市,徐汇区
B00150C70A,太平桥公园,风景名胜;公园广场;公园,110101,自忠路170号(一大会址·新天地地铁站1号口步行490米),121.476898,31.219676,,4.4,[],风景名胜,上海市,上海市,黄浦区
B0FFG188OL,延中广场公园,风景名胜;公园广场;公园,110101,一大会址·黄陂南路地铁站5号口步行130米,121.475074,31.225564,,4.5,[],风景名胜,上海市,上海市,黄浦区
B0FFG8TX4N,上海市滨江滑板公园,风景名胜;公园广场;公园,110101,瑞宁路,121.467781,31.185976,13564262344,4.6,[],风景名胜,上海市,上海市,徐汇区
B0IRT5CQJB,梅陇生态公园,风景名胜;公园广场;公园,110101,梅陇镇得翠园绿地停车场以北,121.405809,31.117095,,4.3,[],风景名胜,上海市,上海市,闵行区
B00155L7WR,蓬莱公园,风景名胜;公园广场;公园,110101,南车站路350号,121.491501,31.206099,021-63162567,4.4,[],风景名胜,上海市,上海市,黄浦区
B00156NS4T,康健园,风景名胜;公园广场;公园,110101,冠生园路458号(桂林公园地铁站4号口步行370米),121.422053,31.163980,021-64365081,4.4,[],风景名胜,上海市,上海市,徐汇区
B00155KJKK,蝴蝶湾花园,风景名胜;公园广场;公园,110101,康定东路50号,121.456649,31.237714,,4.3,[],风景名胜,上海市,上海市,静安区
B00154DJD9,祥和公园,风景名胜;公园广场;公园,110101,真光路1121甲,121.379738,31.242235,,4.2,[],风景名胜,上海市,上海市,普陀区
B001559284,曹杨公园,风景名胜;公园广场;公园,110101,上海市曹杨新村街道枫桥路50号(近梅岭北路),121.408900,31.240026,,4.2,[],风景名胜,上海市,上海市,普陀区
B00155MF66,漕溪公园,风景名胜;公园广场;公园,110101,漕溪路203号(漕宝路地铁站2号口步行410米),121.436035,31.171985,021-64380513,4.3,[],风景名胜,上海市,上海市,徐汇区
B00152A03C,东安公园,风景名胜;公园广场;公园,110101,上海市枫林路街道中山南二路811号,121.454354,31.185207,021-54661856;13564953375,4.3,[],风景名胜,上海市,上海市,徐汇区
B0GD17OH1A,古美公园,风景名胜;公园广场;公园,110101,平吉路799号(顾戴路地铁站4号口步行270米),121.393288,31.142713,021-54800415,4.3,[],风景名胜,上海市,上海市,闵行区
B00155HQDA,丽园公园,风景名胜;公园广场;公园,110101,丽园路565号,121.478826,31.207322,,4.3,[],风景名胜,上海市,上海市,黄浦区
B0LKGU2DQW,陇上·快体活力公园,风景名胜;公园广场;公园,110101,春申路1899号,121.426360,31.112967,,4.3,[],风景名胜,上海市,上海市,闵行区
B0FFHQFCIO,金虹桥公园,风景名胜;公园广场;公园,110101,合川路2885号b楼117室市场监督管理局虹桥市场监督管理所附近,121.381745,31.170996,,4.2,[],风景名胜,上海市,上海市,闵行区
B00155KKE6,广场公园,风景名胜;公园广场;公园,110101,金陵中路与黄陂南路交叉口,121.471744,31.224502,021-58894432,4.1,[],风景名胜,上海市,上海市,黄浦区
B00155R0DL,虹桥公园,风景名胜;公园广场;公园,110101,上海市天山路街道遵义路101号(紫云西路口),121.405577,31.206112,,4.3,[],风景名胜,上海市,上海市,长宁区
B00154DWY3,莘城中央公园,风景名胜;公园广场;公园,110101,闵城路180号(近珠城路),121.386746,31.105085,021-54152600,4.2,[],风景名胜,上海市,上海市,闵行区
B00155L4QM,九子公园,风景名胜;公园广场;公园,110101,上海市南京东路街道成都北路1018号,121.464104,31.240506,,4.2,[],风景名胜,上海市,上海市,黄浦区
B0KRKLAT11,云岭公园,风景名胜;公园广场;公园,110101,云岭东路与真北路交叉口东南240米,121.378132,31.223347,,4.2,[],风景名胜,上海市,上海市,普陀区
B00155HO9J,日晖绿地,风景名胜;公园广场;公园,110101,上海市斜土路街道小木桥路与斜土路交叉口东150米,121.460005,31.196892,,4.2,[],风景名胜,上海市,上海市,徐汇区
B0FFKDU5EZ,教堂广场,风景名胜;公园广场;城市广场,110105,蒲西路与漕溪北路交叉口西40米,121.437472,31.191082,021-64412211,4.3,[],风景名胜,上海市,上海市,徐汇区
B001517E5A,长青公园,风景名胜;公园广场;公园,110101,上钢新村街道长清路11号(长清路地铁站7号口旁),121.488695,31.174036,,4.1,[],风景名胜,上海市,上海市,浦东新区
B00155KIAS,淮海公园,风景名胜;公园广场;公园,110101,太仓路56号,121.477564,31.223054,021-63866377,4.2,[],风景名胜,上海市,上海市,黄浦区
B0FFH2QQHR,静安公园-静安寺广场,风景名胜;公园广场;城市广场,110105,南京西路1661号(静安寺地铁站2号口步行140米),121.445917,31.222457,021-62483238,4.1,[],风景名胜,上海市,上海市,静安区
B0FFMCC2IW,康健社区体育公园,风景名胜;公园广场;公园|体育休闲服务;运动场馆;综合体育馆,110101|080101,康健新村街道桂林西街168号康健社区体育场内(近浦北路),121.418177,31.152215,021-54199404,4.2,[],风景名胜|体育休闲,上海市,上海市,徐汇区
B0LK6UKA2X,西岸穹顶北广场,风景名胜;公园广场;城市广场,110105,"西岸穹顶艺术中心北侧,龙耀路与龙腾大道交叉口以东",121.464810,31.163894,,4.0,[],风景名胜,上海市,上海市,徐汇区
B0FFM1FBBH,春申公园,风景名胜;公园广场;公园,110101,虹梅南路1528弄68号,121.428770,31.118623,,4.1,[],风景名胜,上海市,上海市,闵行区
B00155IQRX,衡山公园,风景名胜;公园广场;公园,110101,上海市天平路街道广元路2号(衡山路宛平路口),121.442123,31.200560,021-64727577,4.1,[],风景名胜,上海市,上海市,徐汇区
B00156F9HZ,庆典广场,风景名胜;公园广场;城市广场,110105,浦东世博园区A片区(近世博文化中心),121.491831,31.188865,15000370038,4.2,[],风景名胜,上海市,上海市,浦东新区
B00155LDNL,梦公园,风景名胜;公园广场;公园,110101,桂林路907号(吴中路地铁站2号口步行120米),121.414549,31.182859,,4.2,[],风景名胜,上海市,上海市,徐汇区
B0H22UIYVE,百禧公园,风景名胜;公园广场;公园,110101,曹杨路,121.411763,31.238046,,4.1,[],风景名胜,上海市,上海市,普陀区
B00152571E,绍兴公园,风景名胜;公园广场;公园,110101,绍兴路62号(近陕西南路),121.463443,31.209443,,4.1,[],风景名胜,上海市,上海市,黄浦区
B00155L3XH,普陀公园,风景名胜;公园广场;公园,110101,光复西路255号(镇坪路地铁站2号口步行310米),121.427630,31.244708,,4.1,[],风景名胜,上海市,上海市,普陀区
B0LKXCOKXH,徐汇区华泾公园,风景名胜;公园广场;公园,110101,华泾路190号,121.452542,31.121725,,3.9,[],风景名胜,上海市,上海市,徐汇区
B0FFF45LMU,上海展览中心东广场,风景名胜;公园广场;城市广场,110105,南京西路1333号,121.453006,31.225187,,4.1,[],风景名胜,上海市,上海市,静安区
B00154DH42,漕河泾开发区科创公园,风景名胜;公园广场;公园,110101,漕河泾新兴技术开发区桂果路601号(近宜山路),121.400330,31.169296,,4.1,[],风景名胜|体育休闲,上海市,上海市,徐汇区
B0FFFS32I8,大猩猩馆,风景名胜;公园广场;动物园,110102,程家桥街道程家桥街道虹桥路2381号(近虹井路)上海动物园内(西南角),121.361677,31.191457,,4.1,[],风景名胜,上海市,上海市,长宁区
B00153CFEE,水霞公园,风景名胜;公园广场;公园,110101,仙霞路505号,121.390333,31.206905,021-62740298,4.1,[],风景名胜,上海市,上海市,长宁区
B00156YL4F,上海儿童动物园,风景名胜;公园广场;动物园,110102,虹桥路2381号(近虹井路)上海动物园内,121.363854,31.193064,,4.1,[],风景名胜,上海市,上海市,长宁区
B00155L4KQ,新泾公园,风景名胜;公园广场;公园,110101,北新泾街道北新泾街道北新泾街道北新泾街道天山西路455号,121.362080,31.217068,,4.1,[],风景名胜,上海市,上海市,长宁区
B0FFJLNCG7,得翠园,风景名胜;公园广场;公园,110101,莘朱路888号,121.403994,31.116847,021-54370428,4.2,[],风景名胜,上海市,上海市,闵行区
B0FFFWV2PZ,五卅广场,风景名胜;公园广场;城市广场,110105,西藏中路与九江路口西五卅广场,121.473120,31.233809,,3.8,[],风景名胜,上海市,上海市,黄浦区
B0K6H7DD24,梦核公园,风景名胜;公园广场;公园,110101,江苏北路与万航渡路交叉口东20米,121.424065,31.228222,,4.2,[],风景名胜,上海市,上海市,长宁区
B0FFFSBJW4,金庭动物园,风景名胜;公园广场;动物园,110102,新泾镇协和路1号,121.356340,31.204371,021-52186161,4.2,[],风景名胜,上海市,上海市,长宁区
B00155ILI8,徐家汇公园,风景名胜;公园广场;公园,110101,肇嘉浜路986号(徐家汇地铁站14号口步行250米),121.442461,31.197401,,4.7,[],风景名胜,上海市,上海市,徐汇区
B00155R0GV,世博公园,风景名胜;公园广场;公园,110101,世博大道1750号(世博大道地铁站1号口步行260米),121.484916,31.187104,,4.7,[],风景名胜,上海市,上海市,浦东新区
B00155L0UC,桂林公园(暂停开放),风景名胜;公园广场;公园,110101,漕宝路188号(桂林公园地铁站5号口步行100米),121.417929,31.165320,021-64830915,4.6,[],风景名胜,上海市,上海市,徐汇区
B0FFM7TGRA,终点广场,风景名胜;公园广场;公园广场,110100,沿江公路与S20外环高速辅路交叉口西北200米,121.472677,31.130786,,4.2,[],风景名胜,上海市,上海市,浦东新区
B00155KJFX,静安公园(暂停开放),风景名胜;公园广场;公园,110101,华山路189号(静安寺地铁站2号口步行80米),121.446873,31.222035,021-62483238,4.6,[],风景名胜,上海市,上海市,静安区
B0FFFTRZGW,友城公园,风景名胜;公园广场;公园,110101,前滩大道108号,121.472198,31.157571,,4.3,[],风景名胜|体育休闲,上海市,上海市,浦东新区
B00155L3XR,长寿健康主题公园,风景名胜;公园广场;公园,110101,长寿路260号(长寿路地铁站3号口步行290米),121.439499,31.243418,021-52521386,4.4,[],风景名胜,上海市,上海市,普陀区
B0015081AE,莘庄地铁北广场(建设中),风景名胜;公园广场;城市广场,110105,莘庄镇水清南路与莘建东路交叉口(莘庄地铁站北1口步行130米),121.383732,31.112309,,4.3,[],风景名胜,上海市,上海市,闵行区
B00154GF8J,光启公园,风景名胜;公园广场;公园,110101,南丹路17号(徐家汇地铁站1号口步行230米),121.434630,31.189570,021-64381780,4.2,[],风景名胜,上海市,上海市,徐汇区
B0FFFY1HJD,台北林家花园休闲生活广场,风景名胜;公园广场;城市广场,110105,成山路192号(成山路地铁站4号口步行290米),121.493622,31.170454,,3.9,[],风景名胜,上海市,上海市,浦东新区
B0FFH8I7B8,体汇+名都体育公园,风景名胜;公园广场;公园,110101,虹桥镇红松东路620号,121.398873,31.189377,13564350283,4.4,[],风景名胜|体育休闲,上海市,上海市,闵行区
B001539A08,南园公园,风景名胜;公园广场;公园,110101,龙华东路800号(打浦路口),121.475001,31.191716,021-63038324,4.3,[],风景名胜,上海市,上海市,黄浦区
B001557FQN,黎安公园,风景名胜;公园广场;公园,110101,秀文路118号,121.380094,31.129765,,4.2,[],风景名胜,上海市,上海市,闵行区
B0IK2ABDX3,半马苏河公园(1号公园),风景名胜;公园广场;公园广场,110100,光复西路6号,121.394988,31.219995,,4.2,[],风景名胜,上海市,上海市,普陀区
B00155D4AI,华山绿地,风景名胜;公园广场;公园,110101,华山路1500号,121.432628,31.206712,,4.2,[],风景名胜,上海市,上海市,长宁区
B0FFH0VBLJ,上海人民广场音乐喷泉,风景名胜;公园广场;城市广场,110105,人民大道185号上海人民广场(西北角),121.474539,31.229381,,4.2,[],风景名胜,上海市,上海市,黄浦区
B0KB7ZGF5Z,半马苏河公园5号公园,风景名胜;公园广场;公园,110101,光复西路与真光路辅路交叉口西140米,121.367108,31.225470,,4.2,[],风景名胜,上海市,上海市,普陀区
B0HBRX87UD,世纪同框广场,风景名胜;公园广场;城市广场,110105,北苏州路29号,121.489368,31.244110,18017713232,4.3,[],风景名胜,上海市,上海市,虹口区
B0FFGL0MPJ,桥头广场,风景名胜;公园广场;城市广场,110105,三林镇环南一大道98号A,121.474058,31.129427,,4.2,[],风景名胜,上海市,上海市,浦东新区
B0LGJLN8OD,西岸自然艺术公园1期,风景名胜;公园广场;公园,110101,华泾路190号西岸自然艺术公园内(东侧),121.455975,31.122655,,4.1,[],风景名胜,上海市,上海市,徐汇区
B00155L4R9,华城广场,风景名胜;公园广场;城市广场,110105,杨新路214号,121.490166,31.163046,,4.1,[],风景名胜,上海市,上海市,浦东新区
B0FFGWIHV9,海粟绿地,风景名胜;公园广场;公园,110101,凯旋路760号(延安西路地铁站1号口步行70米),121.418168,31.210188,021-62256209,4.1,[],风景名胜,上海市,上海市,长宁区
B0FFILDNB2,外滩-金融广场,风景名胜;公园广场;城市广场,110105,外滩街道外滩街道中山东一路49号外滩(西北角),121.490680,31.236628,,4.2,[],风景名胜,上海市,上海市,黄浦区
B0HGFK2OBC,丰盛里·静安寺广场,风景名胜;公园广场;城市广场,110105,静安寺街道南京西路1699号(静安寺地铁站2号口步行50米),121.446489,31.222996,,4.2,[],风景名胜,上海市,上海市,静安区
B00156TH4Z,延中广场公园春之园,风景名胜;公园广场;公园,110101,巨鹿路与瑞金一路交叉口东北角,121.465133,31.223220,,4.1,[],风景名胜,上海市,上海市,黄浦区
B0FFJFKIC6,北广场,风景名胜;公园广场;城市广场,110105,南京西路789号(南京西路地铁站5号口旁),121.462549,31.229968,,3.9,[],风景名胜,上海市,上海市,静安区
B0J1OUD0JW,吴兴公园,风景名胜;公园广场;公园,110101,衡山路吴兴路路口(衡山路地铁站1号口步行250米),121.444516,31.202330,,4.1,[],风景名胜,上海市,上海市,徐汇区
B0015127F1,虹桥河滨公园,风景名胜;公园广场;公园,110101,长宁路2080号(锦屏路口),121.400677,31.219642,,4.0,[],风景名胜,上海市,上海市,长宁区
B0FFFZSAKN,冬园,风景名胜;公园广场;城市广场|风景名胜;风景名胜;风景名胜,110105|110200,瑞金二路街道雁荡路99号,121.468884,31.222970,,4.1,[],风景名胜,上海市,上海市,黄浦区
B0FFGMD9ER,黄金广场,风景名胜;公园广场;城市广场,110105,方浜中路249号(豫园地铁站7号口步行360米),121.491223,31.227155,,4.1,[],风景名胜,上海市,上海市,黄浦区
B0FFFWQ23U,延天绿地,风景名胜;公园广场;公园,110101,延安西路(延安西路地铁站2号口步行470米),121.412988,31.207951,021-62346224,4.0,[],风景名胜,上海市,上海市,长宁区
B0L27SJLN2,兴业太古汇北广场,风景名胜;公园广场;公园广场,110100,南京西路789号兴业太古汇北侧(南京西路地铁站6号口旁),121.462375,31.230172,,4.1,[],风景名胜,上海市,上海市,静安区
B0LU6DMQOB,春申体育公园,风景名胜;公园广场;公园,110101,兴梅路996号,121.415552,31.107474,13816417650,4.2,[],风景名胜,上海市,上海市,闵行区
B0FFGXZYD4,徐汇滨江海事塔广场,风景名胜;公园广场;城市广场,110105,龙腾大道,121.462400,31.177546,,4.1,[],风景名胜,上海市,上海市,徐汇区
B0FFGM2379,上海植物园-梅林,风景名胜;公园广场;植物园,110103,龙吴路1111号上海植物园(西南角),121.439680,31.144361,021-54363369,3.8,[],风景名胜,上海市,上海市,徐汇区
B00156ZKAP,上海人民广场下沉式广场,风景名胜;公园广场;城市广场,110105,南京西路19号(人民广场地铁站7号口旁),121.473561,31.233944,13764709836,4.2,[],风景名胜,上海市,上海市,黄浦区
B0015474F4,龙华滨江休闲广场,风景名胜;公园广场;城市广场,110105,龙潭路18号,121.458454,31.151373,,4.1,[],风景名胜,上海市,上海市,徐汇区
B00155KIQQ,济阳公园,风景名胜;公园广场;公园,110101,上钢新村街道上钢新村街道上钢新村街道上钢新村街道耀华路600号,121.479874,31.169099,021-58452940,4.1,[],风景名胜,上海市,上海市,浦东新区
B0HB3C9PJJ,112人民广场,风景名胜;公园广场;城市广场,110105,石门一路与南京西路交叉口西南40米,121.461914,31.230724,,4.1,[],风景名胜,上海市,上海市,静安区
B00156GLN3,静安公园-八景园,风景名胜;公园广场;公园,110101,南京西路1649号静安公园内(东北角),121.447467,31.222000,021-62483238,4.1,[],风景名胜,上海市,上海市,静安区
B0FFFWUHP9,五彩滑道,风景名胜;公园广场;公园,110101,闵行体育公园翡翠山山顶,121.370467,31.145687,13122806258,4.1,[],风景名胜,上海市,上海市,闵行区
B0I6A529SF,鸽子广场,风景名胜;公园广场;城市广场,110105,局门路735号3号门,121.484983,31.192817,,4.0,[],风景名胜,上海市,上海市,黄浦区
B0L09MC81K,力波广场,风景名胜;公园广场;城市广场,110105,益梅路与镇西路交叉口东140米,121.411477,31.133396,,4.0,[],风景名胜,上海市,上海市,闵行区
B0FFM9SREY,上海长风海洋世界-水族馆,风景名胜;公园广场;水族馆,110104,大渡河路451号长风公园4号门,121.396959,31.224697,021-60721488;4000988966,4.0,[],风景名胜,上海市,上海市,普陀区
B0GRG7Q238,霓虹生活广场,风景名胜;公园广场;城市广场|购物服务;专卖店;专营店,110105|061200,普安路10号(大世界地铁站3号口步行300米),121.476324,31.225484,,4.1,[],风景名胜,上海市,上海市,黄浦区
B00155G6EO,不夜城绿地,风景名胜;公园广场;公园,110101,华盛路213号(汉中路地铁站2号口步行370米),121.460586,31.244678,021-63818861,4.1,[],风景名胜,上海市,上海市,静安区
B00155NEVY,新虹桥广场,风景名胜;公园广场;城市广场,110105,兴义路48号-5,121.403837,31.204015,,4.0,[],风景名胜,上海市,上海市,长宁区
B0GRMH0UW4,嘉澜庭口袋公园,风景名胜;公园广场;公园,110101,永嘉路309号,121.458472,31.209178,,4.2,[],风景名胜|独处品质空间,上海市,上海市,徐汇区
B00155A8FL,金沙公园,风景名胜;公园广场;公园,110101,丰庄路69号(近清峪路),121.359424,31.242988,,4.1,[],风景名胜,上海市,上海市,嘉定区
B00155LW4R,中心广场(凝晖路),风景名胜;公园广场;城市广场,110105,文昌路10号,121.492021,31.225569,,4.2,[],风景名胜,上海市,上海市,黄浦区
B0FFKFXJ2T,携程旅游人民广场(官方旗舰店),风景名胜;公园广场;城市广场|生活服务;生活服务场所;生活服务场所,110105|070000,西藏中路80号(人民广场地铁站1号口步行230米),121.477934,31.229816,13761002188,4.2,[],风景名胜,上海市,上海市,黄浦区
B0FFL3P95I,闻翠园,风景名胜;公园广场;公园,110101,莘朱路1016号,121.412684,31.117358,,4.1,[],风景名胜,上海市,上海市,闵行区
B00155ILXP,延中公园,风景名胜;公园广场;公园,110101,巨鹿路成都南路口,121.467051,31.222443,,4.2,[],风景名胜,上海市,上海市,黄浦区
B0KUFCZAKM,中央公园,风景名胜;公园广场;公园,110101,东育路500弄1-9号前滩太古里F3,121.481680,31.153739,,4.1,[],风景名胜,上海市,上海市,浦东新区
B0FFGMD2DF,上海植物园展览温室,风景名胜;公园广场;植物园,110103,龙吴路1111号上海植物园内(东侧),121.447336,31.147296,021-54363369,3.9,[],风景名胜,上海市,上海市,徐汇区
B00155KLL0,上海玫瑰花园,风景名胜;公园广场;公园,110101,南京西路街道南京西路街道南京西路街道南京西路1398号,121.451057,31.226198,,4.1,[],风景名胜,上海市,上海市,静安区
B0IUU96LH0,春申湖广场,风景名胜;公园广场;公园广场,110100,黎安路188号,121.364676,31.127162,,4.1,[],风景名胜,上海市,上海市,闵行区
B0LDT6NY7D,上海植物园-北区,风景名胜;公园广场;植物园,110103,龙吴路1111号上海植物园内(北侧),121.444020,31.150251,,4.1,[],风景名胜,上海市,上海市,徐汇区
B00155L4P0,西康公园,风景名胜;公园广场;公园,110101,江宁路街道江宁路街道江宁路街道江宁路街道西康路255-1号,121.449832,31.230134,,4.0,[],风景名胜,上海市,上海市,静安区
B0FFF9UXBV,世博绿色出行林,风景名胜;公园广场;城市广场,110105,华泾路188弄1-5号,121.461017,31.121263,,4.1,[],风景名胜,上海市,上海市,徐汇区
B00155LH61,漕河泾公园,风景名胜;公园广场;公园,110101,田林路358号(漕河泾开发区地铁站1号口步行150米),121.399262,31.171800,,4.0,[],风景名胜,上海市,上海市,徐汇区
B00155LW4D,延福绿地,风景名胜;公园广场;公园,110101,金陵东路,121.482778,31.229991,,4.1,[],风景名胜,上海市,上海市,黄浦区
B0JGVRB5BH,力波公园,风景名胜;公园广场;公园广场,110100,虹梅南路益梅路转角,121.415709,31.133258,,4.1,[],风景名胜,上海市,上海市,闵行区
B0KKPSC9VP,前滩中心公园,风景名胜;公园广场;公园,110101,海阳西路和平家桥路交叉口,121.477679,31.150700,,4.1,[],风景名胜,上海市,上海市,浦东新区
B00156ZIX5,九曲桥广场,风景名胜;公园广场;城市广场,110105,湖心亭(豫园西南),121.491834,31.226411,,4.0,[],风景名胜,上海市,上海市,黄浦区
B00155G1EB,桂江公园,风景名胜;公园广场;公园,110101,韵达快运(宜山路服务站)(虹梅路地铁站1号口步行490米),121.404431,31.160312,,4.1,[],风景名胜,上海市,上海市,徐汇区
B00155LC3D,嘉川路小游园,风景名胜;公园广场;公园,110101,凌云路283号,121.418598,31.134477,,4.0,[],风景名胜,上海市,上海市,徐汇区
B0K1D7CJB4,世博文化公园舞动广场,风景名胜;公园广场;公园广场,110100,济坤路100号(世博大道地铁站1号口步行330米),121.482716,31.182431,,4.1,[],风景名胜,上海市,上海市,浦东新区
B0J17LJWI6,杏杨园,风景名胜;公园广场;公园|商务住宅;住宅区;住宅小区,110101|120302,杨柳青路,121.402475,31.235711,,3.8,[],风景名胜,上海市,上海市,普陀区
B00155Q8RP,G60高速防护林口袋公园,风景名胜;公园广场;公园,110101,沪闵公路与莘建路交叉口东北角,121.380487,31.109582,,3.9,[],风景名胜|独处品质空间,上海市,上海市,闵行区
B0HUV52386,龙华广场,风景名胜;公园广场;城市广场,110105,龙华西路与龙华路交叉口北60米,121.451264,31.172989,,4.0,[],风景名胜,上海市,上海市,徐汇区
B0FFFGNIOX,华山花园,风景名胜;公园广场;公园,110101,乌鲁木齐中路12复旦大学附属华山医院内,121.442231,31.216432,,4.0,[],风景名胜,上海市,上海市,静安区
B0LKFYSYQO,双子山文化公园,风景名胜;公园广场;公园,110101,耀龙路与友诚路交叉口南40米,121.473526,31.168989,,3.8,[],风景名胜,上海市,上海市,浦东新区
B00155ILKN,乐山绿地,风景名胜;公园广场;公园,110101,乐山路37号,121.431800,31.195680,,4.1,[],风景名胜,上海市,上海市,徐汇区
B0FFJFBKYS,兴业太古汇南花园,风景名胜;公园广场;城市广场,110105,南京西路兴业太古汇内(南京西路地铁站8号口旁),121.463408,31.227478,,4.0,[],风景名胜,上海市,上海市,静安区
B0LALLPF05,地勘公园,风景名胜;公园广场;公园,110101,小闸镇街与文定路交叉口西80米,121.425787,31.179362,,4.1,[],风景名胜,上海市,上海市,徐汇区
B0FFKXKS08,殿前广场,风景名胜;公园广场;城市广场,110105,豫园街道豫园街道豫园街道豫园街道方浜中路249号上海城隍庙内(南侧),121.492473,31.225700,021-63284494,4.0,[],风景名胜,上海市,上海市,黄浦区
B00157HZ7A,世博轴,风景名胜;公园广场;城市广场|购物服务;商场;普通商场|生活服务;生活服务场所;生活服务场所,110105|060102|070000,世博园区(中华艺术宫地铁站3号口步行170米),121.491808,31.184739,021-20225479;021-31115216,3.7,[],风景名胜,上海市,上海市,浦东新区
B0GD2ASW4C,熊猫岭馆,风景名胜;公园广场;动物园,110102,虹桥路2381号(近虹井路)上海动物园内(西北角),121.360999,31.195291,,3.9,[],风景名胜,上海市,上海市,长宁区
B00155HSAM,康乐文化广场,风景名胜;公园广场;城市广场,110105,,121.414133,31.148752,,4.0,[],风景名胜,上海市,上海市,徐汇区
B0FFFDPYX9,上海植物园-兰室,风景名胜;公园广场;植物园,110103,龙吴路1111号(近百色路)上海植物园内(东侧),121.446205,31.146753,021-54363369,3.8,[],风景名胜,上海市,上海市,徐汇区
B00155G1GR,康健绿苑,风景名胜;公园广场;公园,110101,康健新村浦北路375号,121.420504,31.153463,,3.5,[],风景名胜,上海市,上海市,徐汇区
B0I30AHZFY,梅陇南方公园,风景名胜;公园广场;公园,110101,闵虹路与万源路交叉口西南240米,121.397680,31.129236,,4.0,[],风景名胜,上海市,上海市,闵行区
B001536CEC,兰溪青年公园,风景名胜;公园广场;公园,110101,兰溪路152号(近桂巷路),121.404811,31.240879,,4.0,[],风景名胜,上海市,上海市,普陀区
B0HK05HTKU,世博文化公园北园,风景名胜;公园广场;公园,110101,世博大道2200号,121.478223,31.182250,021-58839818,4.0,[],风景名胜,上海市,上海市,浦东新区
B0FFKU5XRF,枣阳公园,风景名胜;公园广场;公园,110101,枣阳路226号,121.403851,31.234964,,4.0,[],风景名胜,上海市,上海市,普陀区
B00155MLLM,梅陇城广场,风景名胜;公园广场;城市广场,110105,梅陇镇(莲花路地铁站5A口步行470米),121.406075,31.129984,,4.0,[],风景名胜,上海市,上海市,闵行区
B00155FI0W,华山儿童公园,风景名胜;公园广场;公园,110101,华山路1575号(交通大学地铁站6号口步行160米),121.434675,31.204134,021-62592049,4.0,[],风景名胜,上海市,上海市,长宁区
B001519846,延虹绿地,风景名胜;公园广场;公园广场,110100,虹桥街道虹桥街道虹桥路1518号,121.396300,31.200230,,3.9,[],风景名胜,上海市,上海市,长宁区
B0FFL81AXV,临空滑板公园,风景名胜;公园广场;公园,110101,云岭西路与香樟路交叉口西南240米,121.358333,31.229962,18321099271,4.0,[],风景名胜,上海市,上海市,长宁区
B0J1GS8Y0B,上海动物园河马馆,风景名胜;公园广场;动物园,110102,虹桥路2381号上海动物园,121.360517,31.193184,,4.0,[],风景名胜,上海市,上海市,长宁区
B0J647JYMM,乐汇小游园,风景名胜;公园广场;公园,110101,中山西路与漕溪路交叉口(上海体育馆地铁站7号口步行140米),121.435575,31.179879,,4.0,[],风景名胜,上海市,上海市,徐汇区
B0GD2ATLRK,孟加拉虎,风景名胜;公园广场;动物园,110102,虹桥路2381号上海动物园内(西北角),121.360338,31.195191,,3.9,[],风景名胜,上海市,上海市,长宁区
B00155N1ER,活水公园,风景名胜;公园广场;公园,110101,半淞园路街道半淞园路街道半淞园路街道半淞园路街道南车站路564号,121.494137,31.202375,,4.0,[],风景名胜,上海市,上海市,黄浦区
B0J0PG2V4H,环球港北广场,风景名胜;公园广场;城市广场,110105,中山北路3300号上海月星环球港,121.413549,31.235082,,4.1,[],风景名胜,上海市,上海市,普陀区
B0I6X5ET1O,永源浜花园,风景名胜;公园广场;公园,110101,南京西路永源路路口(静安寺地铁站1号口步行430米),121.441923,31.220953,,4.0,[],风景名胜,上海市,上海市,静安区
B00155LI8X,梅陇好人公园,风景名胜;公园广场;公园,110101,上中西路788号,121.415918,31.131627,,3.9,[],风景名胜|体育休闲,上海市,上海市,闵行区
B0FFMGRIYF,天安中心广场,风景名胜;公园广场;城市广场,110105,南京西路338号天安中心,121.469681,31.231783,021-63729188,4.1,[],风景名胜,上海市,上海市,黄浦区
B00155HSK6,古美人口文化公园,风景名胜;公园广场;公园,110101,平南路与莲花路交叉口西南角,121.395009,31.151813,,4.0,[],风景名胜,上海市,上海市,闵行区
B001559DZU,番禺绿地,风景名胜;公园广场;公园,110101,虹桥路637号,121.426806,31.194510,,4.1,[],风景名胜,上海市,上海市,徐汇区
B0FFF36A4Z,上海植物园-热带植物馆,风景名胜;公园广场;植物园,110103,龙吴路1111号(近百色路)上海植物园内(东侧),121.447415,31.147041,021-54363369,3.9,[],风景名胜,上海市,上海市,徐汇区
B0015246F0,古美科普公园,风景名胜;公园广场;公园,110101,古美路,121.405500,31.141491,,4.0,[],风景名胜,上海市,上海市,闵行区
B00155KI8E,音乐广场,风景名胜;公园广场;城市广场,110105,延安东路523号(大世界地铁站3号口步行320米),121.478367,31.226511,,4.2,[],风景名胜,上海市,上海市,黄浦区
B001525997,平阳双拥公园,风景名胜;公园广场;公园,110101,古美路,121.387316,31.134484,,3.9,[],风景名胜,上海市,上海市,闵行区
B00155KTZZ,曹家渡花园,风景名胜;公园广场;公园广场,110100,康定路1445号(武宁路地铁站5A口步行320米),121.431232,31.229538,,3.9,[],风景名胜,上海市,上海市,静安区
B0FFHX6W3H,中山公园-米兰广场,风景名胜;公园广场;城市广场,110105,华阳路街道华阳路街道华阳路街道华阳路街道长宁路820号米兰广场,121.419982,31.219599,021-62117994,3.8,[],风景名胜,上海市,上海市,长宁区
B0FFI52TL9,上海动物园-袋鼠馆,风景名胜;公园广场;动物园,110102,虹桥路2381号(近虹井路)上海动物园内食草动物区,121.359550,31.191551,,3.8,[],风景名胜,上海市,上海市,长宁区
B00156R2S4,淀浦河南侧绿地,风景名胜;公园广场;城市广场,110105,疏影路附近,121.375572,31.123690,,4.0,[],风景名胜,上海市,上海市,闵行区
B0KA97QLS5,锦梅公园,风景名胜;公园广场;公园,110101,梅强路与锦梅路交叉口东南180米,121.420146,31.113136,,4.0,[],风景名胜,上海市,上海市,闵行区
B00156CU4L,德州休闲绿地,风景名胜;公园广场;公园,110101,上钢新村街道上钢新村街道上钢新村街道上钢新村街道德州路338号,121.489079,31.165998,,3.9,[],风景名胜,上海市,上海市,浦东新区
B0FFFY7LW3,长风壹号绿地,风景名胜;公园广场;公园,110101,金沙江路738号,121.398635,31.219926,,3.9,[],风景名胜,上海市,上海市,普陀区
B0KUBRNCAM,云朵花园,风景名胜;公园广场;公园,110101,世博大道与上南路交叉口东100米,121.493745,31.186600,,3.9,[],风景名胜,上海市,上海市,浦东新区
B0HB6RMUZN,徐汇中城绿谷,风景名胜;公园广场;公园,110101,定安路与沪闵路辅路交叉口东南180米,121.433847,31.158993,,4.0,[],风景名胜,上海市,上海市,徐汇区
B0FFK944FN,哈密公园(装修中),风景名胜;公园广场;公园,110101,新渔路与蒲淞南路交叉口南120米,121.374003,31.213570,,4.0,[],风景名胜,上海市,上海市,长宁区
B0HAM53Q6D,叠翠园,风景名胜;公园广场;公园,110101,莘朱路与老宅里路交叉口西北100米,121.409533,31.117731,,3.7,[],风景名胜,上海市,上海市,闵行区
B0FFHEN14R,假日广场,风景名胜;公园广场;城市广场,110105,莘庄镇畹町路99弄101到102,121.401429,31.105658,,3.8,[],风景名胜,上海市,上海市,闵行区
B0FFG2D2GC,上海植物园-木兰园,风景名胜;公园广场;植物园,110103,龙吴路1111号(近百色路)上海植物园内(西侧),121.441971,31.146589,021-54363369,3.6,[],风景名胜,上海市,上海市,徐汇区
B00156ZJV0,淮茂绿地,风景名胜;公园广场;城市广场,110105,茂名南路59-14号(陕西南路地铁站3号口步行250米),121.460269,31.218460,,4.0,[],风景名胜,上海市,上海市,黄浦区
B00156ZKWD,风铃绿地,风景名胜;公园广场;公园,110101,北新泾街道北新泾街道北新泾街道北新泾街道北翟路456号,121.370564,31.222267,,3.9,[],风景名胜,上海市,上海市,长宁区
B0FFIK0Y68,复兴公园-大草坪,风景名胜;公园广场;公园,110101,复兴中路516号复兴公园,121.469643,31.216768,021-53860187,3.8,[],风景名胜,上海市,上海市,黄浦区
B0FFFS32K1,上海动物园-亚洲象馆,风景名胜;公园广场;动物园,110102,虹桥路2381号上海动物园内(西南角),121.360321,31.191886,,3.9,[],风景名胜,上海市,上海市,长宁区
B001573EWT,茶陵绿地,风景名胜;公园广场;公园广场,110100,茶陵北路茶陵路105弄6号,121.465066,31.197738,,4.0,[],风景名胜,上海市,上海市,徐汇区
B00155IR6L,嘉和公园,风景名胜;公园广场;公园,110101,梅陇镇梅陇西路666号,121.402916,31.125938,,3.8,[],风景名胜,上海市,上海市,闵行区
B0L3S73OPE,洛克公园,风景名胜;公园广场;公园,110101,长宁路与天中路交叉口西北180米,121.388834,31.219353,,3.7,[],风景名胜,上海市,上海市,普陀区
B00155L38G,虹康绿地休闲广场,风景名胜;公园广场;城市广场,110105,泉口路111号(近剑河路),121.369007,31.212591,,3.8,[],风景名胜,上海市,上海市,长宁区
B00155MV5M,井亭绿地,风景名胜;公园广场;公园,110101,虹桥镇吴中路1710号,121.377356,31.175127,,3.9,[],风景名胜,上海市,上海市,闵行区
B00155IQ2K,番禺文化广场,风景名胜;公园广场;城市广场,110105,虹桥路637号,121.426727,31.196101,,4.0,[],风景名胜,上海市,上海市,徐汇区
B0FFI1ANZA,古美爵士文化广场,风景名胜;公园广场;城市广场,110105,古美街道古美街道古美街道古美街道顾戴路路口益丰大药房旁边,121.386170,31.138950,,4.1,[],风景名胜,上海市,上海市,闵行区
B0FFGM20BF,上海植物园-牡丹园,风景名胜;公园广场;植物园,110103,龙吴路1111号(近百色路)上海植物园内(西南角),121.440727,31.145809,021-54363369,3.7,[],风景名胜,上海市,上海市,徐汇区
B0J6ZZGPM3,前滩小叶公园,风景名胜;公园广场;公园,110101,春眺路160号(前滩地区的南侧东至耀龙路西此桐晚路),121.475282,31.146817,,3.9,[],风景名胜,上海市,上海市,浦东新区
B00155KLR9,南京西路绿地,风景名胜;公园广场;公园,110101,静安寺地铁站13A出口步行450米,121.441138,31.220776,,4.0,[],风景名胜,上海市,上海市,静安区
B0FFIMVKBI,龙华1号广场,风景名胜;公园广场;城市广场,110105,丰谷路与机场西路交叉口东北100米,121.454392,31.169402,,3.8,[],风景名胜,上海市,上海市,徐汇区
B00156DWJ8,闵行市民文化广场,风景名胜;公园广场;城市广场,110105,黄桦路与青杉路交叉口西北120米,121.365431,31.177476,,3.6,[],风景名胜,上海市,上海市,闵行区
B0FFHCDOQT,苏河湾中心绿地,风景名胜;公园广场;公园,110101,福建北路与北苏州路交叉口西北80米,121.478447,31.241366,,4.0,[],风景名胜,上海市,上海市,静安区
B0FFFDKWMD,南非海狮,风景名胜;公园广场;动物园,110102,虹桥路2381号上海动物园内(西侧),121.360380,31.193577,,3.8,[],风景名胜,上海市,上海市,长宁区
B0LBNHOFTX,主入口广场(暂停开放),风景名胜;公园广场;城市广场,110105,耀江路与德州路交叉口西40米,121.472395,31.164299,,4.0,[],风景名胜,上海市,上海市,浦东新区
B0JGXMZJTN,古北市民公园,风景名胜;公园广场;公园,110101,古羊路姚虹路西北角绿地,121.407169,31.194395,,3.8,[],风景名胜,上海市,上海市,长宁区
B0LGR46M38,前滩小黄浦江公园,风景名胜;公园广场;公园,110101,春眺路245号,121.476909,31.148126,,3.9,[],风景名胜,上海市,上海市,浦东新区
B0FFL6YOZ7,中华民族复兴主题公园,风景名胜;公园广场;公园,110101,局门路735号,121.485031,31.192445,,3.9,[],风景名胜,上海市,上海市,黄浦区
B0H2VUUU2S,静安区双拥公园,风景名胜;公园广场;公园,110101,国庆路与晋元路交叉口西南120米,121.469194,31.239910,,3.9,[],风景名胜,上海市,上海市,静安区
B0FFFGYUPR,上海植物园-四季花卉温室,风景名胜;公园广场;植物园,110103,龙吴路1111号(近百色路)上海植物园内(东侧),121.447733,31.147938,021-54363369,3.7,[],风景名胜,上海市,上海市,徐汇区
B0FFFZXF2J,外滩-陈毅塑像,风景名胜;风景名胜;风景名胜,110200,中山东一路外滩金融广场(临黄浦江),121.490405,31.239137,,4.5,[],风景名胜,上海市,上海市,黄浦区
B00155MNR7,荣德生旧居,风景名胜;风景名胜;纪念馆,110204,长乐路1242号,121.440306,31.214907,,4.2,[],风景名胜,上海市,上海市,静安区
B0FFG1OWEA,七宝教寺-大雄宝殿,风景名胜;风景名胜;寺庙道观,110205,七宝镇新镇路1205号七宝教寺天王殿内,121.357654,31.154669,021-54861957,3.8,[],风景名胜,上海市,上海市,闵行区
B0FFFGN5WZ,周作民旧居,风景名胜;风景名胜;纪念馆,110204,武康路117弄1-2号,121.440439,31.207818,,4.0,[],风景名胜,上海市,上海市,徐汇区
B0FFH99DEV,新泾礼拜堂,风景名胜;风景名胜;教堂,110206,哈密路西(北新泾地铁站1号口步行440米),121.377196,31.218071,021-52189950,4.2,[],风景名胜|独处品质空间,上海市,上海市,长宁区
B001550WL3,大田路天主堂,风景名胜;风景名胜;教堂,110206,大田路370号(自然博物馆地铁站2号口步行160米),121.462659,31.236651,,4.1,[],风景名胜|独处品质空间,上海市,上海市,静安区
B00155R0AQ,天主教上海教区怒江路圣母圣心堂,风景名胜;风景名胜;教堂,110206,怒江路638号,121.398361,31.236946,021-62229113,4.1,[],风景名胜|独处品质空间,上海市,上海市,普陀区
B00154CF4F,救恩堂,风景名胜;风景名胜;教堂,110206,上钢新村街道上钢新村街道上钢新村街道上钢新村街道耀华路439号,121.483043,31.173433,021-58452566,4.2,[],风景名胜|独处品质空间,上海市,上海市,浦东新区
B00153A24A,新恩堂,风景名胜;风景名胜;教堂,110206,乌鲁木齐北路25号(武定路地铁站2号口步行480米),121.440830,31.224723,021-62580451,4.2,[],风景名胜|独处品质空间,上海市,上海市,静安区
B0FFF41O4Q,孙科故宅,风景名胜;风景名胜;纪念馆,110204,延安西路1262号(近番禹路),121.426952,31.209850,,3.9,[],风景名胜,上海市,上海市,长宁区
B00156R4F0,上海徐家汇源,风景名胜;风景名胜;国家级景点,110202,漕溪北路90号(徐家汇地铁站出入口步行110米),121.436675,31.190694,,4.6,[],风景名胜,上海市,上海市,徐汇区
B00155LXEL,飞跃的马,风景名胜;风景名胜;风景名胜,110200,南京西路街道南京西路街道南京西路上海展览中心,121.452177,31.225990,,3.9,[],风景名胜,上海市,上海市,静安区
B00157GETR,惠中堂,风景名胜;风景名胜;教堂,110206,徐家汇路40-1号,121.480901,31.211334,021-63202456,4.0,[],风景名胜|独处品质空间,上海市,上海市,黄浦区
B00156O46T,温可铮旧居,风景名胜;风景名胜;纪念馆,110204,南汇路85弄10-16号(南京西路地铁站1号口步行400米),121.456285,31.230245,,4.1,[],风景名胜,上海市,上海市,静安区
B0FFI8D8QU,徐汇跑道公园,风景名胜;风景名胜;风景名胜,110200,云锦路与丰谷路交叉口南200米,121.457730,31.168592,,4.1,[],风景名胜,上海市,上海市,徐汇区
B0FFG7HY0E,万国建筑博览群,风景名胜;风景名胜;风景名胜,110200,滇池路63号,121.489271,31.237208,,4.8,[],风景名胜,上海市,上海市,黄浦区
B001572NGS,息焉堂,风景名胜;风景名胜;教堂,110206,可乐路17号(近哈密路),121.367066,31.205021,021-52199769,4.2,[],风景名胜|独处品质空间,上海市,上海市,长宁区
B00156GMMS,也是园,风景名胜;风景名胜;风景名胜,110200,老西门街道老西门街道河南南路681号,121.492466,31.217318,,4.5,[],风景名胜,上海市,上海市,黄浦区
B00156EP9N,上海千古情景区,风景名胜;风景名胜;风景名胜,110200,世博大道1750号,121.484157,31.186476,4008888518,4.7,[],风景名胜,上海市,上海市,浦东新区
B00155MF55,上海豫园,风景名胜;风景名胜;国家级景点,110202,福佑路168号,121.492497,31.227714,021-63260830;021-63282465,4.8,[],风景名胜,上海市,上海市,黄浦区
B00155L9JB,法租界警务处暨中央捕房旧址,风景名胜;风景名胜;风景名胜,110200,建国中路20-22号(打浦桥地铁站1号口步行360米),121.469480,31.209875,,4.1,[],风景名胜,上海市,上海市,黄浦区
B00155IMN5,豫园-九曲桥,风景名胜;风景名胜;风景名胜,110200,豫园街道城隍庙内豫园路115号绿波廊酒楼两楼,121.491811,31.226662,,4.6,[],风景名胜,上海市,上海市,黄浦区
B00155FXB3,外滩,风景名胜;风景名胜;风景名胜,110200,中山东二路1号,121.492127,31.233516,,4.9,[],风景名胜,上海市,上海市,黄浦区
B00155AMEJ,龙华寺,风景名胜;风景名胜;寺庙道观,110205,龙华路2853号(近龙华西路),121.451842,31.175174,021-64566085;021-64571440,4.8,[],风景名胜|独处品质空间,上海市,上海市,徐汇区
B00154SLJR,七宝教寺,风景名胜;风景名胜;寺庙道观,110205,新镇路1205号,121.357706,31.154427,021-54861957,4.4,[],风景名胜|独处品质空间,上海市,上海市,闵行区
B00154BDE9,静安寺,风景名胜;风景名胜;寺庙道观,110205,南京西路1686号(静安寺地铁站1号口步行60米),121.445320,31.223505,021-62566366,4.8,[],风景名胜|独处品质空间,上海市,上海市,静安区
B0FFGEQZXS,外滩-信号台,风景名胜;风景名胜;风景名胜,110200,外滩街道中山东二路1号甲外滩-信号台,121.492200,31.233187,,4.1,[],风景名胜,上海市,上海市,黄浦区
B00157HXSQ,钱学森旧居,风景名胜;风景名胜;纪念馆,110204,愚园路1032弄岐山村111号(江苏路地铁站),121.429215,31.220050,,4.2,[],风景名胜|科技体验,上海市,上海市,长宁区
B0FFFWUAZP,苏州河景观步廊,风景名胜;风景名胜;风景名胜,110200,上海市周家桥街道长宁路与芙蓉江路交口西南30米,121.393033,31.217840,,4.4,[],风景名胜,上海市,上海市,长宁区
B00155IMNG,福佑路清真寺,风景名胜;风景名胜;回教寺,110207,福佑路378号(近丽水路),121.488635,31.227828,021-63282135,4.2,[],风景名胜,上海市,上海市,黄浦区
B0FFG6PWBT,静安寺福慧楼,风景名胜;风景名胜;寺庙道观,110205,愚园路155号(静安寺地铁站出入口步行150米),121.445050,31.224050,021-62566366,4.1,[],风景名胜,上海市,上海市,静安区
B00155KM9A,怡和洋行旧址,商务住宅;楼宇;商务写字楼|风景名胜;风景名胜;风景名胜,120201|110200,外滩街道外滩街道外滩街道外滩街道中山东一路27号,121.489782,31.240397,,4.0,[],风景名胜,上海市,上海市,黄浦区
B0FFGLN4GL,上海文庙-管理处,风景名胜;风景名胜;风景名胜|政府机构及社会团体;社会团体;社会团体相关,110200|130400,梦花街156-158,121.487994,31.218131,021-63771815,3.2,[],风景名胜,上海市,上海市,黄浦区
B00156R4V8,集心路天主堂,风景名胜;风景名胜;教堂,110206,梅陇镇集心路9号,121.413300,31.108105,,3.8,[],风景名胜|独处品质空间,上海市,上海市,闵行区
B00156GJV0,郭绍虞旧居,风景名胜;风景名胜;纪念馆,110204,奉贤路148弄-1-8号(南京西路地铁站1号口步行160米),121.459620,31.231116,,4.1,[],风景名胜,上海市,上海市,静安区
B00153DBF4,黄道婆墓,风景名胜;风景名胜;纪念馆,110204,华泾镇东湾村徐梅路700号,121.448763,31.124546,021-64960218;15901679388,3.9,[],风景名胜,上海市,上海市,徐汇区
B00156R4ZL,大境关帝庙,风景名胜;风景名胜;寺庙道观,110205,大境路259-269(大世界地铁站5号口步行480米),121.483337,31.224588,021-63266171,3.8,[],风景名胜,上海市,上海市,黄浦区
B00155KK41,天主教上海教区金家圣母无原罪始胎堂,风景名胜;风景名胜;教堂,110206,遵义南路98号(近仙霞路),121.406149,31.204741,021-62090264,3.9,[],风景名胜|独处品质空间,上海市,上海市,长宁区
B00154G2X1,上海佛教居士林,风景名胜;风景名胜;寺庙道观,110205,常德路418号,121.447061,31.228105,021-62794445;021-62179900,4.1,[],风景名胜|独处品质空间,上海市,上海市,静安区
B001513753,基督教国际礼拜堂,风景名胜;风景名胜;教堂,110206,衡山路53号,121.448059,31.206195,021-64376576,4.3,[],风景名胜|独处品质空间,上海市,上海市,徐汇区
B00156R4JP,外滩源33,风景名胜;风景名胜;风景名胜,110200,中山东一路33号英国领事馆及领事官邸旧址内,121.488837,31.242365,,4.4,[],风景名胜,上海市,上海市,黄浦区
B0FFFCKMON,宁国禅寺,风景名胜;风景名胜;寺庙道观,110205,华泾路858号,121.449557,31.120315,021-64966369,4.6,[],风景名胜|独处品质空间,上海市,上海市,徐汇区
B00156YOAL,外滩-观景大道,风景名胜;风景名胜;风景名胜,110200,中山东一路(外滩)411号,121.490509,31.238062,,4.8,[],风景名胜,上海市,上海市,黄浦区
B00155R1B1,玉佛禅寺,风景名胜;风景名胜;寺庙道观,110205,安远路170号,121.445125,31.241445,021-62663668,4.8,[],风景名胜|独处品质空间,上海市,上海市,普陀区
B00155N0H5,法藏讲寺,风景名胜;风景名胜;寺庙道观,110205,吉安路271号(老西门地铁站4号口步行230米),121.481494,31.217887,021-63289986,4.3,[],风景名胜|独处品质空间,上海市,上海市,黄浦区
B00150EBD7,上海基督教沪西礼拜堂,风景名胜;风景名胜;教堂,110206,长宁路1465号,121.409592,31.216747,021-62597389;021-62736323,4.1,[],风景名胜|独处品质空间,上海市,上海市,长宁区
B0FFFDVICU,静安寺-钟楼,风景名胜;风景名胜;寺庙道观,110205,南京西路1686号静安寺(静安寺地铁站1号口步行70米),121.445785,31.223190,021-62534419,3.6,[],风景名胜,上海市,上海市,静安区
B0FFG1P8CL,圆形英雄雕像,风景名胜;风景名胜;风景名胜,110200,中山东一路(外滩风景区内),121.491627,31.242251,,3.6,[],风景名胜,上海市,上海市,黄浦区
B00157HUL7,聂耳铜像,风景名胜;风景名胜;风景名胜,110200,淮海中路1442号(常熟路地铁站7号口步行360米),121.447234,31.210246,,4.0,[],风景名胜,上海市,上海市,徐汇区
B00156NUA8,天主教上海教区曹家渡圣弥额尔总领天神堂,风景名胜;风景名胜;教堂,110206,华阳街道万航渡路1066号,121.426281,31.229265,021-62521055,4.1,[],风景名胜|独处品质空间,上海市,上海市,长宁区
B00155QL3G,七宝天主堂,风景名胜;风景名胜;教堂,110206,七宝南街50号,121.355662,31.150152,021-64799317,4.3,[],风景名胜|独处品质空间,上海市,上海市,闵行区
B00155QL38,安培洋行,风景名胜;风景名胜;风景名胜,110200,圆明园路97号,121.488085,31.241070,,3.9,[],风景名胜,上海市,上海市,黄浦区
B00155QGIU,南七宝寺,风景名胜;风景名胜;寺庙道观,110205,七宝镇步行街,121.357226,31.152873,,4.1,[],风景名胜|独处品质空间,上海市,上海市,闵行区
B00155LLO3,上海基督教沐恩堂,风景名胜;风景名胜;教堂,110206,西藏中路316号(人民广场地铁站14号口步行50米),121.475855,31.233273,021-63225069,4.3,[],风景名胜|独处品质空间,上海市,上海市,黄浦区
B00155IML1,小桃园清真寺,风景名胜;风景名胜;回教寺,110207,小桃园街24、52,121.489470,31.220765,021-63775442,4.3,[],风景名胜,上海市,上海市,黄浦区
B00155IL1T,外白渡桥,风景名胜;风景名胜;省级景点|地名地址信息;交通地名;桥,110203|190307,北苏州路111号,121.490060,31.242896,13818054032,4.8,[],风景名胜,上海市,上海市,黄浦区
B001556HRR,大韩民国临时政府旧址,风景名胜;风景名胜;纪念馆,110204,马当路306弄4号,121.474625,31.217351,021-53829057;021-53829554,4.8,[],风景名胜,上海市,上海市,黄浦区
B0015179D2,白云观,风景名胜;风景名胜;寺庙道观,110205,大境路239号,121.483763,31.224904,021-63286728;021-63287236,4.5,[],风景名胜,上海市,上海市,黄浦区
B001513D74,龙华塔,风景名胜;风景名胜;风景名胜,110200,上海市龙华街道龙华路2853号,121.451950,31.173657,021-64566085,4.2,[],风景名胜,上海市,上海市,徐汇区
B0FFJRSLPM,龙华寺-天王殿,风景名胜;风景名胜;寺庙道观,110205,龙华路2853号,121.451799,31.174578,021-64566085,3.6,[],风景名胜,上海市,上海市,徐汇区
B00155LX2Q,中国农工民主党第一次全国干部会议会址,风景名胜;风景名胜;纪念馆,110204,淡水路338-1号,121.473495,31.214512,,3.8,[],风景名胜,上海市,上海市,黄浦区
B001508216,邹容墓,风景名胜;风景名胜;风景名胜,110200,华泾镇华泾路与位育路交叉口东北,121.445491,31.118554,,3.8,[],风景名胜,上海市,上海市,徐汇区
B00156YM5L,长青坊,风景名胜;风景名胜;风景名胜,110200,长清路509号识别附近,121.491252,31.161334,4008123123,4.5,[],风景名胜,上海市,上海市,浦东新区
B0FFGE9JEH,大王庙,风景名胜;风景名胜;寺庙道观,110205,大田路500-6号(自然博物馆地铁站3号口步行180米),121.461502,31.238506,,4.0,[],风景名胜,上海市,上海市,静安区
B00155HVAS,《中国青年》编辑部旧址,风景名胜;风景名胜;红色景区,110210,淡水路66弄4号,121.471582,31.224037,,4.1,[],风景名胜,上海市,上海市,黄浦区
B00157HXM0,汉弥尔登大楼,风景名胜;风景名胜;风景名胜,110200,江西中路170-1号,121.487675,31.234826,,3.8,[],风景名胜,上海市,上海市,黄浦区
B00157HWPP,胡朴安旧居,风景名胜;风景名胜;纪念馆,110204,康定路947号,121.438957,31.230850,,3.9,[],风景名胜,上海市,上海市,静安区
B00156TL1A,韩非旧居,风景名胜;风景名胜;纪念馆,110204,巨鹿路741号(静安寺地铁站8号口步行450米),121.452258,31.220389,,4.0,[],风景名胜,上海市,上海市,静安区
B00156YOS9,天主教上海教区紫阳玫瑰圣母堂,风景名胜;风景名胜;教堂,110206,龙吴路2573号,121.455677,31.114547,,3.7,[],风景名胜|独处品质空间,上海市,上海市,徐汇区
B0FFG6PWC6,静安寺-山门,风景名胜;风景名胜;寺庙道观,110205,南京西路1686号静安寺内(静安寺地铁站1号口旁),121.445565,31.223043,021-62566366,4.0,[],风景名胜|独处品质空间,上海市,上海市,静安区
B00157HYSM,复兴公园-马恩雕像,风景名胜;风景名胜;风景名胜,110200,复兴中路516号复兴公园内(北侧),121.469328,31.218038,021-53860187,4.0,[],风景名胜,上海市,上海市,黄浦区
B0FFG7MLPP,三一堂,风景名胜;风景名胜;教堂,110206,浦星公路290号,121.494177,31.126763,021-58491004,4.1,[],风景名胜|独处品质空间,上海市,上海市,浦东新区
B00155L12A,上海市基督教怀恩堂,风景名胜;风景名胜;教堂,110206,陕西北路375号,121.453235,31.229195,021-62539394,4.2,[],风景名胜|独处品质空间,上海市,上海市,静安区
B00154815D,天主教上海教区主教府(不对外开放),风景名胜;风景名胜;教堂,110206,蒲西路120号,121.436967,31.191547,021-64412211,4.1,[],风景名胜|独处品质空间,上海市,上海市,徐汇区
B0FFF00NAC,中国通商银行旧址,风景名胜;风景名胜;风景名胜,110200,中山东一路6号外滩6号,121.490538,31.234735,,3.5,[],风景名胜,上海市,上海市,黄浦区
B0FFG9TGMJ,七宝耶稣堂,风景名胜;风景名胜;教堂,110206,七莘路1664号(七莘路地铁站1号口步行330米),121.363930,31.134459,,4.1,[],风景名胜|独处品质空间,上海市,上海市,闵行区
B001572ICS,周作民旧居,风景名胜;风景名胜;纪念馆,110204,江苏路街道江苏路街道愚园路1015号,121.430035,31.218664,,3.8,[],风景名胜,上海市,上海市,长宁区
B0FFK19697,1920年毛泽东寓所旧址,风景名胜;风景名胜;红色景区,110210,安义路63号(近常德路)(静安寺地铁站6号口步行200米),121.449797,31.223426,,4.3,[],风景名胜,上海市,上海市,静安区
B00155GM1T,外滩观光隧道,风景名胜;风景名胜;国家级景点,110202,中山东一路349-351号,121.490422,31.239833,021-58886000;021-58772831,4.2,[],风景名胜,上海市,上海市,黄浦区
B00155LAIU,田汉,风景名胜;风景名胜;风景名胜,110200,富民路与长乐路交叉口西南40米,121.452057,31.217123,,3.9,[],风景名胜,上海市,上海市,徐汇区
B00155KURV,史量才旧居(不对外开放),风景名胜;风景名胜;纪念馆,110204,铜仁路257号(静安寺地铁站6号口步行490米),121.449543,31.226560,,4.2,[],风景名胜,上海市,上海市,静安区
B0G2X7MBUW,上海解放时南京路上第一面红旗升起处,风景名胜;风景名胜;红色景区,110210,黄浦区南京东路635号永安百货,121.478408,31.235451,,3.9,[],风景名胜,上海市,上海市,黄浦区
B0FFFWQCOD,中共中央上海局机关旧址,风景名胜;风景名胜;红色景区,110210,江苏路与愚园路交叉口东100米,121.432022,31.219012,021-52809067,4.1,[],风景名胜,上海市,上海市,长宁区
B00155HKPH,虹桥路2310号住宅,风景名胜;风景名胜;风景名胜,110200,程家桥街道程家桥街道程家桥,121.371336,31.190042,,4.0,[],风景名胜,上海市,上海市,长宁区
B00156GX8D,唐绍仪旧居,风景名胜;风景名胜;纪念馆,110204,湖南路街道武康路40弄1-4号,121.440203,31.212491,,4.2,[],风景名胜,上海市,上海市,徐汇区
B00156EJJ8,法华学问寺,风景名胜;风景名胜;寺庙道观,110205,华夏西路399号,121.468220,31.146340,,4.1,[],风景名胜|独处品质空间,上海市,上海市,浦东新区
B00152D7EC,大境阁,风景名胜;风景名胜;寺庙道观,110205,大境路259-269(大世界地铁站5号口步行390米),121.483338,31.224569,021-63266153;021-63266171,4.1,[],风景名胜,上海市,上海市,黄浦区
B001529F5F,沪西清真寺,风景名胜;风景名胜;回教寺,110207,常德路1328弄3号(近长寿路),121.434643,31.242703,021-62772076;021-62775966,4.2,[],风景名胜,上海市,上海市,普陀区
B00155M14M,黄兴旧居,风景名胜;风景名胜;纪念馆,110204,武康路393号(近淮海中路),121.438947,31.205683,021-64335000,4.2,[],风景名胜,上海市,上海市,徐汇区
B0FFH10ANT,沈钧儒旧居,风景名胜;风景名胜;纪念馆,110204,江苏路街道江苏路街道愚园路1292弄51、53号,121.424675,31.219818,,3.6,[],风景名胜,上海市,上海市,长宁区
B0FFGPRB77,外滩源33-联合教堂,风景名胜;风景名胜;教堂,110206,南苏州路107号,121.488380,31.243251,,4.2,[],风景名胜|独处品质空间,上海市,上海市,黄浦区
B00155KLPR,宋家老宅,风景名胜;风景名胜;风景名胜,110200,南京西路街道南京西路街道陕西北路369号,121.453524,31.229100,,4.1,[],风景名胜,上海市,上海市,静安区
B0FFGTHQ8E,将军桥(哈密路),风景名胜;风景名胜;风景名胜,110200,哈密路1717附近,121.366632,31.196322,,4.4,[],风景名胜,上海市,上海市,长宁区
B0G3HR7QWR,聂耳旧居,风景名胜;风景名胜;红色景区,110210,淮海中路1258号(常熟路地铁站3号口步行110米),121.452189,31.214034,,3.9,[],风景名胜,上海市,上海市,徐汇区
B0FFJ3S0FG,龙华寺-三圣宝殿,风景名胜;风景名胜;寺庙道观,110205,龙华路2853号(近龙华西路)龙华寺内(西侧),121.451342,31.175305,021-64566085,3.5,[],风景名胜,上海市,上海市,徐汇区
B00156NXGB,章士钊旧居(不对外开放),风景名胜;风景名胜;纪念馆,110204,延安中路720弄7号(南京西路地铁站12号口步行390米),121.460246,31.224299,,4.1,[],风景名胜,上海市,上海市,静安区
B00155LW5K,颜福庆旧居,风景名胜;风景名胜;纪念馆,110204,武康路40弄4号,121.440216,31.212485,,3.8,[],风景名胜,上海市,上海市,徐汇区
B0HK3HM0YN,指月禅茶(玉佛禅寺店),风景名胜;风景名胜;寺庙道观|餐饮服务;茶艺馆;茶艺馆,110205|050600,江宁路安远路十字路口指月阁(江宁路地铁站3号口步行420米),121.445705,31.241424,021-22831900;021-62663668;15026624313,4.2,109.00,风景名胜,上海市,上海市,普陀区
B0G2X7L04R,上海公共体育场旧址,风景名胜;风景名胜;红色景区,110210,方斜路515号(陆家浜路地铁站4号口步行300米),121.482888,31.212826,,4.3,[],风景名胜,上海市,上海市,黄浦区
B0G0RUD7H4,天主教君王堂,风景名胜;风景名胜;教堂,110206,巨鹿路361号,121.460071,31.222778,021-62174608,4.3,[],风景名胜|独处品质空间,上海市,上海市,黄浦区
B0FFF3XXKR,中共中央政治局机关旧址(1928-1931年),风景名胜;风景名胜;红色景区,110210,云南中路171-173号,121.477622,31.231818,,4.4,[],风景名胜,上海市,上海市,黄浦区
B00157HXJW,华俄道胜银行旧址,风景名胜;风景名胜;风景名胜,110200,滇池路63号万国建筑博览群(东北角),121.489896,31.237664,,3.7,[],风景名胜,上海市,上海市,黄浦区
B0FFILFHFV,圣尼古拉斯教堂,风景名胜;风景名胜;教堂,110206,皋兰路16号居民区,121.466200,31.217062,,4.1,[],风景名胜,上海市,上海市,黄浦区
B00155LALJ,新乐路东正教堂,风景名胜;风景名胜;教堂,110206,新乐路55号,121.455412,31.217449,,4.2,[],风景名胜|独处品质空间,上海市,上海市,徐汇区
B0FFF00N9H,业广地产有限公司,风景名胜;风景名胜;风景名胜,110200,滇池路63号万国建筑博览群(西北角),121.487446,31.239618,,2.8,[],风景名胜,上海市,上海市,黄浦区
B0LGF5RQ41,延富花园,风景名胜;风景名胜;风景名胜,110200,延安中路辅路与富民路交叉口西南20米,121.449533,31.221414,,4.0,[],风景名胜,上海市,上海市,静安区
B0KKFCQCGY,原三井物产株式会社上海支店,风景名胜;风景名胜;风景名胜,110200,四川中路181-185号,121.488783,31.235346,,4.2,[],风景名胜,上海市,上海市,黄浦区
B0K3BDWDU8,玉佛禅寺印经小院,风景名胜;风景名胜;风景名胜,110200,江宁路1017号玉佛禅寺内(江宁路地铁站4号口步行300米),121.444994,31.242131,,4.3,[],风景名胜,上海市,上海市,普陀区
B0K26CQ9O1,海宝雕像,风景名胜;风景名胜;风景名胜,110200,国展路499号,121.478977,31.181429,,4.1,[],风景名胜,上海市,上海市,浦东新区
B0FFILEG21,圆明讲堂千佛殿,风景名胜;风景名胜;风景名胜,110200,延安西路396-1号附近,121.437814,31.218151,021-62483968,3.8,[],风景名胜,上海市,上海市,静安区
B00155QHQX,史良旧居,风景名胜;风景名胜;纪念馆,110204,复兴中路553弄1号,121.466784,31.214772,,3.4,[],风景名胜,上海市,上海市,黄浦区
B00155L9RD,黄宾虹旧居,风景名胜;风景名胜;纪念馆,110204,淮海中路街道淮海中路街道自忠路420号,121.472425,31.217954,,3.8,[],风景名胜,上海市,上海市,黄浦区
B00154DRUO,上海市基督教诸圣堂,风景名胜;风景名胜;教堂,110206,淮海中路街道复兴中路425号(近淡水路),121.473625,31.215542,021-63850906,4.2,[],风景名胜|独处品质空间,上海市,上海市,黄浦区
B0FFFDH4F0,大雄宝殿,风景名胜;风景名胜;寺庙道观,110205,南京西路1686号静安寺内(静安寺地铁站1号口步行130米),121.445289,31.223523,021-62566366,3.4,[],风景名胜,上海市,上海市,静安区
B00155CZD2,斗姆阁,风景名胜;风景名胜;风景名胜,110200,七莘路2678号上海交通大学七宝校区内,121.357259,31.149613,,3.4,[],风景名胜,上海市,上海市,闵行区
B0FFIBL74J,大雄宝殿,风景名胜;风景名胜;寺庙道观,110205,三林镇西林街131弄29号西昌寺(东北角),121.494649,31.133856,,3.6,[],风景名胜,上海市,上海市,浦东新区
B0FFFR9A5P,观鱼亭,风景名胜;风景名胜;风景名胜,110200,虹桥镇吴中路陶然居,121.376987,31.172547,,3.2,[],风景名胜,上海市,上海市,闵行区
B0FFFP5EYG,优秀历史建筑,风景名胜;风景名胜;风景名胜,110200,江西中路368号(南京东路地铁站6号口步行190米),121.485930,31.239843,,3.5,[],风景名胜,上海市,上海市,黄浦区
B00156F4ID,林巧稚旧居,风景名胜;风景名胜;纪念馆,110204,天平路街道天平路街道天平路街道天平路街道衡山路9弄4号,121.449157,31.207778,,3.8,[],风景名胜,上海市,上海市,徐汇区
B0FFFWPZ96,上海特别市政府旧址,风景名胜;风景名胜;纪念馆,110204,平江路48号(近小木桥路),121.455606,31.200419,,4.0,[],风景名胜,上海市,上海市,徐汇区
B0L3TS7YZS,森虫秘境,风景名胜;风景名胜;风景名胜,110200,华泾路与龙吴路辅路交叉口西180米,121.454209,31.122777,,3.9,[],风景名胜,上海市,上海市,徐汇区
B0KUFC7BAU,优秀历史建筑乌鲁木齐南路176号,风景名胜;风景名胜;风景名胜,110200,衡山路地铁站1号口步行380米,121.449089,31.203534,,4.0,[],风景名胜,上海市,上海市,徐汇区
B0KRZ7G35Y,原国民党淞沪警备司令部旧址,风景名胜;风景名胜;纪念馆,110204,天钥桥路1501号龙华烈士陵园,121.452114,31.177708,,4.1,[],风景名胜,上海市,上海市,徐汇区
B0KKKOXON4,南步岛(上海文创集合店),风景名胜;风景名胜;风景名胜,110200,南京东路61号(南京东路地铁站7号口步行390米),121.488127,31.238675,13248287273,4.0,[],风景名胜,上海市,上海市,黄浦区
B0K64UL02Y,永清路怀旧堂,风景名胜;风景名胜;教堂,110206,复兴西路24号,121.446911,31.210600,13162888328,3.8,[],风景名胜,上海市,上海市,徐汇区
B0J1LCU6WZ,乌鲁木齐南路157号住宅,风景名胜;风景名胜;风景名胜,110200,乌鲁木齐南路157号(靠建国西路),121.449688,31.202525,,4.1,[],风景名胜,上海市,上海市,徐汇区
B0J0VHT75U,新华路315号住宅,风景名胜;风景名胜;风景名胜,110200,新华路街道,121.426863,31.202695,,4.1,[],风景名胜,上海市,上海市,长宁区
B0FFFZKUZA,老永安公司,风景名胜;风景名胜;风景名胜,110200,九江路600号(人民广场地铁站19号口步行470米),121.478269,31.234991,,3.8,[],风景名胜,上海市,上海市,黄浦区
B0FFFDQ7RX,路易·艾黎旧居,风景名胜;风景名胜;纪念馆,110204,愚园路1315弄1-10号,121.423979,31.218461,18017304077,4.1,[],风景名胜,上海市,上海市,长宁区
B0FFFA6PDS,英国驻沪总领事馆旧址,风景名胜;风景名胜;纪念馆,110204,南苏州路与大名路交叉口西约120米,121.488756,31.242351,,4.1,[],风景名胜,上海市,上海市,黄浦区
B0FFF3AP20,中南大楼,风景名胜;风景名胜;风景名胜,110200,汉口路110号(南京东路地铁站2号口步行490米),121.487951,31.236676,,3.9,[],风景名胜,上海市,上海市,黄浦区
B0FFF00NP4,美国花旗总会,风景名胜;风景名胜;风景名胜,110200,外滩街道福州路209号(南京东路地铁站3号口步行460米),121.486400,31.234660,,4.2,[],风景名胜,上海市,上海市,黄浦区
B0FFF00HSO,花园住宅,风景名胜;风景名胜;风景名胜,110200,虹桥路1518号(红宝石路地铁站5号口步行270米),121.397275,31.200467,,4.1,[],风景名胜,上海市,上海市,长宁区
B001570F76,俭德坊,风景名胜;风景名胜;风景名胜,110200,愚园路1293弄2-48号,121.424551,31.218461,,4.0,[],风景名胜,上海市,上海市,长宁区
B00156YL70,老君殿,风景名胜;风景名胜;风景名胜,110200,福佑路168号上海豫园内(南侧),121.492520,31.227127,021-63260830,3.9,[],风景名胜,上海市,上海市,黄浦区
B00156GWJ9,郑洞国旧居,风景名胜;风景名胜;纪念馆,110204,武康路270-274号(上海图书馆地铁站3号口步行470米),121.439830,31.208039,,4.0,[],风景名胜,上海市,上海市,徐汇区
B00156EC49,英商自来水公司大楼,风景名胜;风景名胜;风景名胜,110200,江西中路484号,121.484961,31.242546,,4.2,[],风景名胜,上海市,上海市,黄浦区
B00155LA2H,杜重远寓所,风景名胜;风景名胜;纪念馆,110204,淮海中路1897号(交通大学地铁站1号口步行170米),121.436371,31.202400,,4.1,[],风景名胜,上海市,上海市,徐汇区
B00155QG0L,林风眠旧居,风景名胜;风景名胜;纪念馆,110204,南昌路53号(淮海中路地铁站1号口步行390米),121.467716,31.218538,,3.9,[],风景名胜,上海市,上海市,黄浦区
B0FFF342AM,上海古城墙和大境道观,风景名胜;风景名胜;寺庙道观,110205,小北门大境路269号(大世界地铁站5号口步行470米),121.483336,31.224411,021-63266171,4.1,[],风景名胜,上海市,上海市,黄浦区
B0FFF9YIXO,赛华公寓旧址,风景名胜;风景名胜;风景名胜,110200,常熟路209号(常熟路地铁站8号口步行60米),121.449259,31.213764,,3.6,[],风景名胜,上海市,上海市,徐汇区
B00155KKVR,圣三一堂,风景名胜;风景名胜;教堂,110206,河南中路220号(南京东路地铁站3号口步行420米),121.486311,31.236481,,4.5,[],风景名胜|独处品质空间,上海市,上海市,黄浦区
B0FFFTRF5O,顾毓琇旧居,风景名胜;风景名胜;纪念馆,110204,永嘉路623号(衡山路地铁站1号口步行190米),121.448220,31.204132,,3.7,[],风景名胜,上海市,上海市,徐汇区
B00155LB4A,俄国诗人亚历山大·谢尔盖维奇普希金纪念碑,风景名胜;风景名胜;纪念馆,110204,桃江路1-2附近,121.451769,31.208779,,4.1,[],风景名胜,上海市,上海市,徐汇区
B00156O1YV,何东旧居,风景名胜;风景名胜;纪念馆,110204,陕西北路457号,121.452461,31.230394,,4.5,[],风景名胜,上海市,上海市,静安区
B00156E2UE,三泾庙,风景名胜;风景名胜;寺庙道观,110205,凯旋路513号(中山公园地铁站3号口步行340米),121.416781,31.214477,021-62412538,4.2,[],风景名胜|独处品质空间,上海市,上海市,长宁区
B0FFG6PWBZ,静安寺-牟尼殿,风景名胜;风景名胜;寺庙道观,110205,南京西路1686号静安寺内(静安寺地铁站1号口步行130米),121.445191,31.223142,021-62566366,2.8,[],风景名胜,上海市,上海市,静安区
B0FFG1OQ54,七宝教寺-飞来佛殿,风景名胜;风景名胜;寺庙道观,110205,七宝镇新镇路1205号七宝教寺天王殿内,121.357668,31.154513,021-54861957,2.9,[],风景名胜,上海市,上海市,闵行区
B00156NXNZ,刘湛恩旧居,风景名胜;风景名胜;纪念馆,110204,南京西路1129弄81号,121.456620,31.227338,,3.1,[],风景名胜,上海市,上海市,静安区
B00156NY0T,黄葆戉旧居,风景名胜;风景名胜;纪念馆,110204,新闸路1316弄-412号,121.451351,31.232093,,3.1,[],风景名胜,上海市,上海市,静安区
B00155ISKE,启明女校旧址,风景名胜;风景名胜;风景名胜,110200,天钥桥路100号,121.44122,31.192364,,3.4,[],风景名胜,上海市,上海市,徐汇区
B0FFFS33ID,狼馆,风景名胜;风景名胜;海滩,110208,虹桥路2381号上海动物园,121.361375,31.194668,,3.7,[],风景名胜,上海市,上海市,长宁区
B0FFG1XN19,七宝教寺-地藏殿,风景名胜;风景名胜;寺庙道观,110205,七宝镇新镇路1205号七宝教寺天王殿内,121.357677,31.154451,021-54861957,2.6,[],风景名胜,上海市,上海市,闵行区
B0FFHFMQLE,张学良故居(不对外开放),风景名胜;风景名胜;纪念馆,110204,瑞金二路街道皋兰路1号(近复兴公园),121.467476,31.217246,,4.1,[],风景名胜,上海市,上海市,黄浦区
B0FFHDJSTC,乌镇路桥,风景名胜;风景名胜;风景名胜,110200,乌镇路(新闸路地铁站1号口步行90米),121.467391,31.239747,,4.0,[],风景名胜,上海市,上海市,黄浦区
B0FFF00NAD,原三菱洋行上海分店,风景名胜;风景名胜;风景名胜,110200,滇池路63号万国建筑博览群内(南侧),121.489432,31.234017,,3.4,[],风景名胜,上海市,上海市,黄浦区
B00156O2AN,胡风旧居,风景名胜;风景名胜;纪念馆,110204,永康路141弄-6号,121.456614,31.209990,,3.4,[],风景名胜,上海市,上海市,徐汇区
B00155QFDQ,何香凝旧居,风景名胜;风景名胜;纪念馆,110204,复兴中路553弄8号,121.466905,31.214434,,3.8,[],风景名胜,上海市,上海市,黄浦区
B0LBL7P1G8,法租界宝庆路巡铺房警察公寓旧址,风景名胜;风景名胜;纪念馆,110204,淮海中路与常熟路交叉口东北60米(常熟路地铁站4号口旁),121.449991,31.212757,,3.9,[],风景名胜,上海市,上海市,徐汇区
B0L3VAGW2Q,禅境园,风景名胜;风景名胜;风景名胜,110200,世博大道与龙滨路交叉口北140米,121.470784,31.174669,,3.8,[],风景名胜,上海市,上海市,浦东新区
B0L35ZE261,和益社,风景名胜;风景名胜;寺庙道观|购物服务;购物相关场所;购物相关场所,110205|060000,龙耀路175号LUMINA星扬西岸中心F1层,121.462139,31.161804,,3.7,[],风景名胜,上海市,上海市,徐汇区
B0L2JS5KDP,小砼仓,风景名胜;风景名胜;风景名胜,110200,龙腾大道与龙台路交叉口东南120米,121.465014,31.158178,,4.3,[],风景名胜,上海市,上海市,徐汇区
B0KUBRTB3M,中共中央政治局联络点遗址,风景名胜;风景名胜;风景名胜,110200,南京西路与石门一路交叉口东南20米,121.462227,31.230896,,3.9,[],风景名胜,上海市,上海市,静安区
B0KKTPSIIP,皋兰路28号,风景名胜;风景名胜;风景名胜,110200,皋兰路与瑞金二路交叉口东北20米,121.464691,31.216627,,3.9,[],风景名胜,上海市,上海市,黄浦区
B0K2H5JNWJ,玻璃宅,风景名胜;风景名胜;风景名胜,110200,西岸美术馆左侧50米处,121.463904,31.168905,18201790531,4.1,[],风景名胜,上海市,上海市,徐汇区
B0JRS5I4M7,建国西路388号花园住宅,风景名胜;风景名胜;风景名胜,110200,建国西路与太原路交叉口西100米,121.454611,31.204231,15921259990,4.0,[],风景名胜,上海市,上海市,徐汇区
B0IGMD4V5Q,观渡庐,风景名胜;风景名胜;风景名胜,110200,北京西路1094弄,121.453840,31.230361,,3.9,[],风景名胜,上海市,上海市,静安区
B0I095MZA9,唐宅,风景名胜;风景名胜;风景名胜,110200,南昌路63号(淮海中路地铁站1号口步行270米),121.466226,31.217981,,3.9,[],风景名胜,上海市,上海市,黄浦区
B0FFLK479M,永兴大楼,风景名胜;风景名胜;风景名胜,110200,虎丘路95号,121.487156,31.242462,,3.8,[],风景名胜,上海市,上海市,黄浦区
B0FFKXKRSZ,太岁殿,风景名胜;风景名胜;寺庙道观,110205,豫园街道豫园街道方浜中路249号上海城隍庙内(西北角),121.492370,31.226099,021-63284494,3.8,[],风景名胜,上海市,上海市,黄浦区
B0FFG0R2T9,富文寿旧居,风景名胜;风景名胜;纪念馆,110204,胶州路149弄,121.443750,31.226564,,4.0,[],风景名胜,上海市,上海市,静安区
B0FFFEPU7R,湖心亭怀旧店,购物服务;专卖店;专营店|风景名胜;风景名胜;风景名胜,061200|110200,南京西路231号(近黄陂北路)人民公园内(西南角),121.471672,31.231128,021-63271333,4.1,135.00,风景名胜,上海市,上海市,黄浦区
B00156TGOK,赵丹旧居,风景名胜;风景名胜;纪念馆,110204,湖南路8号(上海图书馆地铁站3号口步行220米),121.442291,31.208404,,3.9,[],风景名胜,上海市,上海市,徐汇区
B00156R50J,刘靖基旧居,风景名胜;风景名胜;纪念馆,110204,武康路99号,121.441467,31.211102,,4.0,[],风景名胜,上海市,上海市,徐汇区
B00156R4X6,豫园-流觞亭,风景名胜;风景名胜;风景名胜,110200,福佑路168号上海豫园内(南侧),121.492466,31.226889,,3.8,[],风景名胜,上海市,上海市,黄浦区
B0KRUMW5DW,和平饭店南楼,风景名胜;风景名胜;风景名胜,110200,南京东路与中山东一路交叉口西南80米,121.489317,31.238605,,4.8,[],风景名胜,上海市,上海市,黄浦区
B0G2X7L04S,中国共产党第一次全国代表大会代表宿舍旧址,风景名胜;风景名胜;红色景区|风景名胜;风景名胜;风景名胜,110210|110200,太仓路127号(一大会址·黄陂南路地铁站2号口步行370米),121.475811,31.221655,,4.4,[],风景名胜,上海市,上海市,黄浦区
B00157HWRX,周诚浒旧居,风景名胜;风景名胜;纪念馆,110204,胶州路410弄3号(昌平路地铁站3号口步行380米),121.442316,31.231034,,3.3,[],风景名胜,上海市,上海市,静安区
B00155LXNU,中国民主促进会旧址,风景名胜;风景名胜;纪念馆,110204,陕西南路237号,121.461933,31.208934,021-64370835,3.9,[],风景名胜,上海市,上海市,黄浦区
B0FFH0WC5N,袁左良旧居,风景名胜;风景名胜;纪念馆,110204,思南路41号,121.467704,31.215675,,3.8,[],风景名胜,上海市,上海市,黄浦区
B0G3HR85D8,1924年毛泽东寓所旧址,风景名胜;风景名胜;红色景区,110210,威海路583弄(原公共租界慕尔鸣路甲秀里),121.460404,31.226689,,4.0,[],风景名胜,上海市,上海市,静安区
B00154296F,天主教上海教区重庆南路圣伯多禄堂,风景名胜;风景名胜;教堂,110206,重庆南路270号,121.469951,31.213436,021-64678080,4.0,[],风景名胜|独处品质空间,上海市,上海市,黄浦区
B0G3HS5IFQ,中共中央与中央军委联络点旧址,风景名胜;风景名胜;红色景区,110210,浙江中路112号(原浙江路清和坊),121.480212,31.231842,,3.6,[],风景名胜,上海市,上海市,黄浦区
B0G1F7NKLT,杨度旧居,风景名胜;风景名胜;红色景区|风景名胜;风景名胜;纪念馆,110210|110204,建国中路与瑞金二路交叉口东120米,121.468002,31.208582,,3.8,[],风景名胜,上海市,上海市,黄浦区
B0FFK77FP9,新四军驻上海办事处(不对外开放),风景名胜;风景名胜;红色景区|风景名胜;风景名胜相关;旅游景点,110210|110000,嘉善路140弄15号,121.458917,31.210203,,3.5,[],风景名胜,上海市,上海市,徐汇区
B0FFFDP3IB,伽蓝殿,风景名胜;风景名胜;寺庙道观,110205,七宝镇新镇路1205号七宝教寺天王殿内,121.357451,31.154520,021-54861957,2.7,[],风景名胜,上海市,上海市,闵行区
B0FFIK81YG,张充仁旧居,风景名胜;风景名胜;纪念馆,110204,合肥路与重庆南路交叉口东120米,121.471780,31.214114,,3.3,[],风景名胜,上海市,上海市,黄浦区
B0FFHDM48A,沪南钱业公所,风景名胜;风景名胜;风景名胜,110200,人民路333号古城公园内(福佑路与安仁街交叉口),121.492802,31.228480,,3.5,[],风景名胜,上海市,上海市,黄浦区
B00155L9P7,刘海粟旧居,风景名胜;风景名胜;纪念馆,110204,淮海中路街道淮海中路街道复兴中路512号,121.471541,31.215671,,3.7,[],风景名胜,上海市,上海市,黄浦区
B00155LZG3,西摩会堂,风景名胜;风景名胜;教堂,110206,陕西北路500号,121.452765,31.231729,,4.0,[],风景名胜|独处品质空间,上海市,上海市,静安区
B00157HXJK,上海基督教青年会,风景名胜;风景名胜;风景名胜,110200,四川中路595-607号,121.486208,31.241954,,3.8,[],风景名胜|独处品质空间,上海市,上海市,黄浦区
B0015725R3,顾炳鑫旧居,风景名胜;风景名胜;纪念馆,110204,静安寺街道静安寺街道寺街道愚园路520弄27号,121.438291,31.222437,,3.2,[],风景名胜,上海市,上海市,静安区
B00155QHUV,万国博览建筑群-万国禁烟会会址,风景名胜;风景名胜;风景名胜,110200,滇池路63号万国建筑博览群内(北侧),121.489399,31.238727,,3.7,[],风景名胜,上海市,上海市,黄浦区
B0LUORKHYI,海关大钟,风景名胜;风景名胜;风景名胜,110200,外滩海关大楼,121.490053,31.236630,,3.9,[],风景名胜,上海市,上海市,黄浦区
B0LU1ZBN43,东吴石府,风景名胜;风景名胜;风景名胜|餐饮服务;餐饮相关场所;餐饮相关,110200|050000,复兴中路1331号1栋102,121.452563,31.210755,16621746480,4.3,107.00,风景名胜,上海市,上海市,徐汇区
B0LKMA4HPY,LV巨轮,风景名胜;风景名胜;风景名胜,110200,石门一路与吴江路交叉口南40米(南京西路地铁站5号口旁),121.462166,31.229952,021-52758888,4.7,[],风景名胜,上海市,上海市,静安区
B0LGGMVYT0,星光草坪,风景名胜;风景名胜;风景名胜,110200,通耀路与经四路交叉口西北380米,121.475124,31.177074,,4.3,[],风景名胜,上海市,上海市,浦东新区
B0LBUH49JU,半马苏河二期沙地,风景名胜;风景名胜;风景名胜,110200,光复西路与千阳南路交叉口西南80米,121.365851,31.226641,,4.1,[],风景名胜,上海市,上海市,普陀区
B0FFFDVUIX,正觉堂,风景名胜;风景名胜;省级景点,110203,南京西路1686号静安寺内(静安寺地铁站1号口步行120米),121.445258,31.223298,021-62566366,3.4,[],风景名胜|独处品质空间,上海市,上海市,静安区
B0FFKK8QLO,夏衍旧居,风景名胜;风景名胜;纪念馆,110204,乌鲁木齐南路178号2号楼(衡山路地铁站1号口步行390米),121.449173,31.203289,19946177295,4.3,[],风景名胜,上海市,上海市,徐汇区
B0KUBRQQEW,李石曾旧居,风景名胜;风景名胜;纪念馆,110204,思南路与复兴中路交叉口东南140米,121.468133,31.213994,,3.7,[],风景名胜,上海市,上海市,黄浦区
B0HB347IW8,陈伯吹旧居,风景名胜;风景名胜;纪念馆,110204,瑞金二路26号,121.464037,31.217902,,3.7,[],风景名胜,上海市,上海市,黄浦区
B0FFKY4JMD,潘序伦旧居,风景名胜;风景名胜;纪念馆,110204,建国西路与岳阳路交叉口东北60米,121.453414,31.203781,,3.6,[],风景名胜,上海市,上海市,徐汇区
B0FFKSIEPX,潘汉年旧居,风景名胜;风景名胜;纪念馆,110204,淮海中路1350弄5号(常熟路地铁站7号口步行90米),121.449083,31.212153,,3.7,[],风景名胜,上海市,上海市,徐汇区
B0FFF0AK9C,伊丽莎白公寓旧址,风景名胜;风景名胜;纪念馆,110204,天平路街道天平路街道天平路街道复兴中路1327号,121.452845,31.211158,,3.9,[],风景名胜,上海市,上海市,徐汇区
B0FFF00N9Z,上海银行公会,风景名胜;风景名胜;纪念馆,110204,香港路59号,121.486810,31.242554,,3.8,[],风景名胜,上海市,上海市,黄浦区
B00157F9MS,贺绿汀旧居,风景名胜;风景名胜;纪念馆,110204,新华路街道新华路街道泰安路76弄亦村4号,121.435719,31.206408,,3.9,[],风景名胜,上海市,上海市,长宁区
B00156R50A,虞哲光旧居,风景名胜;风景名胜;纪念馆,110204,胶州路125弄1-15号(静安寺地铁站2号口步行470米),121.443975,31.226122,,3.8,[],风景名胜,上海市,上海市,静安区
B00156O17Z,海关图书馆旧址,风景名胜;风景名胜;纪念馆,110204,新闸路1708号,121.444880,31.228814,,3.6,[],风景名胜,上海市,上海市,静安区
B0L1DCURW3,辅德里,风景名胜;风景名胜;纪念馆,110204,老成都北路7弄之20-44号,121.466674,31.224236,,3.9,[],风景名胜,上海市,上海市,静安区
B0KUBLVKW4,张静江旧居,风景名胜;风景名胜;纪念馆,110204,思南路与复兴中路交叉口南120米,121.468021,31.214187,,3.8,[],风景名胜,上海市,上海市,黄浦区
B00157HYPT,吴旭丹旧居,风景名胜;风景名胜;纪念馆,110204,南京西路1173弄3号(南京西路地铁站1号口步行490米),121.456041,31.227275,,3.4,[],风景名胜,上海市,上海市,静安区
B00156NVH1,邓秋枚旧居,风景名胜;风景名胜;纪念馆,110204,威海路590弄61支弄2-8号,121.460161,31.227922,,2.8,[],风景名胜,上海市,上海市,静安区
B0FFFGN473,宋庆龄旧居,风景名胜;风景名胜;纪念馆,110204,淮海西路338中国人民解放军第四五五医院,121.427343,31.199950,,4.0,[],风景名胜,上海市,上海市,长宁区
B00156O42L,许崇智住宅,风景名胜;风景名胜;纪念馆,110204,陕西北路380号,121.453556,31.229464,,4.0,[],风景名胜,上海市,上海市,静安区
B00156NW43,吴眉孙旧居,风景名胜;风景名胜;纪念馆,110204,威海路590弄61支弄2-8号,121.460161,31.227922,,3.4,[],风景名胜,上海市,上海市,静安区
B0KUBRTY00,国立暨南大学旧址,风景名胜;风景名胜;纪念馆,110204,康定路与西康路交叉口西80米,121.446713,31.233725,,3.6,[],风景名胜,上海市,上海市,静安区
B0FFFWPYQR,许广平旧居,风景名胜;风景名胜;纪念馆,110204,淮海中路927弄64号(陕西南路地铁站4号口步行240米),121.460948,31.216149,,3.5,[],风景名胜,上海市,上海市,黄浦区
B00156NXFV,郑小秋旧居,风景名胜;风景名胜;纪念馆,110204,南京西路1025弄182号,121.458971,31.227080,,3.6,[],风景名胜,上海市,上海市,静安区
B0FFF432L6,大夏大学旧址,风景名胜;风景名胜;纪念馆,110204,中山北路3663号华东师范大学中山北路校区内,121.408665,31.228778,,3.2,[],风景名胜,上海市,上海市,普陀区
B00155927O,曹天钦·谢希德旧居,风景名胜;风景名胜;纪念馆,110204,建国西路581弄1-6号134室,121.450744,31.202716,,3.6,[],风景名胜,上海市,上海市,徐汇区
B0015725OS,马相伯旧居,风景名胜;风景名胜;纪念馆,110204,蒲汇塘路上海市徐汇中学,121.434689,31.186829,,3.5,[],风景名胜,上海市,上海市,徐汇区
B0FFIYV37F,谭抒真旧居,风景名胜;风景名胜;纪念馆,110204,南汇路与奉贤路交叉口东南40米,121.457316,31.229571,,3.5,[],风景名胜,上海市,上海市,静安区
B00155L9J9,法租界会审公廨旧址,风景名胜;风景名胜;纪念馆,110204,建国中路20-22号(打浦桥地铁站1号口步行390米),121.469162,31.209888,,4.4,[],风景名胜,上海市,上海市,黄浦区
B0FFL0Y0NP,罗伯昭旧居,风景名胜;风景名胜;纪念馆,110204,安福路常熟小区(常熟路地铁站8号口步行210米),121.447953,31.215079,,3.9,[],风景名胜,上海市,上海市,徐汇区
B0FFHRBVQR,冯玉祥柳亚子旧居,风景名胜;风景名胜;纪念馆,110204,复兴中路与思南路交叉口东140米,121.469131,31.215247,,3.5,[],风景名胜,上海市,上海市,黄浦区
B0FFHNL69Y,陈果夫旧居,风景名胜;风景名胜;纪念馆,110204,湖南路20弄2号(上海图书馆地铁站3号口步行420米),121.441158,31.209774,,3.9,[],风景名胜,上海市,上海市,徐汇区
B0FFKZWX8P,施蛰存旧居,风景名胜;风景名胜;纪念馆,110204,愚园路岐山村(江苏路地铁站6号口步行160米),121.429962,31.218980,,3.5,[],风景名胜,上海市,上海市,长宁区
B0FFK1STFS,荣漱仁旧居,风景名胜;风景名胜;纪念馆,110204,新华路231号,121.427660,31.202629,,3.6,[],风景名胜,上海市,上海市,长宁区
B0HRGB7SJH,孔祥熙旧居(不对外开放),风景名胜;风景名胜;纪念馆,110204,永嘉路374-1号附近,121.450498,31.208287,,3.8,[],风景名胜,上海市,上海市,徐汇区
B0FFK76HJ6,张澜旧居,风景名胜;风景名胜;纪念馆,110204,永嘉路与襄阳南路交叉口东40米,121.458407,31.208963,,3.3,[],风景名胜,上海市,上海市,徐汇区
B0FFHR89P2,华三川旧居,风景名胜;风景名胜;纪念馆,110204,愚园路608弄81号(江苏路地铁站2号口步行420米),121.437365,31.221521,,3.4,[],风景名胜,上海市,上海市,静安区
B00156NU56,徐悲鸿旧居,风景名胜;风景名胜;纪念馆,110204,淮海中路927弄99号(陕西南路地铁站4号口步行260米),121.460756,31.216070,,3.8,[],风景名胜,上海市,上海市,黄浦区
B0HAS1BDDR,艾青旧居,风景名胜;风景名胜;纪念馆,110204,淡水路214弄-4号-后门,121.472807,31.217719,,3.6,[],风景名胜,上海市,上海市,黄浦区
B00156O2T7,中华学艺社旧居,风景名胜;风景名胜;纪念馆,110204,绍兴路7-1号,121.464760,31.209603,,3.5,[],风景名胜,上海市,上海市,黄浦区
B0FFIGFDPF,申石伽旧居,风景名胜;风景名胜;纪念馆,110204,愚园路中实新村(江苏路地铁站3号口步行470米),121.438009,31.221385,,2.6,[],风景名胜,上海市,上海市,静安区
B0KUBRU5YA,道斐南公寓旧址,风景名胜;风景名胜;纪念馆,110204,建国西路388号花园住宅(西南角),121.454564,31.204135,,3.3,[],风景名胜,上海市,上海市,徐汇区
B00156NXFR,盛丕华旧居,风景名胜;风景名胜;纪念馆,110204,威海路602弄88号(南京西路地铁站12号口步行120米),121.458970,31.227079,,2.7,[],风景名胜,上海市,上海市,静安区
B0FFF9UDB7,同济德文医工学校医预科讲堂旧址,风景名胜;风景名胜;纪念馆,110204,复兴中路1195号,121.460625,31.211435,,3.4,[],风景名胜,上海市,上海市,徐汇区
B0KUBRU5WQ,安南学校旧址,风景名胜;风景名胜;纪念馆,110204,衍庆路与卓越路交叉口东北40米,121.469699,31.211068,,3.3,[],风景名胜,上海市,上海市,黄浦区
B0KUBRRT3A,钱瘦铁旧居,风景名胜;风景名胜;纪念馆,110204,复兴中路与思南路交叉口东60米,121.468306,31.215117,,3.0,[],风景名胜,上海市,上海市,黄浦区
B0KUBLU633,薛笃弼旧居,风景名胜;风景名胜;纪念馆,110204,复兴中路与重庆南路交叉口西南160米,121.469261,31.214818,,2.9,[],风景名胜,上海市,上海市,黄浦区
B0G33SW8H1,言慧珠旧居,风景名胜;风景名胜;纪念馆,110204,华山路1006号-1-30号,121.437256,31.211594,,3.2,[],风景名胜,上海市,上海市,长宁区
B0FFG398I2,卢师谛旧居,风景名胜;风景名胜;纪念馆,110204,瑞金二路302号(打浦桥地铁站4号口步行210米),121.466475,31.207420,,3.2,[],风景名胜,上海市,上海市,黄浦区
B0FFFGN5WR,李及兰旧居,风景名胜;风景名胜;纪念馆,110204,武康路117弄1-2号(上海图书馆地铁站3号口步行460米),121.440355,31.207762,,3.6,[],风景名胜,上海市,上海市,徐汇区
B00156R4MU,冒广生旧居,风景名胜;风景名胜;纪念馆,110204,南京西路街道南京西路街道延安中路877弄22号,121.453749,31.223171,,3.2,[],风景名胜,上海市,上海市,静安区
B00155KR0L,上海正章洗染有限公司,风景名胜;风景名胜;纪念馆|生活服务;洗衣店;洗衣店,110204|071500,北京西路1868号1层(近愚园路),121.441965,31.223679,021-62520119,4.4,129.00,风景名胜,上海市,上海市,静安区
B00156YL0Z,南洋公学中院,风景名胜;风景名胜;纪念馆,110204,华山路1954号上海交通大学徐汇校区,121.43513,31.199757,,[],[],风景名胜,上海市,上海市,徐汇区
B0KUBRVD43,王宠惠旧居,风景名胜;风景名胜;纪念馆,110204,思南路与复兴中路交叉口南140米,121.467714,31.214067,,3.6,[],风景名胜,上海市,上海市,黄浦区
B0FFF2IAX4,沙文汉陈修良夫妇旧居,风景名胜;风景名胜;纪念馆,110204,巨鹿路820弄1-82号(静安寺地铁站8号口步行420米),121.449698,31.219247,,3.3,[],风景名胜,上海市,上海市,静安区
B00156EJAH,中华人民共和国名誉主席宋庆龄陵园,风景名胜;风景名胜;纪念馆|生活服务;丧葬设施;陵园,110204|071901,宋园路21号(宋园路地铁站2号口步行270米),121.411370,31.195338,021-62754034;021-62758080,3.5,[],风景名胜,上海市,上海市,长宁区
B0FFL78VVI,俞振飞旧居,风景名胜;风景名胜;纪念馆,110204,华山路与复兴西路交叉口西20米,121.437256,31.211594,,3.2,[],风景名胜,上海市,上海市,长宁区
B0KUBRMWWU,覃振旧居,风景名胜;风景名胜;纪念馆,110204,重庆南路与合肥路交叉口西北140米,121.469363,31.214534,,3.0,[],风景名胜,上海市,上海市,黄浦区
B0KUBLRDTT,朱绍良旧居,风景名胜;风景名胜;纪念馆,110204,思南路与复兴中路交叉口南100米,121.467907,31.214378,,3.1,[],风景名胜,上海市,上海市,黄浦区
B0FFF2LU76,爱国主义教育苑,风景名胜;风景名胜;纪念馆,110204,百米香榭(人民广场地铁站15号口步行380米),121.478936,31.233037,,3.2,[],风景名胜,上海市,上海市,黄浦区
B0FFHTTZS1,源吉兆庵(久光店),风景名胜;风景名胜;纪念馆,110204,南京西路1618号久光百货B1楼近华山路,121.446215,31.223586,,3.3,[],风景名胜|独处品质空间,上海市,上海市,静安区
B0JD7XHFG7,中共上海区委党校旧址,风景名胜;风景名胜;纪念馆,110204,复兴中路301号(一大会址·新天地地铁站2号口步行100米),121.476782,31.216669,,[],[],风景名胜,上海市,上海市,黄浦区
B0K074DCRX,鼎华宫KTV,体育休闲服务;娱乐场所;KTV|风景名胜;风景名胜;寺庙道观,080302|110205,金沙江路1999号,121.371857,31.234748,18107154205,4.5,517.00,风景名胜,上海市,上海市,普陀区
B0I06UQS4P,天后宫,风景名胜;风景名胜;寺庙道观,110205,三泰路36号,121.479285,31.241879,,4.3,[],风景名胜,上海市,上海市,静安区
B0FFKXKRT0,城隍殿,风景名胜;风景名胜;寺庙道观,110205,方浜中路249号上海城隍庙内(北侧),121.492341,31.226286,021-63284494,4.3,[],风景名胜,上海市,上海市,黄浦区
B00156D7LB,圆明讲堂,风景名胜;风景名胜;寺庙道观,110205,静安寺街道静安寺街道静安寺街道延安西路434号,121.437823,31.217931,021-62483968,4.2,[],风景名胜,上海市,上海市,静安区
B0FFGRDJ07,观音堂,风景名胜;风景名胜;寺庙道观,110205,浦江镇罗汉松403号,121.481528,31.126318,,4.0,[],风景名胜|独处品质空间,上海市,上海市,浦东新区
B0K1BUWEVW,道母觀(聚福风水馆),风景名胜;风景名胜;寺庙道观,110205,上中路558号,121.442730,31.139856,17317511179,3.5,[],风景名胜|独处品质空间,上海市,上海市,徐汇区
B0FFKXKRTD,三官殿,风景名胜;风景名胜;寺庙道观,110205,豫园街道方浜中路249号上海城隍庙内(西南角),121.492406,31.225769,021-63284494,3.7,[],风景名胜,上海市,上海市,黄浦区
B0FFKXKRSY,文昌殿,风景名胜;风景名胜;寺庙道观,110205,方浜中路249号上海城隍庙内(北侧),121.492468,31.226244,021-63284494,3.5,[],风景名胜,上海市,上海市,黄浦区
B0FFK2T37V,沉香阁-佛教寺院,风景名胜;风景名胜;寺庙道观,110205,沉香阁路与旧校场路交叉口西60米,121.490121,31.227253,021-63203431,4.0,[],风景名胜|独处品质空间,上海市,上海市,黄浦区
B0FFG20LT7,七宝教寺-显通宝殿,风景名胜;风景名胜;寺庙道观,110205,富强街66号-2,121.357489,31.154255,021-54861957,3.1,[],风景名胜,上海市,上海市,闵行区
B0FFG1JEGF,七宝教寺-观音殿,风景名胜;风景名胜;寺庙道观,110205,七宝镇新镇路1205号七宝教寺天王殿内,121.357971,31.154686,021-54861957,3.6,[],风景名胜|独处品质空间,上海市,上海市,闵行区
B0FFFDVDPL,静安寺-观音殿,风景名胜;风景名胜;寺庙道观,110205,南京西路1686号静安寺内(静安寺地铁站1号口步行100米),121.445537,31.223350,021-62566366,3.9,[],风景名胜|独处品质空间,上海市,上海市,静安区
B00151A7A4,沈香阁(福源商厦城隍庙店),购物服务;专卖店;珠宝首饰工艺品|风景名胜;风景名胜;寺庙道观,061202|110205,沉香阁路29号(豫园地铁站7号口步行380米),121.490021,31.227389,021-63203431;021-63555508;18701902062,3.8,[],风景名胜|独处品质空间,上海市,上海市,黄浦区
B0FFIGYGJ9,滕博殿,风景名胜;风景名胜;寺庙道观,110205,南京西路街道南京西路街道南京西路街道南京西路街道安义路,121.450068,31.223311,,3.1,[],风景名胜,上海市,上海市,静安区
B0FFJRTEL5,龙华寺-罗汉堂,风景名胜;风景名胜;寺庙道观,110205,龙华路2583号,121.451409,31.174765,021-64566085,3.9,[],风景名胜,上海市,上海市,徐汇区
B0FFGR7C6V,西昌寺,风景名胜;风景名胜;寺庙道观,110205,三林镇西林街131弄29号,121.494567,31.133725,,3.9,[],风景名胜|独处品质空间,上海市,上海市,浦东新区
B0FFFSJ9C0,法华禅寺,风景名胜;风景名胜;寺庙道观,110205,哈密路1333号,121.365288,31.204150,021-62519822,4.2,[],风景名胜|独处品质空间,上海市,上海市,长宁区
B0KUFC7YAX,伽蓝殿,风景名胜;风景名胜;寺庙道观,110205,安远路170号玉佛禅寺(江宁路地铁站4号口步行430米),121.445504,31.241419,,3.3,[],风景名胜,上海市,上海市,普陀区
B00156R51K,可以观,风景名胜;风景名胜;寺庙道观,110205,方浜中路与三牌楼路交汇处豫园内,121.492852,31.226280,021-63260830,3.7,[],风景名胜,上海市,上海市,黄浦区
B0FFKXKRT1,财神殿,风景名胜;风景名胜;寺庙道观,110205,安仁街与方浜中路交叉口西北80米,121.492595,31.225943,,3.9,[],风景名胜,上海市,上海市,黄浦区
B0H1O7TUBM,大雄宝殿,风景名胜;风景名胜;寺庙道观,110205,龙华路2853号龙华寺(龙华地铁站3号口步行470米),121.451526,31.174975,021-64566085,3.7,[],风景名胜,上海市,上海市,徐汇区
B0FFJYQAG0,金皇城庙(城隍庙第一购物中心),风景名胜;风景名胜;寺庙道观,110205,丽水路88号F3层(豫园地铁站7号口步行270米),121.490005,31.228362,,3.9,[],风景名胜|独处品质空间,上海市,上海市,黄浦区
B0H1O7TUBT,弥勒殿,风景名胜;风景名胜;寺庙道观,110205,龙华路2853号龙华寺(南侧),121.451812,31.174352,021-64566085,3.3,[],风景名胜,上海市,上海市,徐汇区
B0FFG6PWC2,静安寺-客堂,风景名胜;风景名胜;寺庙道观,110205,南京西路1686号静安寺内(静安寺地铁站1号口步行120米),121.445260,31.223046,021-62566366,3.7,[],风景名胜|独处品质空间,上海市,上海市,静安区
B0KUBRO5ZW,三圣殿,风景名胜;风景名胜;寺庙道观,110205,安远路170号玉佛禅寺(西南角),121.444901,31.241093,,3.4,[],风景名胜,上海市,上海市,普陀区
B0HBKKNUOJ,桂林公园-观音阁,风景名胜;风景名胜;寺庙道观,110205,九曲长廊桂林公园(桂林公园地铁站5号口步行260米),121.417926,31.165666,021-64830915,3.6,[],风景名胜,上海市,上海市,徐汇区
B0GKKSXBLF,七宝教寺-天王殿,风景名胜;风景名胜;寺庙道观,110205,富强街与富强东街交叉口西北140米,121.357633,31.154412,021-54861957,3.0,[],风景名胜,上海市,上海市,闵行区
B0FFKXKRT2,娘娘殿,风景名胜;风景名胜;寺庙道观,110205,豫园街道豫园街道豫园街道方浜中路249号上海城隍庙内(北侧),121.492305,31.226326,021-63284494,3.3,[],风景名胜,上海市,上海市,黄浦区
B0FFKXKRCQ,月老殿,风景名胜;风景名胜;寺庙道观,110205,豫园街道高科西路2119号三元宫坤道院,121.492610,31.225820,021-63284494,3.8,[],风景名胜,上海市,上海市,黄浦区
B0KUFC98SM,大悲殿,风景名胜;风景名胜;寺庙道观,110205,安远路170号玉佛禅寺(江宁路地铁站4号口步行420米),121.445448,31.241462,,3.0,[],风景名胜,上海市,上海市,普陀区
B0FFKXKRCP,慈航殿,风景名胜;风景名胜;寺庙道观,110205,源深路476号太清宫,121.492363,31.225907,021-63284494,3.1,[],风景名胜,上海市,上海市,黄浦区
B0FFG6PWBY,静安寺-西厢房,风景名胜;风景名胜;寺庙道观,110205,南京西路1686号静安寺内(静安寺地铁站1号口步行60米),121.445030,31.223367,021-62566366,3.1,[],风景名胜|独处品质空间,上海市,上海市,静安区
B0FFFDKGME,静安寺-鼓楼,风景名胜;风景名胜;寺庙道观,110205,南京西路1686号静安寺内(静安寺地铁站1号口旁),121.445221,31.223091,021-62566366,3.1,[],风景名胜|独处品质空间,上海市,上海市,静安区
B0FFKXKRT3,关圣殿,风景名胜;风景名胜;寺庙道观,110205,豫园街道豫园街道豫园街道方浜中路249号上海城隍庙内(西北角),121.492317,31.226203,021-63284494,3.6,[],风景名胜,上海市,上海市,黄浦区
B0LKAH9A5B,申祇天下,风景名胜;风景名胜;寺庙道观,110205,虹井路120号2号1135,121.372136,31.174458,,3.1,[],风景名胜,上海市,上海市,闵行区
B0HKKDJDRM,弥勒殿,风景名胜;风景名胜;寺庙道观,110205,静安寺二楼(静安寺地铁站1号口旁),121.445643,31.223027,021-62566366,2.7,[],风景名胜,上海市,上海市,静安区
B0FFL34V1Y,静安寺-药师殿,风景名胜;风景名胜;寺庙道观,110205,南京西路1686号静安寺内(静安寺地铁站1号口步行170米),121.444998,31.223844,021-62566366,2.9,[],风景名胜,上海市,上海市,静安区
B0M69S9ZSC,麻神理宫,风景名胜;风景名胜;寺庙道观,110205,句容路与安远路交叉口东20米,121.449475,31.242475,,3.4,[],风景名胜,上海市,上海市,静安区
B0FFG6PWBW,静安寺-知思阁,风景名胜;风景名胜;寺庙道观,110205,南京西路1686号(静安寺地铁站1号口步行90米),121.444923,31.223555,021-62566366,3.1,[],风景名胜,上海市,上海市,静安区
B0LAGCUHC8,沉香阁,风景名胜;风景名胜;寺庙道观,110205,豫园街道沉香阁路29号(豫园地铁站7号口步行330米),121.490155,31.227448,021-63203431,4.2,[],风景名胜|独处品质空间,上海市,上海市,黄浦区
B0K0H5OW9G,大有神殿,风景名胜;风景名胜;寺庙道观,110205,胶州路273弄48号前门,121.442446,31.228397,,1.3,[],风景名胜,上海市,上海市,静安区
B0FFL7ZNK8,静安寺-般若,风景名胜;风景名胜;寺庙道观,110205,南京西路静安寺(静安寺地铁站1号口步行70米),121.445701,31.223114,021-62566366,3.4,[],风景名胜|独处品质空间,上海市,上海市,静安区
B0FFH83QU1,玉佛禅寺-解脱,风景名胜;风景名胜;寺庙道观,110205,安远路170号玉佛禅寺(江宁路地铁站4号口步行490米),121.445234,31.241137,021-62663668,4.0,[],风景名胜|独处品质空间,上海市,上海市,普陀区
B00155FBCF,玉佛禅寺-真觉之门,风景名胜;风景名胜;寺庙道观,110205,安远路170号玉佛禅寺(江宁路地铁站3号口步行370米),121.445217,31.241963,021-62663668,4.2,[],风景名胜|独处品质空间,上海市,上海市,普陀区
B0FFKXKRT5,父母殿,风景名胜;风景名胜;寺庙道观,110205,豫园街道豫园街道豫园街道豫园街道方浜中路249号上海城隍庙内(北侧),121.492452,31.226330,021-63284494,3.3,[],风景名胜,上海市,上海市,黄浦区
B0FFG6PWBV,静安寺-报思阁,风景名胜;风景名胜;寺庙道观,110205,南京西路1686号(静安寺地铁站2号口步行140米),121.445427,31.223807,021-62566366,3.0,[],风景名胜,上海市,上海市,静安区
B0L0RO7MKZ,田林祠,风景名胜;风景名胜;寺庙道观,110205,田林路与苍梧路交叉口西北180米,121.411822,31.170631,,3.1,[],风景名胜,上海市,上海市,徐汇区
B0L247PBS7,来福好寺(新世界城店),风景名胜;风景名胜;寺庙道观,110205,凤阳路与长沙路交叉口东60米,121.473547,31.235168,,3.3,[],风景名胜|独处品质空间,上海市,上海市,黄浦区
B0KUFCUTG4,朝隐寺库,风景名胜;风景名胜;寺庙道观,110205,肇嘉浜路与高安路交叉口西60米,121.447033,31.198908,,3.4,[],风景名胜|独处品质空间,上海市,上海市,徐汇区
B00151847F,上海文庙(暂停开放),风景名胜;风景名胜;寺庙道观,110205,文庙路215号(近学前街)(老西门地铁站7号口步行480米),121.487880,31.218107,021-63771815,4.3,[],风景名胜,上海市,上海市,黄浦区
B0LG0L2PBO,西市庙会(暂停开放),风景名胜;风景名胜;寺庙道观,110205,贵州路与南京路步行街交叉口西南20米,121.476476,31.235010,,3.6,[],风景名胜|独处品质空间,上海市,上海市,黄浦区
B0G2X1PCDY,龙华烈士纪念馆-取票处,生活服务;售票处;售票处,070300,天钥桥路1155号龙华烈士纪念馆,121.449028,31.176371,021-64683059,[],[],风景名胜,上海市,上海市,徐汇区
B0IDHMCYWY,上海南市难民区纪念碑,风景名胜;风景名胜;风景名胜,110200,方浜中路249号上海城隍庙内(东南角),121.492614,31.225580,021-63284494,3.8,[],风景名胜,上海市,上海市,黄浦区
B00155QPRT,女青年会大楼,风景名胜;风景名胜;风景名胜,110200,圆明园路133号,121.488019,31.241731,,4.2,[],风景名胜,上海市,上海市,黄浦区
B0FFG00R3Q,申报馆旧址,风景名胜;风景名胜相关;旅游景点,110000,外滩街道外滩街道汉口路309号,121.484102,31.235450,,4.0,[],风景名胜,上海市,上海市,黄浦区
B0FFJJ7RSS,滇池路历史老建筑,风景名胜;风景名胜相关;旅游景点,110000,滇池路63号万国建筑博览群(西北角),121.487451,31.239615,,3.7,[],风景名胜,上海市,上海市,黄浦区
B0FFHB7UAD,优秀历史建筑龙腾大道2555号,风景名胜;风景名胜相关;旅游景点,110000,龙腾大道2555-18号附近,121.461873,31.167354,,3.6,[],风景名胜,上海市,上海市,徐汇区
B0FFHR8QS0,圣约翰大学历史建筑群(交谊楼-解放上海第一宿营地),风景名胜;风景名胜;红色景区,110210,万航渡路与华阳路交叉口西220米,121.418666,31.223932,,3.6,[],风景名胜,上海市,上海市,长宁区
B0FFHOF34P,莫觞清旧居,风景名胜;风景名胜相关;旅游景点,110000,武康路2号,121.439427,31.213025,,4.0,[],风景名胜,上海市,上海市,徐汇区
B0FFF2FULP,李佳白旧居,风景名胜;风景名胜相关;旅游景点,110000,新华路街道新华路街道新华路211弄2号,121.427954,31.201579,,4.1,[],风景名胜,上海市,上海市,长宁区
B00155LA4T,陶行知旧居,风景名胜;风景名胜相关;旅游景点,110000,余庆路146弄1-15号,121.439579,31.200495,,3.8,[],风景名胜,上海市,上海市,徐汇区
B00156O2JZ,聂耳旧居(常德路),风景名胜;风景名胜;红色景区,110210,常德路633弄65号(昌平路地铁站2号口步行250米),121.444294,31.231241,,3.7,[],风景名胜,上海市,上海市,静安区
B00156F53V,唐蕴玉旧居,风景名胜;风景名胜相关;旅游景点,110000,永嘉路598-600号(衡山路地铁站1号口步行340米),121.449416,31.205037,,4.0,[],风景名胜,上海市,上海市,徐汇区
B0FFL344CE,金氏宅,风景名胜;风景名胜相关;旅游景点,110000,建国西路382号正阳牛肉面隔壁,121.455174,31.204328,,3.8,[],风景名胜,上海市,上海市,徐汇区
B0LGU1KTYS,荣发老宅,商务住宅;住宅区;住宅区,120300,常熟路与巨鹿路交叉口西100米,121.446221,31.217481,,3.5,[],风景名胜,上海市,上海市,静安区
B00156NUK7,康有为海上归隐处,风景名胜;风景名胜相关;旅游景点,110000,石门二路街道泰兴路445弄2-48号,121.456454,31.234006,,3.7,[],风景名胜,上海市,上海市,静安区
B00155IP9X,艾格尼丝史沫特莱旧居,风景名胜;风景名胜相关;旅游景点,110000,重庆南路185号(一大会址·新天地地铁站5号口步行330米),121.471082,31.215450,,3.6,[],风景名胜,上海市,上海市,黄浦区
B0FFF9SWOV,西班牙公使旧居,风景名胜;风景名胜相关;旅游景点,110000,新华路329弄36号,121.426370,31.202080,,3.4,[],风景名胜,上海市,上海市,长宁区
B0FFFYFNEM,画家楼,商务住宅;楼宇;商务写字楼,120201,泰康路210弄田子坊(打浦桥地铁站1号口步行160米),121.469264,31.208614,,3.5,[],风景名胜,上海市,上海市,黄浦区
B0FFFTT8M8,原犹太酒商H·L·门肯旧居,风景名胜;风景名胜相关;旅游景点,110000,瑞金二路266号,121.466490,31.207897,,3.4,[],风景名胜,上海市,上海市,黄浦区
B0FFLHC2RE,香樟,风景名胜;风景名胜相关;旅游景点,110000,淮海中路1843号宋庆龄故居内,121.438845,31.203717,021-64376268,3.4,[],风景名胜,上海市,上海市,徐汇区
B00156R4Y2,茹志鹃旧居,风景名胜;风景名胜;风景名胜,110200,静安寺街道愚园路361弄65号,121.442143,31.222370,,2.3,[],风景名胜,上海市,上海市,静安区
B0FFI7RYZ7,巴金旧居,风景名胜;风景名胜;纪念馆,110204,淮海中路九二七弄59号(陕西南路地铁站4号口步行270米),121.460666,31.216058,,3.3,[],风景名胜,上海市,上海市,黄浦区
B0K61ZQFC7,上海市黄浦区文物保护管理所,政府机构及社会团体;政府机关;政府机关相关,130100,广西北路158号11层(人民广场地铁站15号口步行330米),121.478649,31.231931,,[],[],风景名胜,上海市,上海市,黄浦区
B0FFL7YKX7,徐汇区文物保护点,政府机构及社会团体;政府机关;政府机关相关,130100,淮海中路信联公寓(上海图书馆地铁站3号口步行260米),121.442101,31.207131,,[],[],风景名胜,上海市,上海市,徐汇区
B0FFK8FGW1,南张天主堂,风景名胜;风景名胜;教堂,110206,秀文路与惠水路交叉口东200米,121.372796,31.126206,,3.6,[],风景名胜|独处品质空间,上海市,上海市,闵行区
