id,name,type,typecode,address,lng,lat,tel,rating,cost,group,pname,cityname,adname
B001550YMG,得和茶馆(建国西路店),餐饮服务;茶艺馆;茶艺馆|餐饮服务;中餐厅;中餐厅,050600|050100,建国西路135号卢湾区体育中心综合楼2层,121.463841,31.207042,021-54681117,4.4,151.00,社交餐饮|独处品质空间,上海市,上海市,黄浦区
B0LDODWLE9,裕莲茶楼(上海中环广场店),餐饮服务;休闲餐饮场所;休闲餐饮场所,050400,淮海中路381号中环广场二层L2-3&5室(星巴克旁边),121.472925,31.222263,13761382015,4.5,36.00,社交餐饮|独处品质空间,上海市,上海市,黄浦区
B0LDH7H9CN,裕莲茶楼(上海徐家汇中心店),餐饮服务;休闲餐饮场所;休闲餐饮场所,050400,虹桥路183号上海徐家汇中心商场四层406室,121.434935,31.193578,18021043974,4.3,27.00,社交餐饮|独处品质空间,上海市,上海市,徐汇区
B0LBRD59JI,礼厚茶肆(前滩太古里店),餐饮服务;休闲餐饮场所;休闲餐饮场所,050400,东育路500弄1-9号b1层S-B1-33a号,121.482702,31.152242,15021611867,4.4,22.00,社交餐饮|独处品质空间,上海市,上海市,浦东新区
B0L6NHPK2F,裕莲茶楼(世博天地店),餐饮服务;休闲餐饮场所;休闲餐饮场所,050400,上钢新村街道世博大道1467号世博天地L128,121.488247,31.185089,17701637606,4.5,25.00,社交餐饮|独处品质空间,上海市,上海市,浦东新区
B0FFJ8Z091,luckin coffee 瑞幸咖啡(长江新能源店),餐饮服务;休闲餐饮场所;休闲餐饮场所,050400,九江路675-685号长江新能源大厦1层,121.477585,31.234182,4000100100,4.6,17.00,社交餐饮|独处品质空间,上海市,上海市,黄浦区
B0LRDD765A,裕莲茶楼(上海One ITC店),餐饮服务;休闲餐饮场所;休闲餐饮场所,050400,徐家汇街道One ITCLG1层,121.437902,31.197203,18019387972,4.3,29.00,社交餐饮|独处品质空间,上海市,上海市,徐汇区
B0KRTSS941,裕莲茶楼(上海博荟店),餐饮服务;休闲餐饮场所;休闲餐饮场所,050400,中山南一路788号博荟广场购物中心L1层L1-21-A+B单元,121.480098,31.197050,13127760227,4.3,28.00,社交餐饮|独处品质空间,上海市,上海市,黄浦区
B0JKAMKUF1,瑞幸咖啡(绿地海外滩店),餐饮服务;咖啡厅;咖啡厅,050500,龙华东路810号黄浦绿地缤纷城一层2-106号,121.473543,31.193627,4000100100,4.1,19.00,社交餐饮|独处品质空间,上海市,上海市,黄浦区
B00155LQS8,三月咖啡馆,餐饮服务;咖啡厅;咖啡厅,050500,万航渡路1384弄12号湖丝栈创意园区1号楼2层(近华阳路),121.421882,31.225508,021-60900331,4.5,68.00,社交餐饮|独处品质空间,上海市,上海市,长宁区
B0LUF51YXH,CUBIC 3 三立方咖啡(永康路店),餐饮服务;咖啡厅;咖啡厅,050500,永康路58号,121.458307,31.211038,13321978417,4.7,41.00,社交餐饮|独处品质空间,上海市,上海市,徐汇区
B0LRZL2IUN,Peet's Coffee皮爷咖啡(上海龙华会店),餐饮服务;咖啡厅;咖啡厅,050500,龙华路2758号1层C2-L1S05B室,121.453197,31.172749,18321219155,4.5,32.00,社交餐饮|独处品质空间,上海市,上海市,徐汇区
B0LGGHXADW,KOMEDA's coffee口美达咖啡(伊犁南路店),餐饮服务;咖啡厅;咖啡厅,050500,伊犁南路566号(伊犁路地铁站1号口步行350米),121.405871,31.197076,15921062513,4.6,54.00,社交餐饮|独处品质空间,上海市,上海市,长宁区
B0LGBM1Q2Y,瑞幸咖啡(漕宝路日月光店),餐饮服务;咖啡厅;咖啡厅,050500,漕宝路33号日月光购物中心B座一层26-27室,121.431716,31.168928,4000100100,4.3,17.00,社交餐饮|独处品质空间,上海市,上海市,徐汇区
B0LB9YP72A,% Arabica阿拉比卡咖啡(新天地时尚I店),餐饮服务;咖啡厅;咖啡厅,050500,兴业路123弄6-7号上海新天地时尚购物中心F1,121.474943,31.218898,17301703211,4.4,47.00,社交餐饮|独处品质空间,上海市,上海市,黄浦区
B0KUNC6529,Peet's Coffee 皮爷咖啡(徐汇万科广场店),餐饮服务;咖啡厅;咖啡厅,050500,9233号2幢1层T3-L1-01a室(地铁上海南站8号口),121.431773,31.158242,18221019011,4.4,33.00,社交餐饮|独处品质空间,上海市,上海市,徐汇区
B0KR7MJD0K,瑞幸咖啡(光启城家乐福店),餐饮服务;咖啡厅;咖啡厅,050500,宜山路455号大华光启城负一层120-121号,121.427616,31.183211,4000100100,4.2,11.00,社交餐饮|独处品质空间,上海市,上海市,徐汇区
B0KGSXJBAM,瑞幸咖啡(新世界大丸百货店),餐饮服务;咖啡厅;咖啡厅,050500,南京东路228号新世界新丸中心负一层B-32号,121.485160,31.237892,4000100100,4.5,16.00,社交餐饮|独处品质空间,上海市,上海市,黄浦区
B0FFI1X0YK,初未茶舍,餐饮服务;冷饮店;冷饮店,050700,上海大剧院C1号门南90米,121.471060,31.228891,021-63130305;021-63305063,4.4,134.00,社交餐饮|独处品质空间,上海市,上海市,黄浦区
B0I6ZM4GXZ,面包咖啡好天气(愚园路店),餐饮服务;糕饼店;糕饼店,050800,愚园路769号(江苏路地铁站3号口步行90米),121.434295,31.220229,13671848982;15000519084,4.6,89.00,社交餐饮|独处品质空间,上海市,上海市,长宁区
B0L6F1HH9C,栗汀予梦(静安大悦城南座店),购物服务;综合市场;果品市场,060704,西藏北路166号上海静安大悦城南座L5层,121.472302,31.243133,,4.3,[],购物菜场|文化地标|独处品质空间,上海市,上海市,静安区
B0FFKU9KIP,君安·棋牌·茶馆(人民广场店),体育休闲服务;娱乐场所;棋牌室,080306,汉口路643号百米香榭商业街2楼258室,121.478505,31.233390,17521235257,4.5,69.00,生活服务|独处品质空间,上海市,上海市,黄浦区
B0JUX9PXFI,御丰·茶室·棋牌(静安店),体育休闲服务;娱乐场所;棋牌室,080306,胶州路149弄6号,121.443782,31.226710,13370048063,4.4,54.00,生活服务|独处品质空间,上海市,上海市,静安区
B0I297JWBN,金色希望棋牌·茶舍(安远路店),体育休闲服务;娱乐场所;棋牌室,080306,安远路588号3楼(长寿路地铁站5口步行380米),121.436547,31.236427,021-52667075,4.5,99.00,生活服务|独处品质空间,上海市,上海市,普陀区
B0LUMRGJIG,塔姆酱24H自助棋牌·茶室,体育休闲服务;体育休闲服务场所;体育休闲服务场所,080000,打浦路271-1号致远大厦19G,121.471352,31.201412,18116415283,4.3,30.00,生活服务|独处品质空间,上海市,上海市,黄浦区
B0J0HCKZ3P,金麟棋牌·茶馆(黄浦一店),体育休闲服务;体育休闲服务场所;体育休闲服务场所,080000,斜土路768号(留柱小馆进直达电梯)6楼,121.471860,31.202009,021-63338303,4.3,55.00,生活服务|独处品质空间,上海市,上海市,黄浦区
B0JD1A3RP0,君安·棋牌·茶馆(普陀店),体育休闲服务;娱乐场所;棋牌室,080306,胶州路941号14楼(长寿路地铁站5号口步行330米),121.436701,31.237479,18301858247,4.5,57.00,生活服务|独处品质空间,上海市,上海市,普陀区
B0LDL7LWI5,君安·棋牌·茶馆(徐家汇店),体育休闲服务;娱乐场所;棋牌室,080306,南丹东路255号6楼(徐家汇地铁站2号口步行130米),121.438761,31.189435,15618777686,4.5,75.00,生活服务|独处品质空间,上海市,上海市,徐汇区
B0FFLLKOQ6,御丰茶室棋牌(徐汇店),体育休闲服务;体育休闲服务场所;体育休闲服务场所,080000,交通大学广元西路627号近乐山路,121.431311,31.194258,021-64680089;18017121017,4.4,74.00,生活服务|独处品质空间,上海市,上海市,徐汇区
B00155L9WI,上海美术馆(中华艺术宫),科教文化服务;博物馆;博物馆,140100,上南路205号,121.494740,31.184338,021-20202010;021-20252018;4009219021,4.8,[],文化地标|独处品质空间,上海市,上海市,浦东新区
B0FFKJZ4DH,草婴书房,科教文化服务;博物馆;博物馆,140100,乌鲁木齐南路178号3号楼(衡山路地铁站1号口步行420米),121.448870,31.203077,19946177295,4.0,[],文化地标|独处品质空间,上海市,上海市,徐汇区
B0FFKWQ77V,阿尔敏·莱希(Almine Rech)画廊,科教文化服务;展览馆;展览馆,140200,虎丘路27号202(南京东路地铁站6号口步行440米),121.487241,31.241296,021-63120260,4.2,[],文化地标|科技体验|独处品质空间,上海市,上海市,黄浦区
B0JDGMQVW8,大田秀则画廊,科教文化服务;展览馆;展览馆,140200,虎丘路78号1层QL106单元洛克·外滩源,121.487640,31.242228,021-33681321,4.3,[],文化地标|科技体验|独处品质空间,上海市,上海市,黄浦区
B0JUVLCR4L,零艺术馆红厅(LU·ONE凯德晶萃广场),科教文化服务;展览馆;展览馆|科教文化服务;美术馆;美术馆,140200|140400,徐家汇路268号LU·ONE凯德晶萃广场F2层02-24,121.477183,31.210337,021-63129126,4.0,[],文化地标|科技体验|独处品质空间,上海市,上海市,黄浦区
B0JK5Z3F0N,阆风艺术LEVANT ART,科教文化服务;展览馆;展览馆,140200,高青西路777号2层02-01单元,121.484462,31.150221,,4.1,[],文化地标|科技体验|独处品质空间,上海市,上海市,浦东新区
B0FFGJ9EF8,金城艺术画廊,科教文化服务;展览馆;展览馆,140200,文定路218号C栋C127承接大型壁画酒店家居配画个性化私人定制,121.431353,31.186146,18317032098,3.9,[],文化地标|科技体验|独处品质空间,上海市,上海市,徐汇区
B0L0PC0TAE,眼镜蛇画廊,科教文化服务;展览馆;展览馆,140200,沙美大楼(南京东路地铁站7号口步行490米),121.486542,31.240807,,3.4,[],文化地标|科技体验|独处品质空间,上海市,上海市,黄浦区
B0FFGK1HNI,朵云轩艺术中心,科教文化服务;会展中心;会展中心|科教文化服务;美术馆;美术馆,140300|140400,天钥桥路1180号,121.447380,31.174122,021-64681020,4.6,[],文化地标|科技体验|独处品质空间,上海市,上海市,徐汇区
B0FFJGOAFY,西岸美术馆,科教文化服务;美术馆;美术馆,140400,龙腾大道2600号,121.463841,31.167682,021-31011015,4.7,[],文化地标|科技体验|独处品质空间,上海市,上海市,徐汇区
B0FFF2YL75,龙美术馆(西岸馆),科教文化服务;美术馆;美术馆,140400,龙腾大道3398号,121.464761,31.183954,021-64227636,4.8,[],文化地标|科技体验|独处品质空间,上海市,上海市,徐汇区
B0FFF9ZXZW,刘海粟美术馆,科教文化服务;美术馆;美术馆,140400,延安西路1609号(延安西路地铁站2号口步行400米),121.419424,31.209504,021-62701018,4.8,[],文化地标|科技体验|独处品质空间,上海市,上海市,长宁区
B0FFH82JEM,上海宝龙美术馆,科教文化服务;美术馆;美术馆,140400,漕宝路3055号,121.357859,31.158382,021-62219111,4.7,[],文化地标|科技体验|独处品质空间,上海市,上海市,闵行区
B00155QH3P,上海外滩美术馆,科教文化服务;美术馆;美术馆,140400,虎丘路20号,121.487612,31.241209,021-33109985;021-63213352,4.6,[],文化地标|科技体验|独处品质空间,上海市,上海市,黄浦区
B00155932C,长宁文化艺术中心,科教文化服务;美术馆;美术馆,140400,仙霞路650号,121.387774,31.205901,021-62612818,4.6,[],文化地标|科技体验|独处品质空间,上海市,上海市,长宁区
B0FFLJMRIQ,梵高星空艺术馆,科教文化服务;美术馆;美术馆,140400,南京东路第一百货c馆8层,121.475289,31.235487,17717865847,4.4,[],文化地标|科技体验|独处品质空间,上海市,上海市,黄浦区
B00155LXQP,上海虹桥当代艺术馆,科教文化服务;美术馆;美术馆,140400,仙霞路650号,121.387754,31.205925,021-62618834,4.3,[],文化地标|科技体验|独处品质空间,上海市,上海市,长宁区
B0H0USLCSP,START星美术馆,科教文化服务;美术馆;美术馆,140400,瑞宁路111号,121.470273,31.187793,021-33632872,4.7,[],文化地标|科技体验|独处品质空间,上海市,上海市,徐汇区
B00153E97D,上海市徐汇区艺术馆,科教文化服务;美术馆;美术馆,140400,淮海中路1413号(常熟路地铁站7号口步行330米),121.448216,31.210155,021-64336516;021-64313738,4.4,[],文化地标|科技体验|独处品质空间,上海市,上海市,徐汇区
B00155KHGE,上海中国画院美术馆,科教文化服务;美术馆;美术馆,140400,岳阳路197号,121.452796,31.204502,021-64749977,4.6,[],文化地标|科技体验|独处品质空间,上海市,上海市,徐汇区
B001574S4B,chi K11 art museum美术馆(上海K11购物艺术中心),科教文化服务;美术馆;美术馆,140400,淮海中路300号上海K11购物艺术中心B3层,121.473459,31.223705,021-23103132,4.3,[],文化地标|科技体验|独处品质空间,上海市,上海市,黄浦区
B00157I5HO,上海市闵行区群众艺术馆,科教文化服务;美术馆;美术馆,140400,莘松路350号,121.372165,31.106342,021-60292300;021-64880324,4.5,[],文化地标|科技体验|独处品质空间,上海市,上海市,闵行区
B0FFF092LB,美博艺术中心,科教文化服务;美术馆;美术馆|科教文化服务;培训机构;培训机构,140400|141400,黎明路88号,121.379800,31.129560,13381608928,4.4,[],文化地标|科技体验|独处品质空间,上海市,上海市,闵行区
B0FFJMROU8,外滩18号久事艺术空间,科教文化服务;美术馆;美术馆,140400,中山东一路18号2层,121.489683,31.238393,13611730930,4.4,[],文化地标|科技体验|独处品质空间,上海市,上海市,黄浦区
B0IATZNFYM,上海久事美术馆,科教文化服务;美术馆;美术馆,140400,外滩一号(原亚细亚大楼),121.491265,31.233372,13774471354,4.5,[],文化地标|科技体验|独处品质空间,上海市,上海市,黄浦区
B0FFFTCSPN,上海明圆美术馆,科教文化服务;美术馆;美术馆,140400,复兴中路1199号明园商务中心A座地下一层,121.458872,31.212709,,4.3,[],文化地标|科技体验|独处品质空间,上海市,上海市,徐汇区
B0FFF9ZV3V,敬华艺术空间,科教文化服务;美术馆;美术馆,140400,铜仁路92号(静安寺地铁站6号口步行360米),121.450812,31.224533,021-62716969,4.4,[],文化地标|科技体验|独处品质空间,上海市,上海市,静安区
B0FFLHT2P1,上海市闵行区蔡兵美术馆,科教文化服务;美术馆;美术馆,140400,伟业路881号,121.400620,31.116792,,4.4,[],文化地标|科技体验|独处品质空间,上海市,上海市,闵行区
B0HKDZX2F2,上海春美术馆,科教文化服务;美术馆;美术馆,140400,福州路655号2层(人民广场地铁站15号口步行290米),121.478545,31.232250,,4.6,[],文化地标|科技体验|独处品质空间,上海市,上海市,黄浦区
B0FFHGOWN5,Capsule,科教文化服务;美术馆;美术馆,140400,安福路275弄16号1层,121.441872,31.212759,021-64170700,4.2,[],文化地标|科技体验|独处品质空间,上海市,上海市,徐汇区
B0FFFDILEQ,上海皓古文化艺术馆,科教文化服务;美术馆;美术馆,140400,黄家阙路111号(陆家浜路地铁站1号口步行330米),121.487925,31.214648,,4.2,[],文化地标|科技体验|独处品质空间,上海市,上海市,黄浦区
B0HAP5TTY6,上海杨培明宣传画收藏艺术馆,科教文化服务;美术馆;美术馆,140400,延安西路726号7楼K座,121.433762,31.215361,021-62111845,4.4,[],文化地标|科技体验|独处品质空间,上海市,上海市,长宁区
B0FFI3R6BR,上海苏宁艺术馆,科教文化服务;美术馆;美术馆,140400,丹巴路99号C3座,121.379036,31.222870,021-31013151,4.1,[],文化地标|科技体验|独处品质空间,上海市,上海市,普陀区
B0LAXRZ02B,山也美术馆,科教文化服务;美术馆;美术馆,140400,番禺路222弄上生新所(东南角),121.428287,31.207632,,4.4,[],文化地标|科技体验|独处品质空间,上海市,上海市,长宁区
B0FFKQOPRF,秋海堂艺术馆,科教文化服务;美术馆;美术馆|科教文化服务;培训机构;培训机构,140400|141400,衡山路525号凯文公寓副楼2层,121.443970,31.200601,13585668808,4.3,[],文化地标|科技体验|独处品质空间,上海市,上海市,徐汇区
B0J3DKBGLQ,柒艺术馆,科教文化服务;美术馆;美术馆,140400,江宁路与淮安路交叉口南60米,121.448371,31.238211,,3.6,[],文化地标|科技体验|独处品质空间,上海市,上海市,静安区
B0FFH71HIC,外滩艺术馆,科教文化服务;美术馆;美术馆,140400,汉口路201号(南京东路地铁站3号口步行320米),121.486197,31.235699,,4.4,[],文化地标|科技体验|独处品质空间,上海市,上海市,黄浦区
B0H35748L2,上海长宁华萃当代美术馆,科教文化服务;美术馆;美术馆,140400,长宁路1978号,121.401277,31.218727,021-52726307,4.3,[],文化地标|科技体验|独处品质空间,上海市,上海市,长宁区
B0IGSH3LYI,上海久事艺术沙龙,科教文化服务;美术馆;美术馆|生活服务;美容美发店;美容美发店,140400|071100,北京东路230号1层(南京东路地铁站6号口步行330米),121.486023,31.240734,,4.4,[],文化地标|科技体验|独处品质空间,上海市,上海市,黄浦区
B0FFG3BMJ4,上海博源美术馆(世博源5区),科教文化服务;美术馆;美术馆,140400,世博大道1368号世博源5区B层,121.493528,31.180491,13301638226,4.2,[],文化地标|科技体验|独处品质空间,上海市,上海市,浦东新区
B0KADCTUR8,上海正好美术馆,科教文化服务;美术馆;美术馆,140400,番禺路300弄7号B幢,121.428370,31.204495,13918927754,4.4,[],文化地标|科技体验|独处品质空间,上海市,上海市,长宁区
B0LGPUN8LZ,沪申美术馆,科教文化服务;美术馆;美术馆,140400,中山东一路3号3楼(近广东路),121.490765,31.234156,021-62493137,4.3,[],文化地标|科技体验|独处品质空间,上海市,上海市,黄浦区
B0KUSC3NYC,曜星艺术馆,科教文化服务;美术馆;美术馆,140400,虹许路482号,121.396512,31.189187,13611713474,4.4,[],文化地标|科技体验|独处品质空间,上海市,上海市,闵行区
B0K2VCA4J2,Gallery OM,科教文化服务;美术馆;美术馆,140400,四川中路33号创业大楼815室(8楼左转到底)(豫园地铁站6号口步行460米),121.489455,31.232992,,3.9,[],文化地标|科技体验|独处品质空间,上海市,上海市,黄浦区
B0FFFY63FU,田子坊美术馆,科教文化服务;美术馆;美术馆,140400,210弄9号站(打浦桥地铁站1号口步行160米),121.469027,31.208676,15915555598,4.2,[],文化地标|科技体验|独处品质空间,上海市,上海市,黄浦区
B0J02SP3J5,DOSE画廊,科教文化服务;美术馆;美术馆,140400,五原路212弄7号底楼花园(常熟路地铁站8号口步行430米),121.445396,31.212973,19121363485,4.1,[],文化地标|科技体验|独处品质空间,上海市,上海市,徐汇区
B0FFG84LAI,翠湖天地生活艺术馆,科教文化服务;美术馆;美术馆,140400,湖滨路150号企业天地5号楼F31层,121.478775,31.221425,,3.8,[],文化地标|科技体验|独处品质空间,上海市,上海市,黄浦区
B0J10ZELMN,九点水美术馆树屋馆,科教文化服务;美术馆;美术馆,140400,桂林路406号华鑫中心F1层,121.416592,31.172965,,4.2,[],文化地标|科技体验|独处品质空间,上海市,上海市,徐汇区
B0JBXURPY1,海派美术馆,科教文化服务;美术馆;美术馆,140400,七浦路607号2楼(曲阜路地铁站5号口步行240米),121.473562,31.243857,021-61701311,4.0,[],文化地标|科技体验|独处品质空间,上海市,上海市,静安区
B0IR5Z0GHV,上海油罐艺术中心美术馆,科教文化服务;美术馆;美术馆,140400,龙腾大道2380号,121.464475,31.164505,,4.2,[],文化地标|科技体验|独处品质空间,上海市,上海市,徐汇区
B0KGDUU827,J7 Art(青云七号美术馆),科教文化服务;美术馆;美术馆,140400,瑞金二路街道茂名南路7号,121.460691,31.222312,19945660025,4.4,[],文化地标|科技体验|独处品质空间,上海市,上海市,黄浦区
B0FFK9TN8C,墨琛画廊,科教文化服务;美术馆;美术馆,140400,新华路430号,121.424170,31.204082,13247760255,4.0,[],文化地标|科技体验|独处品质空间,上海市,上海市,长宁区
B0LKJH1MCU,原野上美术馆·KONG-Art Gallery,科教文化服务;美术馆;美术馆,140400,法华镇路525号二楼,121.425548,31.205145,,3.8,[],文化地标|科技体验|独处品质空间,上海市,上海市,长宁区
B0FFHDC5L8,莫索新艺术,科教文化服务;美术馆;美术馆,140400,七莘路50号乾锦创业园9号楼1008-1009号室,121.379240,31.110529,021-34712332,3.6,[],文化地标|科技体验|独处品质空间,上海市,上海市,闵行区
B0KU2SZ8DG,上海海派书画艺术馆,科教文化服务;美术馆;美术馆,140400,北渔路95号(北新泾地铁站3号口旁),121.372356,31.216472,,3.7,[],文化地标|科技体验|独处品质空间,上海市,上海市,长宁区
B0FFH114GW,折扇艺术馆,科教文化服务;美术馆;美术馆,140400,陕西北路454号,121.453008,31.230491,13611897936,3.8,[],文化地标|科技体验|独处品质空间,上海市,上海市,静安区
B00155IL0O,上海学生美术馆,科教文化服务;美术馆;美术馆,140400,愚园路1136弄4-61号(江苏路地铁站6号口步行500米),121.427155,31.219682,,3.7,[],文化地标|科技体验|独处品质空间,上海市,上海市,长宁区
B00155M0PV,华东师范大学普陀校区美术馆,科教文化服务;美术馆;美术馆,140400,中山北路3663号华东师范大学中山北路校区,121.405989,31.230578,,3.3,[],文化地标|科技体验|独处品质空间,上海市,上海市,普陀区
B0JKSO57G0,金雀华人美术馆,科教文化服务;美术馆;美术馆,140400,龙文路69号1-M2(龙耀路地铁站2号口步行340米),121.463043,31.159800,,3.6,[],文化地标|科技体验|独处品质空间,上海市,上海市,徐汇区
B0L0U1WPD2,ANTENNA-TENNA画廊,科教文化服务;美术馆;美术馆,140400,曲阜路与浙江北路交叉口西南80米,121.475496,31.242546,,3.3,[],文化地标|科技体验|独处品质空间,上海市,上海市,静安区
B0MBM57K3S,宋洋美术馆,科教文化服务;美术馆;美术馆,140400,淮海中路523号TX淮海F2层,121.469311,31.220687,,2.2,[],文化地标|科技体验|独处品质空间,上海市,上海市,黄浦区
B0FFHUD4BQ,上海油罐艺术中心,科教文化服务;美术馆;美术馆,140400,龙腾大道2380号,121.464321,31.164519,,4.8,[],文化地标|科技体验|独处品质空间,上海市,上海市,徐汇区
B0FFFFROYU,西岸艺术中心,科教文化服务;美术馆;美术馆,140400,龙腾大道2555号(近丰谷路),121.461939,31.167719,,4.8,[],文化地标|科技体验|独处品质空间,上海市,上海市,徐汇区
B0KA3ARP4N,上海民生现代美术馆,科教文化服务;美术馆;美术馆,140400,威海路48号5-6层,121.470334,31.228449,021-60256700,4.6,[],文化地标|科技体验|独处品质空间,上海市,上海市,黄浦区
B0JA9MFYWG,西岸艺术中心N馆,科教文化服务;美术馆;美术馆,140400,龙腾大道2763号,121.462019,31.170546,,4.6,[],文化地标|科技体验|独处品质空间,上海市,上海市,徐汇区
B0G1B1AYZK,上海黄浦区东一美术馆,科教文化服务;美术馆;美术馆,140400,中山东一路1号1-3层,121.491257,31.233458,021-63306716,4.4,[],文化地标|科技体验|独处品质空间,上海市,上海市,黄浦区
B0HBBD3UW5,上海静安尤伦斯美术馆(暂停开放),科教文化服务;美术馆;美术馆,140400,西藏北路88号盈凯文创广场2层,121.472034,31.242110,021-66286861,4.6,[],文化地标|科技体验|独处品质空间,上海市,上海市,静安区
B00156EI00,上海油画雕塑院美术馆(暂停开放),科教文化服务;美术馆;美术馆,140400,金珠路111号(红宝石路地铁站2号口步行280米),121.400147,31.198708,021-62708433;021-62759930,4.4,[],文化地标|科技体验|独处品质空间,上海市,上海市,长宁区
B0JUMG4XJ0,新页书房非遗主题馆,科教文化服务;图书馆;图书馆,140500,北渔路与天山西路交叉口西南40米,121.372284,31.216757,,3.9,[],文化地标|科技体验|独处品质空间,上海市,上海市,长宁区
B0L2MAYJWR,里滩书房,科教文化服务;图书馆;图书馆,140500,中山南一路727号,121.479166,31.198295,,3.5,[],文化地标|科技体验|独处品质空间,上海市,上海市,黄浦区
B0L2MAY05C,萤火虫书屋,科教文化服务;图书馆;图书馆,140500,中山南一路468号甲三楼,121.484313,31.199278,,3.7,[],文化地标|科技体验|独处品质空间,上海市,上海市,黄浦区
B0L2MZYK8H,辅德里FUN书房,科教文化服务;图书馆;图书馆,140500,大沽路379号辅德里公园内,121.466674,31.224804,,3.2,[],文化地标|科技体验|独处品质空间,上海市,上海市,静安区
B0L2MZYZH9,“书香·悦”书屋,科教文化服务;图书馆;图书馆,140500,万航渡路676弄46号二层,121.431664,31.226190,,3.5,[],文化地标|科技体验|独处品质空间,上海市,上海市,静安区
B0L2MZYK8L,“征新”丽人书屋,科教文化服务;图书馆;图书馆,140500,中江路875号二楼,121.391762,31.234918,,3.3,[],文化地标|科技体验|独处品质空间,上海市,上海市,普陀区
B0L2MZYK8K,长乐书房,科教文化服务;图书馆;图书馆,140500,宜昌路555号三楼,121.434166,31.244477,,3.3,[],文化地标|科技体验|独处品质空间,上海市,上海市,普陀区
B0L2MZZESF,华东师范大学·纯真童心书屋,科教文化服务;图书馆;图书馆,140500,中山北路3663号华东师范大学田家炳楼914室,121.406619,31.230809,,3.0,[],文化地标|科技体验|独处品质空间,上海市,上海市,普陀区
B0FFJ42KD0,虹桥半岛版画艺术中心,科教文化服务;美术馆;美术馆,140400,长宁文化艺术中心西门北50米,121.387448,31.205979,,3.9,[],文化地标|独处品质空间,上海市,上海市,长宁区
B0FFLPX4S0,上海书城(福州路店),购物服务;专卖店;书店,061205,福州路465号世纪出版大厦,121.481479,31.233320,021-63615169;021-63914848,4.7,[],文化地标|独处品质空间,上海市,上海市,黄浦区
B0FFHK7W1H,外文书店(福州路总店),购物服务;专卖店;书店,061205,福州路390号1-2层(南京东路地铁站4号口步行300米),121.482951,31.234079,021-23204852;021-23204976,4.7,[],文化地标|独处品质空间,上海市,上海市,黄浦区
B0K61SSQPD,钟书阁(徐汇绿地缤纷城西区店),购物服务;专卖店;书店,061205,东安路562号徐汇绿地缤纷城西区F1层,121.456486,31.184011,021-54356786;13564671829,4.5,[],文化地标|独处品质空间,上海市,上海市,徐汇区
B0G2K1VSOD,茑屋书店,购物服务;专卖店;书店,061205,延安西路1262号上生·新所7号楼哥伦比亚乡村俱乐部内,121.427656,31.208543,021-60193128,4.7,[],文化地标|独处品质空间,上海市,上海市,长宁区
B00155F57R,博库书城,购物服务;专卖店;书店,061205,宜山路515号(宜山路地铁站9号口步行440米),121.425573,31.180244,021-64516666,4.5,[],文化地标|独处品质空间,上海市,上海市,徐汇区
B0FFIK8665,思南书局,购物服务;专卖店;专营店,061200,复兴中路517号,121.469096,31.215267,13917497850,4.7,[],文化地标|独处品质空间,上海市,上海市,黄浦区
B0H0ZUTZRV,茑屋书店(前滩太古里店),购物服务;专卖店;书店,061205,东育路500弄1-9号前滩太古里L4层,121.481326,31.152374,021-58580669,4.6,[],文化地标|独处品质空间,上海市,上海市,浦东新区
B0KDG5KPLL,百新书局,购物服务;专卖店;书店,061205,南京东路街道福州路620号,121.478669,31.232639,021-63281888,4.6,[],文化地标|独处品质空间,上海市,上海市,黄浦区
B0K61ZQFEF,大隐书局·印象武康主题店,购物服务;专卖店;书店,061205,淮海中路1834-1号(交通大学地铁站7号口步行450米),121.438656,31.204546,021-33566912,4.6,[],文化地标|独处品质空间,上海市,上海市,徐汇区
B00154DF7O,新华书店教材书店(大木桥门店),购物服务;专卖店;书店,061205,大木桥路499号(大木桥路地铁站4号口步行90米),121.463401,31.194984,021-64162792,4.4,[],文化地标|独处品质空间,上海市,上海市,徐汇区
B001553N0R,上海书城(长宁店),购物服务;专卖店;书店,061205,长宁路1057号(中山公园地铁站11号口旁),121.416594,31.217746,021-62120202,4.4,[],文化地标|独处品质空间,上海市,上海市,长宁区
B00153CA7F,上海古籍书店,购物服务;专卖店;书店,061205,福州路401号1-2楼(南京东路地铁站4号口步行320米),121.482752,31.233777,021-63282891;021-63360501,4.5,[],文化地标|独处品质空间,上海市,上海市,黄浦区
B00151B405,上海香港三联书店,购物服务;专卖店;书店,061205,淮海中路624号(淮海中路地铁站1号口步行210米),121.466757,31.220146,021-53064393,4.6,[],文化地标|独处品质空间,上海市,上海市,黄浦区
B0G2179E36,犀牛书店(JK1933店),购物服务;专卖店;书店,061205,北苏州路1040号A101室,121.472813,31.240989,13651685843,4.5,[],文化地标|独处品质空间,上海市,上海市,静安区
B0I64S0CWF,库布里克Kubrick书店(前滩太古里店),餐饮服务;咖啡厅;咖啡厅,050500,东育路500弄1-9号前滩太古里L3层,121.482354,31.152560,021-68580688,4.5,[],文化地标|独处品质空间,上海市,上海市,浦东新区
B00154YL2G,上海韬奋西文书局有限公司,购物服务;专卖店;书店,061205,长乐路325号(陕西南路地铁站10号口步行480米),121.457341,31.220033,021-54048729,4.4,[],文化地标|独处品质空间,上海市,上海市,徐汇区
B0JBM75DSW,香蕉鱼书店(红宝石路),购物服务;专卖店;书店,061205,红宝石路7号(宋园路地铁站1号口步行440米),121.408718,31.195499,,4.5,[],文化地标|独处品质空间,上海市,上海市,长宁区
B0L3L7Q4EV,悦沢书店(上海徐汇店),餐饮服务;餐饮相关场所;餐饮相关,050000,宜山路455号光启城B2层01-1,121.428641,31.183866,,4.2,[],文化地标|独处品质空间,上海市,上海市,徐汇区
B0JK17HO9G,西西弗书店(上海世茂广场店),购物服务;专卖店;书店,061205,南京东路819号百联世茂国际广场3层西,121.476048,31.234778,021-63463018,4.3,[],文化地标|独处品质空间,上海市,上海市,黄浦区
B0FFGIIPYC,西西弗书店(上海静安大悦城店),购物服务;专卖店;书店,061205,西藏北路198号大悦城北楼 6 楼,121.472268,31.244341,021-60405488,4.2,[],文化地标|独处品质空间,上海市,上海市,静安区
B0JAX73RKN,笃合书局(第一百货商业中心),购物服务;专卖店;书店,061205,南京东路830号A馆8楼,121.474652,31.234819,13381536360,4.4,[],文化地标|独处品质空间,上海市,上海市,黄浦区
B0HDXA9W21,交大书院,科教文化服务;培训机构;培训机构,141400,番禺路951号,121.428469,31.195578,021-61675277,3.8,[],文化地标|独处品质空间,上海市,上海市,徐汇区
B0KK9MQSW5,新山書屋,餐饮服务;外国餐厅;外国餐厅,050200,前滩大道199弄前滩公园巷N3栋1层,121.472167,31.153775,021-58356630,4.6,68.00,文化地标|独处品质空间,上海市,上海市,浦东新区
B0FFJL4V2V,西西弗书店(LU·ONE凯德晶萃广场店),购物服务;专卖店;书店,061205,徐家汇路268号凯德晶萃广场2层31A号31B号商铺,121.477305,31.209912,021-61276832,4.3,[],文化地标|独处品质空间,上海市,上海市,黄浦区
B0FFFE0FUK,作家书店(巨鹿路店),购物服务;专卖店;书店,061205,巨鹿路677号(周二休息),121.456325,31.221606,021-54033691,4.4,[],文化地标|独处品质空间,上海市,上海市,静安区
B0LUFCYRL3,西西弗书店&矢量咖啡(鑫耀·光环Live店),购物服务;购物相关场所;购物相关场所,060000,漕宝路261号01部位S5-L1-19室、S5-L1-20室,121.414856,31.166260,021-54566289,4.2,[],文化地标|独处品质空间,上海市,上海市,徐汇区
B0J6S1DYAS,西西弗书店(长宁龙之梦城市生活中心店),购物服务;专卖店;书店,061205,长宁路1018号龙之梦购物公园3楼3091号,121.417173,31.218860,021-52797901,4.3,[],文化地标|独处品质空间,上海市,上海市,长宁区
B00154DL1U,上海书城(曹杨店),购物服务;专卖店;书店,061205,枣阳路107号,121.404981,31.237360,021-62544895;021-62545902,4.2,[],文化地标|独处品质空间,上海市,上海市,普陀区
B0LG27KF0A,小森林书店,购物服务;专卖店;书店,061205,延安西路1221号泛太大厦2号楼1层底商,121.427889,31.210828,13524796208;18017251036,4.4,[],文化地标|独处品质空间,上海市,上海市,长宁区
B0FFHK27KE,千彩书坊(常德路店),购物服务;专卖店;书店,061205,常德路195-3号常德公寓底楼,121.447685,31.224674,021-62499006;13641826553,4.3,[],文化地标|独处品质空间,上海市,上海市,静安区
B0L6FDAB4R,大众书局·纸品咖啡(世博天地店),购物服务;专卖店;书店,061205,周家渡路与博成路交叉口西北40米,121.491205,31.184953,021-50988818,4.3,[],文化地标|独处品质空间,上海市,上海市,浦东新区
B0FFH17XDC,楠书房(上海新天地北里店),购物服务;购物相关场所;购物相关场所,060000,太仓路181弄上海新天地北里F1层,121.474893,31.220716,021-63339361,4.4,[],文化地标|独处品质空间,上海市,上海市,黄浦区
B0FFL6XJKO,西西弗书店(晶耀前滩Crystal Plaza店),购物服务;专卖店;书店,061205,耀体路308号晶耀商务广场2层L241A单元商铺,121.478332,31.152847,021-58355558,4.3,[],文化地标|独处品质空间,上海市,上海市,浦东新区
B0FFK91Y78,大夏书店(华东师范大学普陀校区店),购物服务;专卖店;书店,061205,中山北路3663号(金沙江路地铁站5号口步行400米),121.409911,31.228278,021-62233338,4.3,[],文化地标|独处品质空间,上海市,上海市,普陀区
B0FFH7SIT0,西西弗书店(上海月星环球港店),购物服务;专卖店;书店,061205,中山北路3300号环球港太阳大厅4层4130,121.412650,31.232191,021-61248136,4.4,[],文化地标|独处品质空间,上海市,上海市,普陀区
B0FFKDFRMB,ZiWU志屋,购物服务;专卖店;书店,061205,建国中路10号八号桥创意园区1号楼1层,121.471135,31.210750,021-63353676,4.3,[],文化地标|独处品质空间,上海市,上海市,黄浦区
B0JRHCK3X7,物邸BOOKSTORE(中南新邨店),购物服务;专卖店;书店,061205,湖南路11号(上海图书馆地铁站3号口步行170米),121.442495,31.208114,13355780900,4.3,[],文化地标|独处品质空间,上海市,上海市,徐汇区
B0FFILKK3B,新华书店(徐汇日月光中心店),购物服务;专卖店;书店,061205,漕宝路33号徐汇日月光中心L2层(漕宝路地铁站9号口旁),121.433104,31.168719,021-64700414,4.2,[],文化地标|独处品质空间,上海市,上海市,徐汇区
B0FFIBL95F,新华书店(海防路门店),购物服务;专卖店;书店,061205,陕西北路1028号,121.446270,31.238945,021-62770464,4.1,[],文化地标|独处品质空间,上海市,上海市,静安区
B0K2V61RFU,群岛BOOKS(梦中心店),购物服务;购物相关场所;购物相关场所,060000,龙腾大道2266号梦中心3栋二层204,121.465529,31.161785,18600211245,4.3,[],文化地标|独处品质空间,上海市,上海市,徐汇区
B0FFJAKU4E,西西弗书店(长风VIA店),购物服务;专卖店;书店,061205,大渡河路196号上海长风大悦城L4层,121.395219,31.222676,021-61439060;021-61439062,4.1,[],文化地标|独处品质空间,上海市,上海市,普陀区
B0GKVG28HW,上戏艺术书店(奥力孚利华大厦店),购物服务;专卖店;书店,061205,华山路620号奥力孚利华大厦F1层,121.440611,31.216991,18116017777,4.3,[],文化地标|独处品质空间,上海市,上海市,静安区
B0FFLEZRXE,元龙音乐书店武康大楼店,购物服务;专卖店;书店,061205,淮海中路1852号(交通大学地铁站7口步行410米),121.438244,31.204281,17721392376,4.2,[],文化地标|独处品质空间,上海市,上海市,徐汇区
B0JRFZPSS5,帆书樊登书店(海粟文化广场店),购物服务;专卖店;书店,061205,长宁区618号海粟文化广场C栋一楼,121.419851,31.210785,13003252869,4.3,[],文化地标|独处品质空间,上海市,上海市,长宁区
B0K33C60QB,大隐书局·外滩书房,购物服务;专卖店;书店,061205,汉口路99号(南京东路地铁站2号口步行450米),121.487640,31.236335,,4.3,[],文化地标|独处品质空间,上海市,上海市,黄浦区
B0G2CR8YSY,FILM电影时光书店,购物服务;专卖店;书店,061205,安福路322号,121.440370,31.213316,021-64336072;18964339981,4.2,[],文化地标|独处品质空间,上海市,上海市,徐汇区
B0HROUJF08,西西弗书店(上海万象城店),购物服务;专卖店;书店,061205,虹桥镇吴中路1599号上海万象城3层L333A号,121.369391,31.170540,,4.2,[],文化地标|独处品质空间,上海市,上海市,闵行区
B0FFI7SA3Q,大众书局·纸品咖啡(莘庄维璟印象城店),购物服务;专卖店;书店,061205,七莘路1507号上海怡丰城4楼,121.364220,31.131020,021-63223587,4.0,[],文化地标|独处品质空间,上海市,上海市,闵行区
B0L6YZHQUR,BOOCUP现代书店,购物服务;专卖店;书店,061205,西岸梦中心9栋1楼,121.465269,31.159063,18101944591,4.3,[],文化地标|独处品质空间,上海市,上海市,徐汇区
B0FFHU2PKG,大隐精舍,购物服务;专卖店;书店|餐饮服务;茶艺馆;茶艺馆,061205|050600,重庆南路310号新电大厦F1层,121.472057,31.209899,021-54260521,4.2,[],文化地标|独处品质空间,上海市,上海市,黄浦区
B0HDSO8LIQ,二酉书店(恒基旭辉天地店),体育休闲服务;娱乐场所;游戏厅,080305,马当路458弄1恒基·旭辉天地LG1层,121.474439,31.211966,13501697528;13524515731,4.2,[],文化地标|独处品质空间,上海市,上海市,黄浦区
B0FFG0ZG47,新华书店(金虹桥商场店),购物服务;专卖店;书店,061205,茅台路179号金虹桥商场LG1,121.403238,31.208924,021-62087107,4.1,[],文化地标|独处品质空间,上海市,上海市,长宁区
B0J1V71THA,信条书店(博荟广场ONE EAST店),购物服务;专卖店;书店,061205,中山南一路788号博荟广场ONE EASTL2A&B,121.479871,31.196892,18321051985,4.1,[],文化地标|独处品质空间,上海市,上海市,黄浦区
B0LB7HF1MX,小红书(LuOne新工区),商务住宅;楼宇;商务写字楼,120201,徐家汇路268号LU·ONE凯德晶萃广场,121.477629,31.210798,,4.4,[],文化地标|独处品质空间,上海市,上海市,黄浦区
B00154DF81,新华书店(长桥门店),购物服务;专卖店;书店,061205,罗香路73号,121.439609,31.135249,021-64105918,4.1,[],文化地标|独处品质空间,上海市,上海市,徐汇区
B0I09ULE75,新华书店·逆光226,购物服务;专卖店;书店,061205,南昌路226号(淮海中路地铁站1号口步行320米),121.465151,31.217864,19121847482,4.2,[],文化地标|独处品质空间,上海市,上海市,黄浦区
B00156F3SD,静思书轩(上海长风店),购物服务;专卖店;书店,061205,大渡河路168弄22号H栋1楼101室,121.393290,31.220055,021-61231841;021-61231849,4.2,[],文化地标|独处品质空间,上海市,上海市,普陀区
B00155I5AJ,新华书店(鲁班路店),购物服务;专卖店;书店,061205,鲁班路359号(近斜土路)(鲁班路地铁站1号口步行450米),121.475730,31.202378,021-63016472,4.1,[],文化地标|独处品质空间,上海市,上海市,黄浦区
B00155HPWZ,艺术书坊(合众公寓店),购物服务;专卖店;古玩字画店|购物服务;专卖店;书店,061201|061205,福州路424号(南京东路地铁站4号口步行380米),121.482200,31.233883,021-63220825,4.1,[],文化地标|独处品质空间,上海市,上海市,黄浦区
B0FFH8MNFI,新华书店(普陀区店),购物服务;专卖店;书店,061205,枣阳路107号,121.404891,31.237271,021-62545902,4.2,[],文化地标|独处品质空间,上海市,上海市,普陀区
B00154DSEF,上海旧书店(中华路),购物服务;专卖店;书店,061205,中华路1351号(近文庙路),121.486290,31.217167,021-63777183,4.0,[],文化地标|独处品质空间,上海市,上海市,黄浦区
B0FFIQYDEF,新华书店(长宁路店),购物服务;专卖店;书店,061205,长宁路1055号汇都大楼F1层(中山公园地铁站11号口旁),121.416485,31.217832,021-62120202,4.1,[],文化地标|独处品质空间,上海市,上海市,长宁区
B00155LIKE,Garden Books(长乐店),餐饮服务;咖啡厅;咖啡厅,050500,长乐路325号(陕西南路地铁站10号口步行480米),121.457364,31.220038,021-58030000,4.2,[],文化地标|独处品质空间,上海市,上海市,徐汇区
B0JBP9A1BO,大隐书局(前滩店),购物服务;专卖店;书店,061205,梁月路91-101号,121.469419,31.148794,021-50541388,4.3,[],文化地标|独处品质空间,上海市,上海市,浦东新区
B00155BSZI,新华书店(康健路店),购物服务;专卖店;书店,061205,康健路81号(光大会展中心后面),121.428626,31.165649,021-64360523,4.2,[],文化地标|独处品质空间,上海市,上海市,徐汇区
B0FFL69835,中版书房(长宁店),购物服务;专卖店;书店,061205,长宁区仙霞路345号102室,121.398178,31.206146,13918302074,4.2,[],文化地标|独处品质空间,上海市,上海市,长宁区
B0L12UUWNN,家+书屋·新华书店(闵行七宝店),购物服务;专卖店;书店,061205,七宝镇新镇路456号,121.365073,31.146636,021-64978120,4.2,[],文化地标|独处品质空间,上海市,上海市,闵行区
B0L64U5LVJ,PaperMoon Bookshop,购物服务;专卖店;书店,061205,天平路42号(交通大学地铁站1号口步行460米),121.437685,31.202680,13311960769,4.3,[],文化地标|独处品质空间,上海市,上海市,徐汇区
B0L10RDE1W,i人书房,购物服务;专卖店;书店|科教文化服务;科教文化场所;科教文化场所,061205|140000,南苏州路1455号南苏55苏河文创中心1号楼,121.460975,31.240075,,4.2,[],文化地标|独处品质空间,上海市,上海市,静安区
B00154FCZQ,上海党建书店,购物服务;专卖店;书店,061205,高安路21号(衡山路地铁站2号口步行190米),121.445062,31.204531,021-64332301,4.1,[],文化地标|独处品质空间,上海市,上海市,徐汇区
B0J3SA7YH3,考亭书苑(康绥公寓店),购物服务;专卖店;书店,061205,淮海中路494弄1-27号康绥公寓,121.470393,31.221649,15000880006,3.9,[],文化地标|独处品质空间,上海市,上海市,黄浦区
B0FFJ09LS1,陇上书店,购物服务;专卖店;书店,061205,梅陇路142号,121.424752,31.140787,021-64252654;18149756564,4.1,[],文化地标|独处品质空间,上海市,上海市,徐汇区
B0FFHKGM3K,松坂书屋(福州路文化街店),购物服务;专卖店;专营店,061200,福州路外文书店四楼(南京东路地铁站4号口步行310米),121.483012,31.234090,021-23204981,4.0,[],文化地标|独处品质空间,上海市,上海市,黄浦区
B0KARUAHNR,黄浦区图书馆24小时城市书房,体育休闲服务;娱乐场所;娱乐场所,080300,福州路655号上海黄浦区图书馆大楼,121.478586,31.232069,,4.2,[],文化地标|独处品质空间,上海市,上海市,黄浦区
B0KRY5013H,书里·梅陇,风景名胜;风景名胜相关;旅游景点,110000,沪闵路lalastation2楼最西边(万源路与交叉口扶梯上),121.401122,31.129916,13611722913,4.1,[],文化地标|独处品质空间,上海市,上海市,闵行区
B00155INTZ,咏文上书房(新梅广场店),购物服务;专卖店;书店|体育休闲服务;休闲场所;休闲场所,061205|080500,龙茗路24号(外环路地铁站北口步行400米),121.389570,31.121941,021-54173758,4.2,[],文化地标|体育休闲|独处品质空间,上海市,上海市,闵行区
B0G2DHN3DR,周日旧书市集(福佑商厦店),购物服务;专卖店;书店,061205,福佑路225号地下二层(豫园地铁站7号口步行330米),121.491731,31.228219,13818114209,4.0,[],文化地标|独处品质空间,上海市,上海市,黄浦区
B00154SB6H,立信财经书店,购物服务;专卖店;书店,061205,中山西路2230号2号楼底楼,121.428858,31.181603,021-63226239,4.2,[],文化地标|独处品质空间,上海市,上海市,徐汇区
B0HRHP1ZQP,新华文创·光的空间(爱琴海购物中心店),购物服务;专卖店;书店|科教文化服务;培训机构;培训机构|购物服务;文化用品店;文化用品店,061205|141400|060800,虹桥镇吴中路1588号爱琴海购物公园7楼,121.373882,31.174776,,4.0,[],文化地标|独处品质空间,上海市,上海市,闵行区
B0LB2ADG7J,沉潜书屋(静安店),购物服务;专卖店;书店,061205,常德路629号101室(绿色铁门进去白色院子),121.444809,31.231188,13564050314,4.3,[],文化地标|独处品质空间,上海市,上海市,静安区
B0J05ARDN9,吾家有草书屋,购物服务;专卖店;书店,061205,顺义路68号二层(隆德路地铁站5号口步行360米),121.420753,31.231852,19945790362,4.1,[],文化地标|独处品质空间,上海市,上海市,普陀区
B0FFL7DRZF,闵行城市书房(莘庄馆),购物服务;专卖店;书店,061205,莘松路380号一楼,121.371639,31.105609,,4.0,[],文化地标|独处品质空间,上海市,上海市,闵行区
B0LGBCUU7B,帆书APP武夷路书房,科教文化服务;科教文化场所;科教文化场所,140000,华阳街道武夷路295号,121.425176,31.213420,15618690020,4.2,[],文化地标|独处品质空间,上海市,上海市,长宁区
B0HGKSHP9Y,陇上书店(晨园店),购物服务;专卖店;书店,061205,梅陇路130号华东理工大学徐汇校区晨园旁,121.423066,31.142240,021-64252867,4.0,[],文化地标|独处品质空间,上海市,上海市,徐汇区
B00151FF93,佛学书局,购物服务;专卖店;书店,061205,常德路418乙,121.446875,31.228361,021-62470515,3.9,[],文化地标|独处品质空间,上海市,上海市,静安区
B0G0X6X1LU,融义财富书房(强生古北花园店),购物服务;专卖店;书店,061205,黄金城道697-1号(红宝石路地铁站2号口步行450米),121.400539,31.195099,021-62186688,3.8,[],文化地标|独处品质空间,上海市,上海市,长宁区
B00155GLNK,天梯书屋(清真路店),购物服务;专卖店;书店,061205,清真路25号(近大木桥路)(嘉善路地铁站4号口步行220米),121.460756,31.199883,021-64180753;021-64180833,4.1,[],文化地标|独处品质空间,上海市,上海市,徐汇区
B0HDP1LQV0,绚彩童年儿童阅读成长中心,购物服务;专卖店;书店,061205,集心路268号前瞻科技218室,121.413029,31.109054,13816050217;13816765906,3.7,[],文化地标|独处品质空间,上海市,上海市,闵行区
B00156YRCZ,晨光文具(金领华庭店),购物服务;文化用品店;文化用品店,060800,平阳路155号,121.406475,31.142343,13651611947;18917819724,4.0,[],文化地标|独处品质空间,上海市,上海市,闵行区
B0H3JR6UG2,中信书店(麦当劳中国总部大楼店),购物服务;专卖店;书店,061205,龙腾大道2121号麦当劳中国总部大楼F1层,121.464031,31.158884,,4.2,[],文化地标|独处品质空间,上海市,上海市,徐汇区
B0FFF3AHOW,雨书屋,购物服务;专卖店;书店,061205,建国西路312号,121.457737,31.205036,13166194912,3.8,[],文化地标|独处品质空间,上海市,上海市,徐汇区
B0FFIBJ5KR,明室私人书房(惠安坊店),购物服务;专卖店;书店,061205,绍兴路94号二楼(惠安坊进入),121.462747,31.208902,,4.1,[],文化地标|独处品质空间,上海市,上海市,黄浦区
B00151D007,毅力书店(丽景新苑店),购物服务;专卖店;书店,061205,花家浜路289号,121.365190,31.244298,13917318098,4.0,[],文化地标|独处品质空间,上海市,上海市,嘉定区
B0KR67VHLL,Koi Tune(第一百货c馆店),购物服务;服装鞋帽皮具店;服装鞋帽皮具店,061100,第一百货c馆5楼KoiTune,121.475145,31.235620,13701746351,4.0,[],文化地标|独处品质空间,上海市,上海市,黄浦区
B0K1O5TP0M,魔泛娱乐X现代书店(上海书城店),购物服务;专卖店;书店,061205,湖北路136号德必上海书城WE F6层,121.481361,31.233171,,3.9,[],文化地标|独处品质空间,上海市,上海市,黄浦区
B0G0PK9JFM,老约翰绘本馆(东阔生活广场店),购物服务;专卖店;书店,061205,华发路230号东阔生活广场A幢东阔生活广场店3F层,121.449648,31.127337,13661819166,3.7,39.00,文化地标|独处品质空间,上海市,上海市,徐汇区
B0FFJSO3CX,小夫子书苑,科教文化服务;培训机构;培训机构,141400,长征镇花家浜路250号(近香樟路),121.358634,31.238494,13761847167,4.1,[],文化地标|独处品质空间,上海市,上海市,普陀区
B0JG1RFD0H,大隐书集(前滩店),购物服务;专卖店;书店,061205,桐晚路105号,121.468690,31.148567,021-54260539,4.0,[],文化地标|独处品质空间,上海市,上海市,浦东新区
B0FFL7MKT5,三月书院儿童阅读空间(徐汇日月光中心店),购物服务;专卖店;书店|科教文化服务;培训机构;培训机构,061205|141400,漕宝路33号徐汇日月光中心L3层(漕宝路地铁站10号口旁),121.433483,31.168740,13918244985,3.6,[],文化地标|独处品质空间,上海市,上海市,徐汇区
B00154OHUJ,新馨书店,购物服务;专卖店;书店,061205,瞿溪路1046-1号(鲁班路地铁站1号口步行60米),121.475433,31.199019,021-63036012,3.8,[],文化地标|独处品质空间,上海市,上海市,黄浦区
B0K2VR9SN3,UNO garden,购物服务;购物相关场所;购物相关场所,060000,永福路51号,121.444058,31.211122,,4.1,[],文化地标|独处品质空间,上海市,上海市,徐汇区
B0HANUMU6V,新华传媒教材书店(中山南二路),购物服务;专卖店;书店,061205,大木桥路499号(大木桥路地铁站4号口步行80米),121.463424,31.194874,021-64162792,3.9,[],文化地标|独处品质空间,上海市,上海市,徐汇区
B0FFG0X04L,建科书店(汇成桂苑店),购物服务;专卖店;书店,061205,清真路22号(嘉善路地铁站4号口步行310米),121.459825,31.199750,021-64187462;021-64226671,3.8,[],文化地标|独处品质空间,上海市,上海市,徐汇区
B0FFHJ3YHA,龙申书店(西凌家宅路店),购物服务;专卖店;书店,061205,西凌家宅路104号(西藏南路地铁站5号口步行470米),121.486195,31.204069,13122047912,3.9,[],文化地标|独处品质空间,上海市,上海市,黄浦区
B0J3FPAZPN,基督书店,购物服务;专卖店;书店,061205,九江路与河南中路交叉口东60米,121.485775,31.236630,,4.0,[],文化地标|独处品质空间,上海市,上海市,黄浦区
B0015702X9,青青文具店(东兰路),购物服务;文化用品店;文化用品店,060800,和嘉公寓西北门旁(东兰路地铁站2号口步行120米),121.393159,31.154979,15021792338,3.8,[],文化地标|独处品质空间,上海市,上海市,闵行区
B0KR45URGY,灯塔书房X会员聚落·会员悦读空间(徐汇万科广场店),购物服务;专卖店;书店,061205,沪闵路9191号徐汇万科广场4层,121.431132,31.157536,,3.8,[],文化地标|独处品质空间,上海市,上海市,徐汇区
B0L365A1D8,趣入书店,购物服务;专卖店;书店,061205,桂林路95-1号,121.419103,31.165158,13120812907;17749720517,3.8,[],文化地标|独处品质空间,上海市,上海市,徐汇区
B0L1RSBDPG,时代书屋readBOOKS,购物服务;专卖店;书店,061205,北苏州路1040号JK1933,121.472942,31.241181,,4.2,[],文化地标|独处品质空间,上海市,上海市,静安区
B0L34UGJC8,中信书店 谷知谷知,购物服务;专卖店;书店,061205,西藏北路166号上海静安大悦城南座L4层,121.472138,31.242947,,3.8,[],文化地标|独处品质空间,上海市,上海市,静安区
B0FFL7MS7L,鼹鼠部落童书馆(前滩雍萃46店),购物服务;体育用品店;户外用品,060907,芋秋路163弄1-16号前滩雍萃46,121.471216,31.148531,,3.9,[],文化地标|独处品质空间,上海市,上海市,浦东新区
B0FFHTTWQE,光之空间(爱琴海购物中心店),购物服务;专卖店;书店,061205,爱琴海购物中心7层(龙柏新村地铁站3号口步行250米),121.371756,31.173869,,3.7,[],文化地标|独处品质空间,上海市,上海市,闵行区
B0JD5OKKWJ,闵行城市书房(莘社区馆),购物服务;专卖店;书店,061205,黎康路与秀涟路交叉口西100米,121.358631,31.127735,,4.0,[],文化地标|独处品质空间,上海市,上海市,闵行区
B0KA2YC2K8,新页书房,购物服务;专卖店;书店,061205,虹桥当代艺术馆东北门旁,121.387878,31.206117,,3.7,[],文化地标|独处品质空间,上海市,上海市,长宁区
B0JBPD8V01,闵行城市书房·兴梅馆(春申景城湖畔林语店),购物服务;专卖店;书店,061205,兴梅路1123号,121.413611,31.106663,,3.9,[],文化地标|独处品质空间,上海市,上海市,闵行区
B0L6SH5MNH,盘书阅读馆,科教文化服务;科教文化场所;科教文化场所,140000,航中路87号1层(航中路地铁站2号口步行130米),121.355036,31.167260,15821030846,4.0,[],文化地标|独处品质空间,上海市,上海市,闵行区
B0KUF7UTS6,书说恩典翻经书殿,购物服务;专卖店;书店,061205,九江路与江西中路交叉口西60米,121.486364,31.236876,,3.9,[],文化地标|独处品质空间,上海市,上海市,黄浦区
B00151B542,上海圣大燕园书店,购物服务;专卖店;书店,061205,万航渡路1561号,121.418930,31.224057,,3.6,[],文化地标|独处品质空间,上海市,上海市,长宁区
B0J605CSF1,闵行城市书房(基金小镇馆),科教文化服务;科教文化场所;科教文化场所,140000,虹梅路3081号虹桥基金小镇41幢花加玻璃森林2层,121.390298,31.182664,,3.9,[],文化地标|独处品质空间,上海市,上海市,闵行区
B00154BCC1,新城书店(龙茗路),购物服务;专卖店;书店,061205,龙茗路2351号,121.381900,31.158940,,3.7,[],文化地标|独处品质空间,上海市,上海市,闵行区
B0FFGOF12E,琸阅英文童书馆,科教文化服务;培训机构;培训机构,141400,长寿路468号中环商务大厦A楼F1层(长寿路地铁站1号口旁),121.436920,31.240139,,4.0,[],文化地标|独处品质空间,上海市,上海市,普陀区
B0FFFXU4MT,新华书店(环线广场店),购物服务;专卖店;书店,061205,宜山路515号(宜山路地铁站9号口步行420米),121.425661,31.180093,,4.0,[],文化地标|独处品质空间,上海市,上海市,徐汇区
B0J6UCJ6MP,闵行城市书房古美万源馆,科教文化服务;科教文化场所;科教文化场所,140000,万源路550号206室(顾戴路地铁站3号口步行380米),121.395971,31.142014,,3.9,[],文化地标|独处品质空间,上海市,上海市,闵行区
B0FFKSZYVZ,散书堂,科教文化服务;科教文化场所;科教文化场所,140000,顾戴路1100弄新时代花园3号,121.388469,31.139928,18217376956;18638810413,3.9,[],文化地标|独处品质空间,上海市,上海市,闵行区
B0FFKS7683,读者·北站阅读空间,购物服务;专卖店;书店,061205,西藏北路79号读者北站(曲阜路地铁站3号口步行110米),121.471368,31.241882,,3.9,[],文化地标|独处品质空间,上海市,上海市,静安区
B0FFIUSQT7,幸福集荟(番禺路店),购物服务;专卖店;书店,061205,番禺路381号4号楼,121.429741,31.204570,,4.1,[],文化地标|独处品质空间,上海市,上海市,长宁区
B0LK61MJA2,巨人和土豆书店,购物服务;专卖店;书店,061205,万航渡路889号889广场,121.428443,31.229402,,3.8,[],文化地标|独处品质空间,上海市,上海市,静安区
B0J675O4M1,十五号书店,体育休闲服务;娱乐场所;娱乐场所,080300,长乐路339弄15号,121.455469,31.219418,15802131670,4.3,[],文化地标|独处品质空间,上海市,上海市,徐汇区
B0KRCB5FK0,小土豆文具百货店(甘溪路店),购物服务;文化用品店;文化用品店,060800,新泾镇甘溪路350号,121.360348,31.211400,,3.5,[],文化地标|独处品质空间,上海市,上海市,长宁区
B0L14A1CGH,灯塔书房,购物服务;专卖店;书店,061205,上海南站2层(上海南站地铁站4号入口步行100米),121.429521,31.154033,,3.7,[],文化地标|独处品质空间,上海市,上海市,徐汇区
B0HK3HI5VW,朵云书院(皋兰路店),科教文化服务;培训机构;培训机构,141400,皋兰路16号思南书局诗歌店,121.466139,31.217161,,4.0,[],文化地标|独处品质空间,上海市,上海市,黄浦区
B0L0R54P7T,文绮书店,购物服务;专卖店;书店,061205,东华大学出版社一层,121.415373,31.203766,,3.9,[],文化地标|独处品质空间,上海市,上海市,长宁区
B0HAC5W1GM,老文庙琴书阁墙铺&B2-68书店,购物服务;专卖店;书店,061205,福佑路225号福佑商厦B2层门卫旁(安平街10号北门直达电梯到B2层),121.491501,31.228736,13818114209;18918816402,3.7,[],文化地标|独处品质空间,上海市,上海市,黄浦区
B0L2B5JX7B,小红书市集,购物服务;专卖店;书店,061205,局门路与蒙自路交叉口西北40米,121.482925,31.193475,,3.6,[],文化地标|独处品质空间,上海市,上海市,黄浦区
B0L1LKDJ2S,灯塔书房X会员聚落·会员悦读空间(徐汇万科广场店),购物服务;专卖店;书店,061205,沪闵路9191号徐汇万科广场L4层,121.431528,31.157844,,3.5,[],文化地标|独处品质空间,上海市,上海市,徐汇区
B0JBS5P16A,真沫书斋前滩部(前滩悦庭57店),购物服务;专卖店;书店,061205,春眺路11号,121.470648,31.146380,17126678569,4.0,[],文化地标|独处品质空间,上海市,上海市,浦东新区
B0JK9DD8HS,鲸字号书店·HA城市艺术会客厅,购物服务;专卖店;书店,061205,东安路888号下沉广场,121.462869,31.181479,,3.4,[],文化地标|独处品质空间,上海市,上海市,徐汇区
B0K63PSL7C,上海三联书店,公司企业;公司;公司,170200,威海路755号上海报业集团30楼,121.457567,31.225201,,4.1,[],文化地标|独处品质空间,上海市,上海市,静安区
B001557KGS,明心文具,购物服务;专卖店;书店|购物服务;文化用品店;文化用品店,061205|060800,高兴路402号,121.399623,31.111444,18964348926,3.6,[],文化地标|独处品质空间,上海市,上海市,闵行区
B0J257KOMG,翰墨书舍,科教文化服务;培训机构;培训机构,141400,武定路与万春街交叉口南40米,121.438482,31.227907,,3.2,[],文化地标|独处品质空间,上海市,上海市,静安区
B0L0Z5EVPD,梵隅书房,购物服务;专卖店;书店,061205,定西路788号凯阳大厦802,121.424067,31.208877,,3.5,[],文化地标|独处品质空间,上海市,上海市,长宁区
B0IUPDUWIT,天茅文具店,购物服务;文化用品店;文化用品店,060800,水霞小区茅台路597弄,121.389345,31.210207,13817289379,4.1,[],文化地标|独处品质空间,上海市,上海市,长宁区
B0FFKZURW1,静怡文具店,购物服务;文化用品店;文化用品店,060800,田林路静安新城三区,121.383560,31.160711,18355162844,3.8,[],文化地标|独处品质空间,上海市,上海市,闵行区
B0G26HMYLN,微笑稻草人悦读馆,购物服务;专卖店;礼品饰品店|科教文化服务;培训机构;培训机构,061209|141400,永嘉路31号茂名大厦裙房311室,121.463793,31.210833,021-62586991,3.1,[],文化地标|独处品质空间,上海市,上海市,黄浦区
B0K02ZVESO,祥顺书苑,科教文化服务;科教文化场所;科教文化场所,140000,四川中路125弄20号,121.488625,31.234575,,4.1,[],文化地标|独处品质空间,上海市,上海市,黄浦区
B0L0TUAUMP,先锋书屋(绿地缤纷城店),购物服务;专卖店;书店,061205,东安路562号徐汇绿地缤纷城西区(龙华中路地铁站7号口旁),121.456499,31.184057,,3.4,[],文化地标|独处品质空间,上海市,上海市,徐汇区
B0FFH103Z5,周娃藏书房(康健亮都新时代商场),购物服务;专卖店;书店,061205,桂平路108号康健亮都新时代商场F1层,121.412116,31.150669,,3.1,[],文化地标|独处品质空间,上海市,上海市,徐汇区
B0K05SXXCV,阅悦心,科教文化服务;科教文化场所;科教文化场所,140000,鼎力创意园A403(宜山路地铁站8号口步行390米),121.430014,31.181166,19512132557,2.1,[],文化地标|独处品质空间,上海市,上海市,徐汇区
B0FFH180OV,上海琳玲书店,购物服务;专卖店;书店,061205,汇金公寓西南门北90米,121.366585,31.181184,,3.3,[],文化地标|独处品质空间,上海市,上海市,闵行区
B0FFF00KSC,生活、读书、新知、三联书店上海联谊会,政府机构及社会团体;社会团体;社会团体相关,130400,淮海中路与思南路交叉口东北120米,121.466358,31.220598,,3.8,[],文化地标|独处品质空间,上海市,上海市,黄浦区
B0IU571Z97,豆爸的书吧,购物服务;专卖店;书店,061205,静安新城七区南区南门西100米,121.380575,31.157666,,3.8,[],文化地标|独处品质空间,上海市,上海市,闵行区
B0LD0HFW8I,艺术宫书吧,购物服务;专卖店;书店,061205,上南路161号(中华艺术宫地铁站3号口步行80米),121.494068,31.184358,,3.8,[],文化地标|独处品质空间,上海市,上海市,浦东新区
B0JKR6RBJ5,三味书屋(大上海国际花园店),购物服务;专卖店;书店,061205,虹莘路与天豪路交叉口东140米,121.376463,31.161854,,3.8,[],文化地标|独处品质空间,上海市,上海市,闵行区
B0KD35JP2N,灵韵书房(新时代花园店),购物服务;购物相关场所;购物相关场所,060000,顾戴路1100号新时代花园5号商铺,121.388461,31.140167,,3.5,[],文化地标|独处品质空间,上海市,上海市,闵行区
B0LDROLFU0,意间童书屋(心涧文化),科教文化服务;科教文化场所;科教文化场所,140000,龙茗路98、118号5幢2层5-208室,121.391337,31.124424,,3.0,[],文化地标|独处品质空间,上海市,上海市,闵行区
B00155HLPS,知识产品(上海)集散中心,政府机构及社会团体;政府机关;省直辖市级政府及事业单位,130102,宜山路900号科技产业化大楼B幢F1层,121.402028,31.172101,,3.1,[],文化地标|独处品质空间,上海市,上海市,徐汇区
B0JADK33LJ,笑眯眯文具店梅川路店,购物服务;文化用品店;文化用品店,060800,梅川路947弄1-1号金玉苑小区东区,121.392343,31.240113,,4.0,[],文化地标|独处品质空间,上海市,上海市,普陀区
B0L1MKFEAJ,屿桐书苑,科教文化服务;培训机构;培训机构,141400,沪闵路与莲花路交叉口西60米,121.403563,31.133732,,3.3,[],文化地标|独处品质空间,上海市,上海市,闵行区
B0L6GAZO98,零转图书角,购物服务;专卖店;书店,061205,云锦路555号源点大厦3号楼(云锦路地铁站3号口步行50米),121.459096,31.166350,,3.5,[],文化地标|独处品质空间,上海市,上海市,徐汇区
B00155KLZD,文汇书店(上海报业大厦店),购物服务;专卖店;书店,061205,威海路755-757号文新报业大厦,121.457494,31.225451,,3.0,[],文化地标|独处品质空间,上海市,上海市,静安区
B0KK47TJ44,米萊Jump High智高,科教文化服务;培训机构;培训机构,141400,爱琴海购物中心3楼F332,121.373450,31.175440,,3.0,[],文化地标|独处品质空间,上海市,上海市,闵行区
B0LD71ZF2J,尚书房(上海静安大悦城店),购物服务;专卖店;专营店,061200,西藏北路166号上海静安大悦城北座L8层,121.471859,31.243937,,3.0,[],文化地标|独处品质空间,上海市,上海市,静安区
B0ID77NDB7,小红书(上海来福士广场店),购物服务;专卖店;专营店,061200,西藏中路268号上海来福士广场B1层,121.476818,31.231958,,3.7,[],文化地标|独处品质空间,上海市,上海市,黄浦区
B0KU2Z43XV,帆书书店,购物服务;专卖店;书店,061205,淞虹路377号光大安石虹桥中心T5栋2楼,121.359267,31.217279,,3.6,[],文化地标|独处品质空间,上海市,上海市,长宁区
B0LBLUNHCV,扬羽书房,科教文化服务;培训机构;培训机构,141400,漕溪路222号航天大厦南楼(漕宝路地铁站6号口步行310米),121.434375,31.171175,,3.8,[],文化地标|独处品质空间,上海市,上海市,徐汇区
B0L6LO5EXZ,积学书轩,购物服务;专卖店;书店,061205,中山北路辅路与华夏路交叉口西北180米,121.409175,31.229375,,3.3,[],文化地标|独处品质空间,上海市,上海市,普陀区
B0LR3RFF5C,四季同书(第一百货商业中心南京东路店),购物服务;专卖店;专营店,061200,六合路69号第一百货商业中心B馆,121.475266,31.236276,,2.5,[],文化地标|独处品质空间,上海市,上海市,黄浦区
B0LDHLJVH9,柒捌书屋,购物服务;专卖店;书店,061205,七莘路182号182花园办公园区A座F4层,121.377975,31.112275,,3.6,[],文化地标|独处品质空间,上海市,上海市,闵行区
B0L6UZJCTV,零距离书香漂流站,购物服务;专卖店;书店,061205,淮海中路街道淡水路244号,121.473145,31.216966,,3.5,[],文化地标|独处品质空间,上海市,上海市,黄浦区
B0L30RLS9Y,纯真家+书屋,购物服务;购物相关场所;购物相关场所,060000,恒丰路18号臻逸恒丰服务式公寓,121.457874,31.239182,,3.2,[],文化地标|独处品质空间,上海市,上海市,静安区
B0L217TG4F,EPM地下書店,购物服务;专卖店;书店,061205,天钥桥路69弄1-6号科汇小区,121.441975,31.193275,,4.0,[],文化地标|独处品质空间,上海市,上海市,徐汇区
B0L1YXFJLG,帆书,购物服务;购物相关场所;购物相关场所,060000,遵义南路88号协泰中心,121.406225,31.204225,,3.4,[],文化地标|独处品质空间,上海市,上海市,长宁区
B0L1H1XUZ7,淘书乐,购物服务;专卖店;书店,061205,南苏州路与虎丘路交叉口西40米,121.487225,31.243675,,2.9,[],文化地标|独处品质空间,上海市,上海市,黄浦区
B0L1376RA2,原版阅读,购物服务;专卖店;专营店,061200,中星海上名庭3期南门西100米,121.389340,31.240558,,2.6,[],文化地标|独处品质空间,上海市,上海市,普陀区
B0FFJP6W0W,科大讯飞AI学习机专卖店(福州路上海书城店),购物服务;家电电子卖场;数码电子,060306,福州路465号上海书城5楼504-1,121.481322,31.233174,16628591982,4.0,[],文化地标|独处品质空间,上海市,上海市,黄浦区
B0LUBHG3L3,希沃学习机(德必上海书城WE店),购物服务;购物相关场所;购物相关场所,060000,湖北路136号德必上海书城WE F4层,121.481734,31.233242,18121341677,3.6,[],文化地标|独处品质空间,上海市,上海市,黄浦区
B0K3D5UXCF,有道专卖店(上海书城福州路店),购物服务;购物相关场所;购物相关场所,060000,福州路456号(南京东路地铁站4号口步行450米),121.481485,31.233229,15900763126,3.8,[],文化地标|独处品质空间,上海市,上海市,黄浦区
B0FFFGN5FP,欣达文具店晨光文具(番禺路小区店),购物服务;文化用品店;文化用品店,060800,番禺路168号,121.428752,31.206838,13917888773,4.0,[],文化地标|独处品质空间,上海市,上海市,长宁区
B0015798LN,梦幻之翼文具店,购物服务;专卖店;礼品饰品店,061209,钦州南路638-8号,121.417444,31.157850,18930760770,3.0,[],文化地标|独处品质空间,上海市,上海市,徐汇区
B0K2L1EWYT,ByRosso艺术商店(德必上海书城WE店),购物服务;专卖店;专营店,061200,湖北路136号德必上海书城 WE1层101A室,121.481544,31.233211,17316453265,3.7,[],文化地标|独处品质空间,上海市,上海市,黄浦区
B0KUFK4U0T,精之星眼镜书城配镜中心(福州路店),购物服务;专卖店;眼镜店,061204,福州路465号(南京东路地铁站4号口步行460米),121.481394,31.233396,,3.6,[],文化地标|独处品质空间,上海市,上海市,黄浦区
B0GU3XM038,圆梦园文化用品店,购物服务;文化用品店;文化用品店,060800,甘溪路384号,121.359698,31.211451,021-52185283,3.8,[],文化地标|独处品质空间,上海市,上海市,长宁区
B0J0BUTQ01,挹露轩艺术收藏-茶空间(德必上海书城WE店),购物服务;专卖店;专营店,061200,湖北路136号德必上海书城WE F6层,121.481524,31.233130,021-63615169,3.8,[],文化地标|独处品质空间,上海市,上海市,黄浦区
B0IG6UFAAS,养知书屋(福民商厦店)(暂停营业),购物服务;专卖店;书店,061205,新藏宝楼3楼3076(豫园地铁站7号口步行320米),121.492238,31.228271,18703635637,2.5,[],文化地标|独处品质空间,上海市,上海市,黄浦区
B0FFJY1T3W,宏润珠宝(博库书城路店),购物服务;专卖店;珠宝首饰工艺品,061202,宜山路515号博库书城一楼宏润珠宝,121.425825,31.180266,13818675989,4.0,[],文化地标|独处品质空间,上海市,上海市,徐汇区
B0FFKZ2D7R,画家街,购物服务;特色商业街;特色商业街|科教文化服务;培训机构;培训机构,061000|141400,文定路210号,121.432129,31.185787,,4.4,[],文化地标|独处品质空间,上海市,上海市,徐汇区
B001577STI,程十发美术馆,风景名胜;风景名胜相关;旅游景点,110000,虹桥路1398号(伊犁路地铁站3号口步行300米),121.405304,31.197651,021-22506111,4.7,[],文化地标|独处品质空间,上海市,上海市,长宁区
B0FFGJ8XCP,上海海派艺术馆,科教文化服务;科教文化场所;科教文化场所,140000,新镇路1536号,121.358258,31.160573,021-60900668,4.6,[],文化地标|独处品质空间,上海市,上海市,闵行区
B0FFKS9U9H,里森画廊,购物服务;专卖店;古玩字画店,061201,虎丘路27号(南京东路地铁站6号口步行450米),121.487259,31.241327,,4.3,[],文化地标|独处品质空间,上海市,上海市,黄浦区
B0LGLHO9HH,arario gallery阿拉里奥画廊,科教文化服务;科教文化场所;科教文化场所,140000,文安路30号205(曲阜路地铁站2号口步行220米),121.473042,31.241401,,[],[],文化地标|独处品质空间,上海市,上海市,静安区
B0KR279Q99,香格纳画廊(西岸中环),科教文化服务;科教文化场所;科教文化场所,140000,西岸瑞宁路288号4幢,121.468958,31.188370,,[],[],文化地标|独处品质空间,上海市,上海市,徐汇区
B0LR4ZOTM7,上海久事美术馆,科教文化服务;培训机构;培训机构,141400,中山东一路1号2楼3楼,121.491415,31.233539,13774471354,4.4,[],文化地标|独处品质空间,上海市,上海市,黄浦区
B0JAHRCKMA,南柯画廊Nan Ke Gallery,科教文化服务;科教文化场所;科教文化场所,140000,长乐路386弄5号(淮海中路地铁站3号口步行290米),121.461351,31.221218,021-52727270,4.3,[],文化地标|独处品质空间,上海市,上海市,黄浦区
B0HRPB1A76,蓝骑士画廊,购物服务;服装鞋帽皮具店;服装鞋帽皮具店,061100,四川中路133号BNwork一楼,121.488925,31.234625,,4.3,[],文化地标|独处品质空间,上海市,上海市,黄浦区
B0JKJNHUU2,上海徐汇区九点水美术馆,风景名胜;风景名胜相关;旅游景点,110000,桂林路406号华鑫中心6栋1层,121.414770,31.172734,,4.3,[],文化地标|独处品质空间,上海市,上海市,徐汇区
B0J2FZ4IFJ,AMBELIE GALLERY家居画廊(上海),购物服务;购物相关场所;购物相关场所|科教文化服务;科教文化场所;科教文化场所,060000|140000,康平路21号,121.443837,31.204293,15900724072,4.3,[],文化地标|独处品质空间,上海市,上海市,徐汇区
B0KG2H1PSV,The Pool by X Museum(前滩太古里店),科教文化服务;科教文化场所;科教文化场所,140000,东育路500弄(前滩太古里S-L2-44)Tiffany旁扶梯上二层,121.482228,31.152044,13162884321,4.3,[],文化地标|独处品质空间,上海市,上海市,浦东新区
B0G26XO5AW,尚艺画廊,科教文化服务;科教文化场所;科教文化场所,140000,东安路888号13幢,121.462482,31.181354,15601697114,3.9,[],文化地标|独处品质空间,上海市,上海市,徐汇区
B0FFHC4OLD,言午画廊(上海七宝宝龙城店),科教文化服务;科教文化场所;科教文化场所,140000,新镇路1399号宝龙大厦1层东北角,121.356806,31.158060,021-52271999,4.2,[],文化地标|独处品质空间,上海市,上海市,闵行区
B0FFFDMG97,上海美术馆-2展厅,科教文化服务;科教文化场所;科教文化场所,140000,上南路205号上海美术馆内,121.494132,31.184379,,4.4,[],文化地标|独处品质空间,上海市,上海市,浦东新区
B0J2UZNAX8,Vanguard画廊,科教文化服务;科教文化场所;科教文化场所,140000,曲阜路9弄B1-08(曲阜路地铁站5号口步行360米),121.475587,31.242173,021-52522551;021-62993523,4.3,[],文化地标|独处品质空间,上海市,上海市,静安区
B0GKZD83AD,工作室画廊 Studio Gallery,科教文化服务;科教文化场所;科教文化场所,140000,长乐路888号地下一层(常熟路地铁站8号口步行440米),121.446713,31.215964,021-34700929;17301625896,4.2,[],文化地标|独处品质空间,上海市,上海市,静安区
B0L2RAM3GE,MOND时光画廊欧洲古董版画,购物服务;专卖店;专营店,061200,巨鹿路741号蓝宝石公寓一楼南三室,121.452138,31.220274,13262663625,3.9,[],文化地标|独处品质空间,上海市,上海市,静安区
B0FFHC0H3P,一凡画廊(大地大楼店),购物服务;专卖店;古玩字画店,061201,文定路228号B118,121.431503,31.185973,13167212073,4.1,[],文化地标|独处品质空间,上海市,上海市,徐汇区
B0FFHFQ3CB,BANK画廊,购物服务;专卖店;古玩字画店,061201,安福路298弄2号楼,121.440994,31.213635,,4.0,[],文化地标|独处品质空间,上海市,上海市,徐汇区
B0LKVA3K67,大美术馆 BigGallery(武康大楼店),科教文化服务;科教文化场所;科教文化场所,140000,淮海中路1974号,121.437086,31.203576,,4.1,[],文化地标|独处品质空间,上海市,上海市,长宁区
B00154SU8U,圣仕画廊(茂名南路店),购物服务;专卖店;古玩字画店,061201,茂名南路22弄小区北门旁,121.460221,31.222822,021-62581182;13816315993,3.8,[],文化地标|独处品质空间,上海市,上海市,黄浦区
B0FFI0DIWG,MD画廊,风景名胜;风景名胜相关;旅游景点,110000,外滩街道外滩街道北京东路256号一楼,121.485151,31.240691,,4.0,[],文化地标|独处品质空间,上海市,上海市,黄浦区
B0LKMR7I80,大美术馆 BigGallery(淮海中路店),购物服务;专卖店;专营店,061200,淮海中路595号,121.467647,31.220268,,4.0,[],文化地标|独处品质空间,上海市,上海市,黄浦区
B0LGHHTM8J,旺无名画廊,科教文化服务;科教文化场所;科教文化场所,140000,宜山路660号三楼(桂林路地铁站1号口步行80米),121.419776,31.175686,,3.8,[],文化地标|独处品质空间,上海市,上海市,徐汇区
B0FFF90FRU,亚茂大画廊,科教文化服务;科教文化场所;科教文化场所,140000,福州路412号2层(南京东路地铁站4号口步行360米),121.482482,31.233958,021-33040848,3.9,[],文化地标|独处品质空间,上海市,上海市,黄浦区
B0FFMHSQUG,博艺画廊(盛大花园店),购物服务;专卖店;古玩字画店|科教文化服务;科教文化场所;科教文化场所,061201|140000,龙华路2556号(龙华地铁站出入口步行270米),121.452938,31.177204,13918232782,3.7,[],文化地标|独处品质空间,上海市,上海市,徐汇区
B0K03DN4DL,香格纳画廊(东鼎苏河湾店),科教文化服务;科教文化场所;科教文化场所,140000,文安路30号2楼204(曲阜路地铁站2号口步行220米),121.472967,31.241428,,[],[],文化地标|独处品质空间,上海市,上海市,静安区
B00156TM32,博艺画廊裱画配框字画,购物服务;专卖店;古玩字画店|生活服务;生活服务场所;生活服务场所,061201|070000,宛平南路215号,121.446373,31.193698,13501793291;13636351009,4.2,323.00,文化地标|独处品质空间,上海市,上海市,徐汇区
B0FFJ3A66D,上海雅颂轩画廊,生活服务;生活服务场所;生活服务场所,070000,中福古玩城二楼2C26(人民广场地铁站14号口步行350米),121.479279,31.233619,13818169204,3.9,[],文化地标|独处品质空间,上海市,上海市,黄浦区
B0FFGZHW5F,永真画廊,购物服务;专卖店;古玩字画店,061201,龙华路2578号(龙华地铁站出入口步行220米),121.453070,31.176790,18701756569,3.3,[],文化地标|独处品质空间,上海市,上海市,徐汇区
B0L2Z53EJU,宋洋美术馆(上海馆),科教文化服务;科教文化场所;科教文化场所,140000,淮海中路523号,121.468997,31.220486,,4.0,[],文化地标|独处品质空间,上海市,上海市,黄浦区
B00155A6YY,洁思园画廊有限公司,购物服务;专卖店;古玩字画店,061201,武康路437号(交通大学地铁站7号口步行450米),121.438365,31.204727,021-64339703,3.8,[],文化地标|独处品质空间,上海市,上海市,徐汇区
B0FFGBXVVG,上源艺术画廊(大地大楼店),购物服务;专卖店;古玩字画店,061201,文定路218号画家街B120号,121.431441,31.186041,13127658049,3.8,[],文化地标|独处品质空间,上海市,上海市,徐汇区
B0KD3HXVBO,GALERIE DEBUT画廊,公司企业;公司;公司,170200,常熟路100弄派司公寓1号楼203室,121.446980,31.216713,,[],[],文化地标|独处品质空间,上海市,上海市,静安区
B0JKKMD2U9,上海古籍画廊,购物服务;专卖店;古玩字画店,061201,肇嘉浜路407号中国科学院上海分院研究生公寓,121.458023,31.201704,021-63331588;13361831576,3.4,[],文化地标|独处品质空间,上海市,上海市,徐汇区
B0L0HORPQH,永瞬畫廊,购物服务;专卖店;专营店,061200,武定路550号,121.449712,31.233345,,3.6,[],文化地标|独处品质空间,上海市,上海市,静安区
B00155GBK1,虹墙画廊(大地大楼店),购物服务;专卖店;古玩字画店,061201,文定路218号B158虹墙画廊,121.432225,31.186025,13062785228;18217409539,3.6,[],文化地标|独处品质空间,上海市,上海市,徐汇区
B0KKA7T7FX,米勒画室艺歌斯画廊,科教文化服务;培训机构;培训机构,141400,罗锦路218号麦腾未来城5号楼1楼103,121.414502,31.121710,13122182929,3.4,[],文化地标|独处品质空间,上海市,上海市,闵行区
B0LRMRYDET,PROTOTYPE GALLERY原型画廊,科教文化服务;科教文化场所;科教文化场所,140000,曲阜路9弄B1层10号(曲阜路地铁站5号口步行340米),121.475550,31.242273,17638883178,4.1,[],文化地标|独处品质空间,上海市,上海市,静安区
B0FFF422OR,桑浦美术馆,科教文化服务;科教文化场所;科教文化场所,140000,江宁路356号-5号楼,121.453365,31.234227,,3.5,[],文化地标|独处品质空间,上海市,上海市,静安区
B0LDJCXP3N,字启东方书法画廊,科教文化服务;培训机构;培训机构,141400,淡水路256弄5号,121.473055,31.216593,18321486934,3.7,[],文化地标|独处品质空间,上海市,上海市,黄浦区
B0FFKTE4SY,艺禾美术馆(1街坊店),科教文化服务;科教文化场所;科教文化场所,140000,凌云壹街坊三楼,121.425625,31.135225,021-54155606;18049750084,3.5,[],文化地标|独处品质空间,上海市,上海市,徐汇区
B0FFKJOSEV,R&K·ART洛克艺术画廊,购物服务;购物相关场所;购物相关场所,060000,吴中路1265号剪刀石头布A馆3楼,121.379740,31.174752,13817548888,3.6,[],文化地标|独处品质空间,上海市,上海市,闵行区
B0LKL5980L,创义画廊,科教文化服务;科教文化场所;科教文化场所,140000,虹梅路3721号虹桥珍珠城三楼339号,121.384085,31.191285,13611813820,2.9,[],文化地标|独处品质空间,上海市,上海市,长宁区
B0JD21M0HK,典尚画廊(梧桐画室),购物服务;购物相关场所;购物相关场所,060000,陕西南路307弄1号1802-2,121.462402,31.206333,021-51797966;13818474461,3.2,[],文化地标|独处品质空间,上海市,上海市,黄浦区
B0HKYHU4LL,Gallery MG是说画廊,公司企业;公司;公司,170200,上南路135号(中华艺术宫地铁站4号口步行220米),121.492386,31.186284,,3.3,[],文化地标|独处品质空间,上海市,上海市,浦东新区
B0LRJZGVOA,上海星空艺术馆,体育休闲服务;体育休闲服务场所;体育休闲服务场所,080000,南京路步行街353号,121.483308,31.236642,13122788082,4.5,[],文化地标|独处品质空间,上海市,上海市,黄浦区
B0I0ZZBMM0,坚春天私人画廊,科教文化服务;科教文化场所;科教文化场所,140000,长乐路434弄29号102室,121.458953,31.221016,,[],[],文化地标|独处品质空间,上海市,上海市,黄浦区
B0MBYU5KZW,九春画廊,科教文化服务;科教文化场所;科教文化场所,140000,延安西路376弄28号商铺,121.438424,31.219118,,3.0,[],文化地标|独处品质空间,上海市,上海市,静安区
B0LAALPSSX,BANK画廊(何东旧居新址),科教文化服务;科教文化场所;科教文化场所,140000,陕西北路457号1幢四层,121.452461,31.230394,,3.9,[],文化地标|独处品质空间,上海市,上海市,静安区
B0HD5ZGSCZ,上海长宁王小慧艺术馆,科教文化服务;科教文化场所;科教文化场所,140000,威宁路369号(威宁路地铁站3号口步行230米),121.384445,31.214504,021-60191730,4.3,[],文化地标|独处品质空间,上海市,上海市,长宁区
B0FFJ44XJ2,夕才儿美术馆,风景名胜;风景名胜相关;旅游景点,110000,仙霞路99号尚嘉中心LG2层,121.407069,31.205842,,3.1,[],文化地标|独处品质空间,上海市,上海市,长宁区
B0FFGBPKOC,画林画廊,科教文化服务;科教文化场所;科教文化场所,140000,文定路218号画家街C101,121.431051,31.186080,15001952903,4.0,[],文化地标|独处品质空间,上海市,上海市,徐汇区
B0HBOKIOMA,胡问遂艺术馆,科教文化服务;科教文化场所;科教文化场所,140000,福佑路199号(豫园地铁站7号口步行320米),121.492790,31.228361,021-63309897,4.4,[],文化地标|独处品质空间,上海市,上海市,黄浦区
B0K0GM39B2,一语鱼画廊·ZHANGYU Gallery,科教文化服务;培训机构;培训机构,141400,3F-316(南京西路地铁站1号口步行390米),121.455648,31.227833,,3.5,[],文化地标|独处品质空间,上海市,上海市,静安区
B0FFKP7YRB,中福古玩城文宝堂画廊(中福城店),购物服务;专卖店;古玩字画店,061201,湖北路199弄中福城一期,121.479322,31.233519,,3.7,[],文化地标|独处品质空间,上海市,上海市,黄浦区
B0L1PU6I51,小薇画廊,科教文化服务;科教文化场所;科教文化场所,140000,鲁班路100号大同古玩殿一楼118号小薇画廊,121.473294,31.206906,,3.3,[],文化地标|独处品质空间,上海市,上海市,黄浦区
B0G1OZFCHU,上海青峰堂画廊(大同花园店),购物服务;专卖店;古玩字画店,061201,鲁班路100号1楼112-113室,121.472858,31.206655,13651746306,3.4,[],文化地标|独处品质空间,上海市,上海市,黄浦区
B0JR5US4X5,张渊艺术馆,科教文化服务;科教文化场所;科教文化场所,140000,庙泾路与七莘路交叉口西60米,121.375160,31.114298,,4.4,[],文化地标|独处品质空间,上海市,上海市,闵行区
B0FFHPMN91,菲林艺术画廊(安宁邨店),购物服务;专卖店;古玩字画店,061201,陕西南路257号菲林画廊,121.461842,31.207994,13917425950,3.5,[],文化地标|独处品质空间,上海市,上海市,黄浦区
B0JGKLT1DD,上海只是儿童艺术馆,科教文化服务;科教文化场所;科教文化场所,140000,乌鲁木齐南路155号,121.449446,31.202921,,4.2,[],文化地标|独处品质空间,上海市,上海市,徐汇区
B00155GK65,沈利画廊(大地大楼店),购物服务;专卖店;古玩字画店,061201,文定路218号大地大楼F1层,121.431233,31.186292,13681692859,3.0,[],文化地标|独处品质空间,上海市,上海市,徐汇区
B0FFJ3I5VJ,上海恩理禾艺术馆,科教文化服务;科教文化场所;科教文化场所,140000,武夷路84号,121.429283,31.213656,021-52358651,4.2,[],文化地标|独处品质空间,上海市,上海市,长宁区
B001574SKW,朵云艺术馆,科教文化服务;科教文化场所;科教文化场所,140000,南京东路422号朵云轩4层(南京东路山西南路),121.482145,31.236699,,4.3,[],文化地标|独处品质空间,上海市,上海市,黄浦区
B0FFLF87NP,剑川艺术馆,科教文化服务;博物馆;博物馆,140100,乌鲁木齐南路193号(肇嘉浜路地铁站2号口步行170米),121.450152,31.200717,15301679396,4.2,[],文化地标|独处品质空间,上海市,上海市,徐汇区
B0KKNO8TED,致绘艺术馆,科教文化服务;科教文化场所;科教文化场所,140000,吴中路1377号金百亿商务楼1楼C座,121.374685,31.171493,,3.7,[],文化地标|独处品质空间,上海市,上海市,闵行区
B0L6NZTPDD,上海驰翰美术馆,科教文化服务;科教文化场所;科教文化场所,140000,西藏南路765号1503室(老西门地铁站2号口步行340米),121.485021,31.215626,,3.5,[],文化地标|独处品质空间,上海市,上海市,黄浦区
B0L3AST33P,上海光影美术馆,科教文化服务;科教文化场所;科教文化场所,140000,北苏州路与浙江北路交叉口东60米,121.477175,31.241625,,3.6,[],文化地标|独处品质空间,上海市,上海市,静安区
B0MBACA4FN,世纪画廊,科教文化服务;科教文化场所;科教文化场所,140000,先锋街与阿拉街交叉口南160米,121.373222,31.174930,,1.6,[],文化地标|独处品质空间,上海市,上海市,闵行区
B0MB6UNIBK,后花园花架画廊,风景名胜;风景名胜;风景名胜,110200,万航渡路与凯旋路辅路交叉口东220米,121.415975,31.223475,,[],[],文化地标|独处品质空间,上海市,上海市,长宁区
B0LGOL7UEU,科普画廊,科教文化服务;科教文化场所;科教文化场所,140000,环东一路与漕宝路交叉口东南200米,121.368986,31.156597,,3.3,[],文化地标|独处品质空间,上海市,上海市,闵行区
B0LDVR6WXQ,文宝堂画廊,科教文化服务;科教文化场所;科教文化场所,140000,鲁班路辅路与丽园路交叉口西北80米,121.473304,31.206774,,2.4,[],文化地标|独处品质空间,上海市,上海市,黄浦区
B0LBC55M2X,上海新美美术馆,科教文化服务;科教文化场所;科教文化场所,140000,桂箐路与宜山路交叉口西北80米,121.404932,31.172841,,3.0,[],文化地标|独处品质空间,上海市,上海市,徐汇区
B0L3TH87CR,YK画廊,科教文化服务;科教文化场所;科教文化场所|购物服务;专卖店;专营店,140000|061200,石门一路288号兴业太古汇(南京西路地铁站6号口步行60米),121.463168,31.228453,,2.1,[],文化地标|独处品质空间,上海市,上海市,静安区
B0L3H7AA8W,上海聚叶画廊,购物服务;购物相关场所;购物相关场所,060000,水城路488号(近茅台路)俪人街商场,121.391200,31.209615,,2.6,[],文化地标|独处品质空间,上海市,上海市,长宁区
B0L0RO75V1,MOMO画廊,科教文化服务;培训机构;培训机构,141400,乐山支路与秀山支路交叉口北160米,121.429225,31.197875,,1.6,[],文化地标|独处品质空间,上海市,上海市,徐汇区
B0L02MNLVS,上海外滩美术馆工作室,科教文化服务;科教文化场所;科教文化场所,140000,虎丘路27号1M,121.487532,31.241214,,3.3,[],文化地标|独处品质空间,上海市,上海市,黄浦区
B0KUFC8DZD,巴塞美术馆,风景名胜;风景名胜相关;旅游景点,110000,钦州路与漕宝路交叉口北260米,121.430100,31.170525,,3.2,[],文化地标|独处品质空间,上海市,上海市,徐汇区
B0KUBRVD44,佛们水九点美术馆,风景名胜;风景名胜相关;旅游景点,110000,柳州路与宜山路交叉口西140米,121.420145,31.176472,,2.8,[],文化地标|独处品质空间,上海市,上海市,徐汇区
B0HD2SBBJT,慧仁轩海派名家画廊(汇宝楼店),购物服务;专卖店;古玩字画店,061201,龙茗路1555号汇宝楼二楼38室,121.383181,31.147644,,3.2,[],文化地标|独处品质空间,上海市,上海市,闵行区
B0G3TUPL4I,花花田儿童美术&绘本馆,科教文化服务;培训机构;培训机构,141400,古美路35号316室,121.403237,31.136793,13061953609,3.9,[],文化地标|独处品质空间,上海市,上海市,闵行区
B0LRG7TBDE,魔都视觉艺术馆,体育休闲服务;体育休闲服务场所;体育休闲服务场所,080000,人民广场来福士商场5层舞蹈室左侧,121.476408,31.232410,17316865183,4.1,[],文化地标|独处品质空间,上海市,上海市,黄浦区
B0KDSHRJOV,深空未来剧场,体育休闲服务;影剧院;剧场,080603,龙腾大道2600号西海岸美术馆B1,121.463860,31.167701,,4.1,[],文化地标|体育休闲|独处品质空间,上海市,上海市,徐汇区
B0H39DRRH9,汇艺术馆(淮海中路馆),科教文化服务;科教文化场所;科教文化场所,140000,淮海中路1400号(常熟路地铁站7号口步行210米),121.448409,31.211247,17721211822,4.0,[],文化地标|独处品质空间,上海市,上海市,徐汇区
B0FFLCID82,衡复艺术中心,风景名胜;风景名胜相关;旅游景点,110000,乌鲁木齐南路178号1号楼(衡山路地铁站1号口步行410米),121.449008,31.203268,,4.4,[],文化地标|独处品质空间,上海市,上海市,徐汇区
B0H2JDTYP6,爱佳装饰艺术馆,公司企业;公司;广告装饰,170201,上海中誉市政开发有限公司东南门旁,121.425249,31.180721,15061976221,4.0,[],文化地标|独处品质空间,上海市,上海市,徐汇区
B0KUFC8TF3,苍天书画馆,风景名胜;风景名胜相关;旅游景点,110000,泰康路与瑞金二路交叉口东北200米,121.468858,31.208164,,3.2,[],文化地标|独处品质空间,上海市,上海市,黄浦区
B0HK3RT6Y2,内画艺术馆,科教文化服务;科教文化场所;科教文化场所,140000,泰康路与瑞金二路交叉口东北120米,121.468139,31.207751,,2.0,[],文化地标|独处品质空间,上海市,上海市,黄浦区
B0G3AOJRMF,茁青艺术馆,科教文化服务;科教文化场所;科教文化场所,140000,春申路2525号芭洛商务中心F1层,121.414268,31.109440,,2.1,[],文化地标|独处品质空间,上海市,上海市,闵行区
B0GRMH0UW4,嘉澜庭口袋公园,风景名胜;公园广场;公园,110101,永嘉路309号,121.458472,31.209178,,4.2,[],风景名胜|独处品质空间,上海市,上海市,徐汇区
B00155Q8RP,G60高速防护林口袋公园,风景名胜;公园广场;公园,110101,沪闵公路与莘建路交叉口东北角,121.380487,31.109582,,3.9,[],风景名胜|独处品质空间,上海市,上海市,闵行区
B0FFH99DEV,新泾礼拜堂,风景名胜;风景名胜;教堂,110206,哈密路西(北新泾地铁站1号口步行440米),121.377196,31.218071,021-52189950,4.2,[],风景名胜|独处品质空间,上海市,上海市,长宁区
B001550WL3,大田路天主堂,风景名胜;风景名胜;教堂,110206,大田路370号(自然博物馆地铁站2号口步行160米),121.462659,31.236651,,4.1,[],风景名胜|独处品质空间,上海市,上海市,静安区
B00155R0AQ,天主教上海教区怒江路圣母圣心堂,风景名胜;风景名胜;教堂,110206,怒江路638号,121.398361,31.236946,021-62229113,4.1,[],风景名胜|独处品质空间,上海市,上海市,普陀区
B00154CF4F,救恩堂,风景名胜;风景名胜;教堂,110206,上钢新村街道上钢新村街道上钢新村街道上钢新村街道耀华路439号,121.483043,31.173433,021-58452566,4.2,[],风景名胜|独处品质空间,上海市,上海市,浦东新区
B00153A24A,新恩堂,风景名胜;风景名胜;教堂,110206,乌鲁木齐北路25号(武定路地铁站2号口步行480米),121.440830,31.224723,021-62580451,4.2,[],风景名胜|独处品质空间,上海市,上海市,静安区
B00157GETR,惠中堂,风景名胜;风景名胜;教堂,110206,徐家汇路40-1号,121.480901,31.211334,021-63202456,4.0,[],风景名胜|独处品质空间,上海市,上海市,黄浦区
B001572NGS,息焉堂,风景名胜;风景名胜;教堂,110206,可乐路17号(近哈密路),121.367066,31.205021,021-52199769,4.2,[],风景名胜|独处品质空间,上海市,上海市,长宁区
B00155AMEJ,龙华寺,风景名胜;风景名胜;寺庙道观,110205,龙华路2853号(近龙华西路),121.451842,31.175174,021-64566085;021-64571440,4.8,[],风景名胜|独处品质空间,上海市,上海市,徐汇区
B00154SLJR,七宝教寺,风景名胜;风景名胜;寺庙道观,110205,新镇路1205号,121.357706,31.154427,021-54861957,4.4,[],风景名胜|独处品质空间,上海市,上海市,闵行区
B00154BDE9,静安寺,风景名胜;风景名胜;寺庙道观,110205,南京西路1686号(静安寺地铁站1号口步行60米),121.445320,31.223505,021-62566366,4.8,[],风景名胜|独处品质空间,上海市,上海市,静安区
B00156R4V8,集心路天主堂,风景名胜;风景名胜;教堂,110206,梅陇镇集心路9号,121.413300,31.108105,,3.8,[],风景名胜|独处品质空间,上海市,上海市,闵行区
B00155KK41,天主教上海教区金家圣母无原罪始胎堂,风景名胜;风景名胜;教堂,110206,遵义南路98号(近仙霞路),121.406149,31.204741,021-62090264,3.9,[],风景名胜|独处品质空间,上海市,上海市,长宁区
B00154G2X1,上海佛教居士林,风景名胜;风景名胜;寺庙道观,110205,常德路418号,121.447061,31.228105,021-62794445;021-62179900,4.1,[],风景名胜|独处品质空间,上海市,上海市,静安区
B001513753,基督教国际礼拜堂,风景名胜;风景名胜;教堂,110206,衡山路53号,121.448059,31.206195,021-64376576,4.3,[],风景名胜|独处品质空间,上海市,上海市,徐汇区
B0FFFCKMON,宁国禅寺,风景名胜;风景名胜;寺庙道观,110205,华泾路858号,121.449557,31.120315,021-64966369,4.6,[],风景名胜|独处品质空间,上海市,上海市,徐汇区
B00155R1B1,玉佛禅寺,风景名胜;风景名胜;寺庙道观,110205,安远路170号,121.445125,31.241445,021-62663668,4.8,[],风景名胜|独处品质空间,上海市,上海市,普陀区
B00155N0H5,法藏讲寺,风景名胜;风景名胜;寺庙道观,110205,吉安路271号(老西门地铁站4号口步行230米),121.481494,31.217887,021-63289986,4.3,[],风景名胜|独处品质空间,上海市,上海市,黄浦区
B00150EBD7,上海基督教沪西礼拜堂,风景名胜;风景名胜;教堂,110206,长宁路1465号,121.409592,31.216747,021-62597389;021-62736323,4.1,[],风景名胜|独处品质空间,上海市,上海市,长宁区
B00156NUA8,天主教上海教区曹家渡圣弥额尔总领天神堂,风景名胜;风景名胜;教堂,110206,华阳街道万航渡路1066号,121.426281,31.229265,021-62521055,4.1,[],风景名胜|独处品质空间,上海市,上海市,长宁区
B00155QL3G,七宝天主堂,风景名胜;风景名胜;教堂,110206,七宝南街50号,121.355662,31.150152,021-64799317,4.3,[],风景名胜|独处品质空间,上海市,上海市,闵行区
B00155QGIU,南七宝寺,风景名胜;风景名胜;寺庙道观,110205,七宝镇步行街,121.357226,31.152873,,4.1,[],风景名胜|独处品质空间,上海市,上海市,闵行区
B00155LLO3,上海基督教沐恩堂,风景名胜;风景名胜;教堂,110206,西藏中路316号(人民广场地铁站14号口步行50米),121.475855,31.233273,021-63225069,4.3,[],风景名胜|独处品质空间,上海市,上海市,黄浦区
B00156YOS9,天主教上海教区紫阳玫瑰圣母堂,风景名胜;风景名胜;教堂,110206,龙吴路2573号,121.455677,31.114547,,3.7,[],风景名胜|独处品质空间,上海市,上海市,徐汇区
B0FFG6PWC6,静安寺-山门,风景名胜;风景名胜;寺庙道观,110205,南京西路1686号静安寺内(静安寺地铁站1号口旁),121.445565,31.223043,021-62566366,4.0,[],风景名胜|独处品质空间,上海市,上海市,静安区
B0FFG7MLPP,三一堂,风景名胜;风景名胜;教堂,110206,浦星公路290号,121.494177,31.126763,021-58491004,4.1,[],风景名胜|独处品质空间,上海市,上海市,浦东新区
B00155L12A,上海市基督教怀恩堂,风景名胜;风景名胜;教堂,110206,陕西北路375号,121.453235,31.229195,021-62539394,4.2,[],风景名胜|独处品质空间,上海市,上海市,静安区
B00154815D,天主教上海教区主教府(不对外开放),风景名胜;风景名胜;教堂,110206,蒲西路120号,121.436967,31.191547,021-64412211,4.1,[],风景名胜|独处品质空间,上海市,上海市,徐汇区
B0FFG9TGMJ,七宝耶稣堂,风景名胜;风景名胜;教堂,110206,七莘路1664号(七莘路地铁站1号口步行330米),121.363930,31.134459,,4.1,[],风景名胜|独处品质空间,上海市,上海市,闵行区
B00156EJJ8,法华学问寺,风景名胜;风景名胜;寺庙道观,110205,华夏西路399号,121.468220,31.146340,,4.1,[],风景名胜|独处品质空间,上海市,上海市,浦东新区
B0FFGPRB77,外滩源33-联合教堂,风景名胜;风景名胜;教堂,110206,南苏州路107号,121.488380,31.243251,,4.2,[],风景名胜|独处品质空间,上海市,上海市,黄浦区
B0G0RUD7H4,天主教君王堂,风景名胜;风景名胜;教堂,110206,巨鹿路361号,121.460071,31.222778,021-62174608,4.3,[],风景名胜|独处品质空间,上海市,上海市,黄浦区
B00155LALJ,新乐路东正教堂,风景名胜;风景名胜;教堂,110206,新乐路55号,121.455412,31.217449,,4.2,[],风景名胜|独处品质空间,上海市,上海市,徐汇区
B00154DRUO,上海市基督教诸圣堂,风景名胜;风景名胜;教堂,110206,淮海中路街道复兴中路425号(近淡水路),121.473625,31.215542,021-63850906,4.2,[],风景名胜|独处品质空间,上海市,上海市,黄浦区
B00155KKVR,圣三一堂,风景名胜;风景名胜;教堂,110206,河南中路220号(南京东路地铁站3号口步行420米),121.486311,31.236481,,4.5,[],风景名胜|独处品质空间,上海市,上海市,黄浦区
B00156E2UE,三泾庙,风景名胜;风景名胜;寺庙道观,110205,凯旋路513号(中山公园地铁站3号口步行340米),121.416781,31.214477,021-62412538,4.2,[],风景名胜|独处品质空间,上海市,上海市,长宁区
B00154296F,天主教上海教区重庆南路圣伯多禄堂,风景名胜;风景名胜;教堂,110206,重庆南路270号,121.469951,31.213436,021-64678080,4.0,[],风景名胜|独处品质空间,上海市,上海市,黄浦区
B00155LZG3,西摩会堂,风景名胜;风景名胜;教堂,110206,陕西北路500号,121.452765,31.231729,,4.0,[],风景名胜|独处品质空间,上海市,上海市,静安区
B00157HXJK,上海基督教青年会,风景名胜;风景名胜;风景名胜,110200,四川中路595-607号,121.486208,31.241954,,3.8,[],风景名胜|独处品质空间,上海市,上海市,黄浦区
B0FFFDVUIX,正觉堂,风景名胜;风景名胜;省级景点,110203,南京西路1686号静安寺内(静安寺地铁站1号口步行120米),121.445258,31.223298,021-62566366,3.4,[],风景名胜|独处品质空间,上海市,上海市,静安区
B0FFHTTZS1,源吉兆庵(久光店),风景名胜;风景名胜;纪念馆,110204,南京西路1618号久光百货B1楼近华山路,121.446215,31.223586,,3.3,[],风景名胜|独处品质空间,上海市,上海市,静安区
B0FFGRDJ07,观音堂,风景名胜;风景名胜;寺庙道观,110205,浦江镇罗汉松403号,121.481528,31.126318,,4.0,[],风景名胜|独处品质空间,上海市,上海市,浦东新区
B0K1BUWEVW,道母觀(聚福风水馆),风景名胜;风景名胜;寺庙道观,110205,上中路558号,121.442730,31.139856,17317511179,3.5,[],风景名胜|独处品质空间,上海市,上海市,徐汇区
B0FFK2T37V,沉香阁-佛教寺院,风景名胜;风景名胜;寺庙道观,110205,沉香阁路与旧校场路交叉口西60米,121.490121,31.227253,021-63203431,4.0,[],风景名胜|独处品质空间,上海市,上海市,黄浦区
B0FFG1JEGF,七宝教寺-观音殿,风景名胜;风景名胜;寺庙道观,110205,七宝镇新镇路1205号七宝教寺天王殿内,121.357971,31.154686,021-54861957,3.6,[],风景名胜|独处品质空间,上海市,上海市,闵行区
B0FFFDVDPL,静安寺-观音殿,风景名胜;风景名胜;寺庙道观,110205,南京西路1686号静安寺内(静安寺地铁站1号口步行100米),121.445537,31.223350,021-62566366,3.9,[],风景名胜|独处品质空间,上海市,上海市,静安区
B00151A7A4,沈香阁(福源商厦城隍庙店),购物服务;专卖店;珠宝首饰工艺品|风景名胜;风景名胜;寺庙道观,061202|110205,沉香阁路29号(豫园地铁站7号口步行380米),121.490021,31.227389,021-63203431;021-63555508;18701902062,3.8,[],风景名胜|独处品质空间,上海市,上海市,黄浦区
B0FFGR7C6V,西昌寺,风景名胜;风景名胜;寺庙道观,110205,三林镇西林街131弄29号,121.494567,31.133725,,3.9,[],风景名胜|独处品质空间,上海市,上海市,浦东新区
B0FFFSJ9C0,法华禅寺,风景名胜;风景名胜;寺庙道观,110205,哈密路1333号,121.365288,31.204150,021-62519822,4.2,[],风景名胜|独处品质空间,上海市,上海市,长宁区
B0FFJYQAG0,金皇城庙(城隍庙第一购物中心),风景名胜;风景名胜;寺庙道观,110205,丽水路88号F3层(豫园地铁站7号口步行270米),121.490005,31.228362,,3.9,[],风景名胜|独处品质空间,上海市,上海市,黄浦区
B0FFG6PWC2,静安寺-客堂,风景名胜;风景名胜;寺庙道观,110205,南京西路1686号静安寺内(静安寺地铁站1号口步行120米),121.445260,31.223046,021-62566366,3.7,[],风景名胜|独处品质空间,上海市,上海市,静安区
B0FFG6PWBY,静安寺-西厢房,风景名胜;风景名胜;寺庙道观,110205,南京西路1686号静安寺内(静安寺地铁站1号口步行60米),121.445030,31.223367,021-62566366,3.1,[],风景名胜|独处品质空间,上海市,上海市,静安区
B0FFFDKGME,静安寺-鼓楼,风景名胜;风景名胜;寺庙道观,110205,南京西路1686号静安寺内(静安寺地铁站1号口旁),121.445221,31.223091,021-62566366,3.1,[],风景名胜|独处品质空间,上海市,上海市,静安区
B0LAGCUHC8,沉香阁,风景名胜;风景名胜;寺庙道观,110205,豫园街道沉香阁路29号(豫园地铁站7号口步行330米),121.490155,31.227448,021-63203431,4.2,[],风景名胜|独处品质空间,上海市,上海市,黄浦区
B0FFL7ZNK8,静安寺-般若,风景名胜;风景名胜;寺庙道观,110205,南京西路静安寺(静安寺地铁站1号口步行70米),121.445701,31.223114,021-62566366,3.4,[],风景名胜|独处品质空间,上海市,上海市,静安区
B0FFH83QU1,玉佛禅寺-解脱,风景名胜;风景名胜;寺庙道观,110205,安远路170号玉佛禅寺(江宁路地铁站4号口步行490米),121.445234,31.241137,021-62663668,4.0,[],风景名胜|独处品质空间,上海市,上海市,普陀区
B00155FBCF,玉佛禅寺-真觉之门,风景名胜;风景名胜;寺庙道观,110205,安远路170号玉佛禅寺(江宁路地铁站3号口步行370米),121.445217,31.241963,021-62663668,4.2,[],风景名胜|独处品质空间,上海市,上海市,普陀区
B0L247PBS7,来福好寺(新世界城店),风景名胜;风景名胜;寺庙道观,110205,凤阳路与长沙路交叉口东60米,121.473547,31.235168,,3.3,[],风景名胜|独处品质空间,上海市,上海市,黄浦区
B0KUFCUTG4,朝隐寺库,风景名胜;风景名胜;寺庙道观,110205,肇嘉浜路与高安路交叉口西60米,121.447033,31.198908,,3.4,[],风景名胜|独处品质空间,上海市,上海市,徐汇区
B0LG0L2PBO,西市庙会(暂停开放),风景名胜;风景名胜;寺庙道观,110205,贵州路与南京路步行街交叉口西南20米,121.476476,31.235010,,3.6,[],风景名胜|独处品质空间,上海市,上海市,黄浦区
B0FFK8FGW1,南张天主堂,风景名胜;风景名胜;教堂,110206,秀文路与惠水路交叉口东200米,121.372796,31.126206,,3.6,[],风景名胜|独处品质空间,上海市,上海市,闵行区
B0LAYMX0WG,豫园印象&City Lights,体育休闲服务;休闲场所;休闲场所,080500,福民街55号6-7楼(豫园地铁站7号口步行320米),121.491775,31.228325,13512112311,4.2,81.00,体育休闲|独处品质空间,上海市,上海市,黄浦区
B0FFLH2TVK,铁手咖啡制造局(metalhands2店),餐饮服务;咖啡厅;咖啡厅|政府机构及社会团体;政府及社会团体相关;政府及社会团体相关,050500|130000,永嘉路37号,121.462683,31.210508,13269918959,4.7,48.00,金融住宿政府|独处品质空间,上海市,上海市,黄浦区
B0FFIVFX5D,星巴克臻选(上海烘焙工坊),餐饮服务;咖啡厅;星巴克咖啡,050501,南京西路789号N110至N201单元,121.462437,31.230429,4008206998,4.9,73.00,独处品质空间,上海市,上海市,静安区
B0L1LREQV9,DünDun&Co.,餐饮服务;糕饼店;糕饼店,050800,衡山路199号109室(衡山路地铁站4号口步行60米),121.447201,31.204744,18001766983,4.9,61.00,独处品质空间,上海市,上海市,徐汇区
B0JK2RZD5D,13DE MARZO CAFÉ(上海安福路店),餐饮服务;餐饮相关场所;餐饮相关,050000,安福路322号4号楼1楼,121.440149,31.213256,15801707855,4.8,42.00,独处品质空间,上海市,上海市,徐汇区
B0GRDSEWLZ,BASDBAN(愚园路餐厅),餐饮服务;咖啡厅;咖啡厅,050500,愚园路546号8幢101室,121.438551,31.221719,13167260607,4.8,66.00,独处品质空间,上海市,上海市,静安区
B0GKOM5R4J,古董花园•Antique,餐饮服务;咖啡厅;咖啡厅,050500,思南路44号,121.466919,31.216559,021-53821055,4.7,91.00,独处品质空间,上海市,上海市,黄浦区
B0FFJDOSBU,米仓POP PINK,餐饮服务;咖啡厅;咖啡厅,050500,瑞金一路150号1楼,121.463820,31.219093,18964406010,4.7,64.00,独处品质空间,上海市,上海市,黄浦区
B0H3SBIT4W,T12 Lab,购物服务;购物相关场所;购物相关场所,060000,乌鲁木齐南路288号一楼,121.449564,31.201851,021-64225537,4.8,47.00,独处品质空间,上海市,上海市,徐汇区
B0LUL5ZQ1R,13DE MARZO(上海新天地店),购物服务;服装鞋帽皮具店;品牌服装店,061101,兴业路123弄6号1楼18单元,121.475038,31.219069,,4.5,[],独处品质空间,上海市,上海市,黄浦区
B0LRDM53C2,SHONEN JUMP CAFE,餐饮服务;咖啡厅;咖啡厅,050500,肇嘉浜路1111号美罗城A段第二层2-18单元,121.439543,31.193307,021-33567512,4.7,126.00,独处品质空间,上海市,上海市,徐汇区
B0FFI8BKU8,O.P.S. CAFE(太原路店),餐饮服务;咖啡厅;咖啡厅,050500,太原路177弄1号临(近建国西路),121.455320,31.205608,,4.8,66.00,独处品质空间,上海市,上海市,徐汇区
B0K1FLQUVC,米仓POP(乌鲁木齐南路店),餐饮服务;餐饮相关场所;餐饮相关,050000,乌鲁木齐南路288号(肇嘉浜路地铁站2号口步行300米),121.449554,31.201789,13524015886,4.7,66.00,独处品质空间,上海市,上海市,徐汇区
B0LARUBDQX,一尺花园(前滩休闲公园店),购物服务;花鸟鱼虫市场;花卉市场,060501,前滩大道700弄5号6号(休闲公园13号门),121.463862,31.149178,19352131073,4.7,86.00,独处品质空间,上海市,上海市,浦东新区
B0LBL1S5KY,福叁咖啡&小红帽三明治,餐饮服务;餐饮相关场所;餐饮相关,050000,延安西路1566号大厦内入口左侧一层,121.420854,31.208335,18721991722,4.7,66.00,独处品质空间,上海市,上海市,长宁区
B0FFI9QGYS,RACBAR,餐饮服务;咖啡厅;咖啡厅,050500,安福路322号14幢一楼(武康路与安福路交口),121.439975,31.213175,13636595172,4.7,130.00,独处品质空间,上海市,上海市,徐汇区
B0KGT17TUC,POLLY波麗咖啡(星期天公园店),餐饮服务;咖啡厅;咖啡厅,050500,延安西路1221号泛太大厦F1层,121.427916,31.210877,021-53555386,4.7,51.00,独处品质空间,上海市,上海市,长宁区
B00156GX8I,小乔治咖啡馆(延安西路1782弄1-4号小区店),餐饮服务;咖啡厅;咖啡厅,050500,延安西路1782弄1-4号小区西北1门旁,121.414777,31.207429,021-52242933,4.7,67.00,独处品质空间,上海市,上海市,长宁区
B0IGNCA2RB,Blue Bottle Coffee蓝瓶咖啡(静安嘉里中心店),餐饮服务;咖啡厅;咖啡厅,050500,南京西路1515号静安嘉里中心北区商场L2层N2-11,121.449912,31.223847,021-60718617,4.7,53.00,独处品质空间,上海市,上海市,静安区
B0HRPN1P7B,Manner Coffee(徐汇滨江店),餐饮服务;咖啡厅;咖啡厅,050500,瑞宁路243号,121.467705,31.185822,18217396109,4.7,20.00,独处品质空间,上海市,上海市,徐汇区
B0FFLAYZI2,Peet's Coffee皮爷咖啡(愚园路店),餐饮服务;咖啡厅;咖啡厅,050500,愚园路108号,121.445790,31.224767,13524620080,4.7,41.00,独处品质空间,上海市,上海市,静安区
B0IK6MJ311,Blue Bottle Coffee蓝瓶咖啡(张园店),餐饮服务;咖啡厅;咖啡厅,050500,茂名北路258号张园L1层W5-1A,121.459592,31.227822,021-62376316,4.7,48.00,独处品质空间,上海市,上海市,静安区
B0JU4194KZ,Plusone咖啡(巨鹿路Landing店),餐饮服务;咖啡厅;咖啡厅,050500,鹿路794号(静安寺地铁站8号口步行360米),121.450136,31.219646,17321478621,4.6,65.00,独处品质空间,上海市,上海市,静安区
B0FFIU6KTW,瑞幸咖啡(外滩SOHO店),餐饮服务;咖啡厅;咖啡厅,050500,中山东二路58号外滩SOHOD栋负一层41号,121.493484,31.230089,4000100100,4.6,16.00,独处品质空间,上海市,上海市,黄浦区
B0FFIXRG6K,Peet's Coffee皮爷咖啡(东湖路店),餐饮服务;咖啡厅;咖啡厅,050500,上海城区东湖路9号,121.453713,31.216257,13651837436,4.7,40.00,独处品质空间,上海市,上海市,徐汇区
B0G116B8GJ,Peet's Coffee皮爷咖啡(新天地店),餐饮服务;咖啡厅;咖啡厅,050500,上海城区马当路119号1楼102单元,121.474327,31.220699,13524173566,4.6,42.00,独处品质空间,上海市,上海市,黄浦区
B0G2OCI9TL,MOCHA猫咪咖啡(长宁中心店),餐饮服务;咖啡厅;咖啡厅,050500,安顺路118号-7(虹桥路地铁站号口步行490米),121.420018,31.202055,021-52580706,4.6,52.00,独处品质空间,上海市,上海市,长宁区
B0JAR50F9Y,愚园路电台咖啡,餐饮服务;咖啡厅;咖啡厅,050500,愚园路984号(江苏路地铁站7号口步行100米),121.430555,31.219110,18321380902,4.6,54.00,独处品质空间,上海市,上海市,长宁区
B0J0P9AQCJ,Peet's Coffee 皮爷咖啡(南京路步行街店),餐饮服务;咖啡厅;咖啡厅,050500,六合路69号第一百货商业中心B馆F1层,121.474325,31.235749,17887908099,4.5,33.00,独处品质空间,上海市,上海市,黄浦区
B0J0SLL0B1,瑞幸咖啡(外滩店),餐饮服务;餐饮相关场所;餐饮相关,050000,,121.493254,31.232153,4000100100,4.6,13.00,独处品质空间,上海市,上海市,黄浦区
B00154848C,提香研磨咖啡(徐家汇花园店),餐饮服务;咖啡厅;咖啡厅,050500,宛平南路263号(近斜土路),121.446679,31.193105,021-64261982;18930089422,4.7,64.00,独处品质空间,上海市,上海市,徐汇区
B0FFJ5KZA9,星巴克(城隍珠宝店),餐饮服务;咖啡厅;星巴克咖啡,050501,丽水路88号1F116单元(豫园地铁站7号口步行170米),121.490393,31.228563,021-63330313,4.6,31.00,独处品质空间,上海市,上海市,黄浦区
B0K1GHU4P8,BlueBottleCoffee蓝瓶咖啡(西岸梦中心店),餐饮服务;咖啡厅;咖啡厅,050500,龙腾大道2266号西岸梦中心4号楼118A(近梦船坞),121.466266,31.161326,15300974448,4.6,48.00,独处品质空间,上海市,上海市,徐汇区
B0FFJ04PZE,Peet's Coffee皮爷咖啡(武康路店),餐饮服务;咖啡厅;咖啡厅,050500,上海城区武康路378号1楼,121.439222,31.206402,13651814956,4.6,42.00,独处品质空间,上海市,上海市,徐汇区
B0FFK67QK4,瑞幸咖啡(复兴SOHO店),餐饮服务;咖啡厅;咖啡厅,050500,马当路388号SOHO复兴广场E栋一层107号,121.474966,31.215563,4000100100,4.5,18.00,独处品质空间,上海市,上海市,黄浦区
B0IB77HMHW,Blue Bottle Coffee蓝瓶咖啡(裕通店),餐饮服务;咖啡厅;咖啡厅,050500,长安路908号,121.452750,31.242768,18918174399,4.6,58.00,独处品质空间,上海市,上海市,静安区
B0I2GG2QP1,瑞幸咖啡(世博源三区店),餐饮服务;咖啡厅;咖啡厅,050500,国展路839号上海华电大厦一层103室,121.492139,31.184651,4000100100,4.6,14.00,独处品质空间,上海市,上海市,浦东新区
B0L0GC3XTU,CUBIC3三立方咖啡(愚园路店),购物服务;购物相关场所;购物相关场所,060000,愚园路1429号(中山公园地铁站8号口步行140米),121.422085,31.218742,18918353239,4.6,30.00,独处品质空间,上海市,上海市,长宁区
B0GUAGBLSZ,Peet's Coffee皮爷咖啡(外滩中央广场店),餐饮服务;咖啡厅;咖啡厅,050500,南京东路123号外滩中央大楼1层Z103,121.487688,31.238202,13482175048,4.6,44.00,独处品质空间,上海市,上海市,黄浦区
B0FFL8W41Z,东海咖啡馆,餐饮服务;咖啡厅;咖啡厅,050500,滇池路110号(南京东路地铁站7号口步行400米),121.487841,31.239617,021-63333816,4.5,53.00,独处品质空间,上海市,上海市,黄浦区
B0HGXBUURF,LAVAZZA拉瓦萨咖啡(上海前滩晶耀店),餐饮服务;咖啡厅;咖啡厅,050500,耀体路308号一层L133A店铺,121.477761,31.152299,19542797976,4.4,34.00,独处品质空间,上海市,上海市,浦东新区
B0FFHUW400,瑞幸咖啡(月星环球港B座店),餐饮服务;咖啡厅;咖啡厅,050500,中山北路3300号环球港写字楼B座一层L1161号,121.412788,31.233133,4000100100,4.6,17.00,独处品质空间,上海市,上海市,普陀区
B0JU49GJ3X,瑞幸咖啡(吴江路步行街店),餐饮服务;咖啡厅;咖啡厅,050500,吴江路步行街一层202-3室,121.460000,31.229571,4000100100,4.5,15.00,独处品质空间,上海市,上海市,静安区
B0HKGLI6Z9,Peet's Coffee皮爷咖啡(中山公园龙之梦店),餐饮服务;咖啡厅;咖啡厅,050500,长宁路1018号1层1069、1071室,121.417186,31.219056,15202187199,4.3,40.00,独处品质空间,上海市,上海市,长宁区
B0LRUMBJBK,推浪咖啡 WAVEOFFcoffee,餐饮服务;咖啡厅;咖啡厅,050500,建国西路550号101室,121.450572,31.202860,17721256059,4.5,58.00,独处品质空间,上海市,上海市,徐汇区
B0J3KCQALK,ideaPod reserved工作咖啡,餐饮服务;咖啡厅;咖啡厅,050500,虎丘路78号一层QL111、2层(香港路与交叉口),121.487513,31.242669,18016323521,4.5,39.00,独处品质空间,上海市,上海市,黄浦区
B00155L4U8,星巴克(嘉汇店),餐饮服务;咖啡厅;星巴克咖啡,050501,天钥桥路323号(近嘉汇广场),121.442123,31.188529,021-64262192,4.7,33.00,独处品质空间,上海市,上海市,徐汇区
B0G39AMG8L,Peet's Coffee皮爷咖啡(大悦城店),餐饮服务;咖啡厅;咖啡厅,050500,西藏北路198号L1楼N101号商铺,121.471799,31.243654,13524179166,4.5,46.00,独处品质空间,上海市,上海市,静安区
B0G26YISV7,瑞幸咖啡(中山公园龙之梦店),餐饮服务;咖啡厅;咖啡厅,050500,联通大厦中国联通隔壁,121.416712,31.218948,4000100100,4.4,10.00,独处品质空间,上海市,上海市,长宁区
B0I2JA1LPV,上海牌咖啡(华山路店),餐饮服务;咖啡厅;咖啡厅,050500,华山路259号(静安寺地铁站12号口步行120米),121.446252,31.219633,13564095948;18637697965,4.5,34.00,独处品质空间,上海市,上海市,静安区
B0FFK6CW7I,STEP Coffee肆步咖啡,餐饮服务;咖啡厅;咖啡厅,050500,常熟路159号(常熟路地铁站8号口步行140米),121.448654,31.215159,16621293142,4.4,26.00,独处品质空间,上海市,上海市,徐汇区
B0IR05TYCX,CUBIC 3 三立方咖啡(仲益大厦店),餐饮服务;咖啡厅;咖啡厅,050500,南京西路580号仲益大厦148铺,121.466084,31.231162,19370968932,4.2,28.00,独处品质空间,上海市,上海市,静安区
B00155H8RQ,星巴克(大同店),餐饮服务;咖啡厅;星巴克咖啡,050501,斜徐路593号(打浦桥地铁站2号口步行380米),121.472716,31.206281,021-63040577,4.6,33.00,独处品质空间,上海市,上海市,黄浦区
B0FFIS07G9,老麦咖啡馆(武康路店),餐饮服务;咖啡厅;咖啡厅,050500,武康路439号(交通大学地铁站7号口步行410米),121.438148,31.204340,19921449569,4.6,63.00,独处品质空间,上海市,上海市,徐汇区
B0I21HOJ2P,越南中原传奇咖啡,餐饮服务;咖啡厅;咖啡厅,050500,吴江路31号(南京西路地铁站5号口步行130米),121.463268,31.230506,021-62126772;17521008952,4.6,60.00,独处品质空间,上海市,上海市,静安区
B0KDDRBOG0,瑞幸咖啡(阳光滨江天地店),餐饮服务;咖啡厅;咖啡厅,050500,凯滨路38号负一层01室A13-2号,121.458630,31.186507,4000100100,4.2,13.00,独处品质空间,上海市,上海市,徐汇区
B0FFKT6J9R,瑞幸咖啡(新邻生活广场店),餐饮服务;咖啡厅;咖啡厅,050500,陆家浜路1100号新邻生活广场站商场1层01室,121.486714,31.210937,4000100100,4.3,11.00,独处品质空间,上海市,上海市,黄浦区
B0FFK6ACVR,瑞幸咖啡(上海静安大悦城店),餐饮服务;咖啡厅;咖啡厅,050500,西藏北路164号静安大悦城北座地下一层B112室,121.472008,31.244275,4000100100,4.4,17.00,独处品质空间,上海市,上海市,静安区
B0HBXCQHL0,Peet's Coffee皮爷咖啡(日月光店),餐饮服务;咖啡厅;咖啡厅,050500,徐家汇路618号1层1F-TK06室(田子坊2号门对面),121.469097,31.207490,13917262406,4.5,32.00,独处品质空间,上海市,上海市,黄浦区
B0FFFIAY33,咖啡伦敦(金汇南路总店),餐饮服务;咖啡厅;咖啡厅,050500,金汇南路225号1层A室,121.377642,31.170137,021-54868586,4.6,58.00,独处品质空间,上海市,上海市,闵行区
B0FFMCE7ZG,Tims咖啡(南昌路店),餐饮服务;咖啡厅;咖啡厅,050500,南昌路509号109-110室,121.459663,31.215045,021-28903380,4.4,30.00,独处品质空间,上海市,上海市,徐汇区
B0J2NRI9DY,Peet's Coffee皮爷咖啡(上海世博源店),餐饮服务;餐饮相关场所;餐饮相关,050000,周家渡路209号世博源3区1层(国展路沿街),121.492575,31.181873,13916361500,4.4,37.00,独处品质空间,上海市,上海市,浦东新区
B0HUGMQO9S,Tims咖啡(南六店),餐饮服务;咖啡厅;咖啡厅,050500,西藏南路666号1层102A单元,121.483590,31.217241,021-63353866,4.3,30.00,独处品质空间,上海市,上海市,黄浦区
B0J2H7LGCS,半岛精品店咖啡厅新天地旗舰店,餐饮服务;咖啡厅;咖啡厅,050500,太仓路181弄2号上海新天地南北里,121.474729,31.220846,021-63686226,4.5,162.00,独处品质空间,上海市,上海市,黄浦区
B0L29RRDES,米店咖啡馆,餐饮服务;咖啡厅;咖啡厅,050500,平江路115号,121.455237,31.200051,13262576713,4.5,40.00,独处品质空间,上海市,上海市,徐汇区
B0K3U5RB26,瑞幸咖啡(凯德龙之梦莘庄店),餐饮服务;咖啡厅;咖啡厅,050500,沪闵路6088号莘庄凯德龙之梦负一层31号,121.378283,31.107788,4000100100,4.1,14.00,独处品质空间,上海市,上海市,闵行区
B0FFJ5N0Q3,% Arabica阿拉比卡咖啡(烘焙工坊),餐饮服务;咖啡厅;咖啡厅,050500,圆明园路169号协进大楼1层,121.487957,31.242282,13321818715,4.5,46.00,独处品质空间,上海市,上海市,黄浦区
B0FFHGKJME,星巴克咖啡(茶陵北路店),餐饮服务;咖啡厅;星巴克咖啡,050501,茶陵北路20号A1室,121.464982,31.198847,021-54362220;021-60782939;4008206998,4.6,32.00,独处品质空间,上海市,上海市,徐汇区
B0FFL82G5Z,瑞幸咖啡(118广场店),餐饮服务;咖啡厅;咖啡厅,050500,金沙江路1685号118广场16幢一层BN1-7号,121.378018,31.231514,4000100100,4.2,13.00,独处品质空间,上海市,上海市,普陀区
B0IRXA2D14,Faust浮士德咖啡馆,餐饮服务;咖啡厅;咖啡厅,050500,天平路216弄1号(交通大学地铁站2号口步行420米),121.437660,31.199673,19901851048,4.5,28.00,独处品质空间,上海市,上海市,徐汇区
B0FFLK0NLX,coffee enough咖啡足矣,餐饮服务;咖啡厅;咖啡厅,050500,北京西路549-4号(自然博物馆地铁站1号口步行310米),121.463432,31.233511,16602105013,4.4,47.00,独处品质空间,上海市,上海市,静安区
B0H1ULZ4YM,Metal hands铁手咖啡,体育休闲服务;娱乐场所;娱乐场所,080300,南丹路15号1楼二单元(徐家汇地铁站1号口步行160米),121.435560,31.189519,13127544675,4.5,46.00,独处品质空间,上海市,上海市,徐汇区
B0GK07CGVK,Komeda's Coffee 口美达咖啡(前滩店),餐饮服务;咖啡厅;咖啡厅,050500,,121.470616,31.148418,17316422667,4.5,52.00,独处品质空间,上海市,上海市,浦东新区
B0G0CUXNTM,BRICK LANE板砖咖啡(乌南店),餐饮服务;咖啡厅;咖啡厅,050500,乌鲁木齐南路121号(衡山路地铁站1号口步行290米),121.448975,31.204925,15712635379,4.4,36.00,独处品质空间,上海市,上海市,徐汇区
B0HGMX0158,瑞幸咖啡(上海爱琴海店),餐饮服务;咖啡厅;咖啡厅,050500,虹井路120弄5号爱琴海购物公园一层W188铺,121.372186,31.174638,4000100100,4.4,13.00,独处品质空间,上海市,上海市,闵行区
B0JD21MN0E,库迪咖啡(新世界城店),餐饮服务;咖啡厅;咖啡厅,050500,南京西路2-68号新世界城地下2层(人民广场地铁7号口处),121.473496,31.234449,13621796115,4.4,10.00,独处品质空间,上海市,上海市,黄浦区
B0FFK65R50,瑞幸咖啡(绿地汇中心店),餐饮服务;咖啡厅;咖啡厅,050500,云锦路500号绿地汇中心B座一层1-11单元,121.457426,31.164609,4000100100,4.3,18.00,独处品质空间,上海市,上海市,徐汇区
B0FFF3JKTP,赞咖啡(桂林路),餐饮服务;咖啡厅;咖啡厅,050500,桂林路64号-2号,121.419713,31.159033,13761371417,4.5,48.00,独处品质空间,上海市,上海市,徐汇区
B0KG9R62W6,BlueBottleCoffee蓝瓶咖啡(上生新所店),餐饮服务;咖啡厅;咖啡厅,050500,延安西路1262号上生新所15号楼1层101A单元,121.427504,31.207885,15300974448,4.5,41.00,独处品质空间,上海市,上海市,长宁区
B0GKMKO478,Home Cafe咖啡工作室(虹梅路店),餐饮服务;咖啡厅;咖啡厅,050500,虹梅路2905号附近,121.393543,31.178779,021-34222128,4.5,49.00,独处品质空间,上海市,上海市,闵行区
B0IR9CP1OV,瑞幸咖啡(徐汇绿地缤纷城店),餐饮服务;咖啡厅;咖啡厅,050500,龙华中路绿地缤纷城西区一楼(龙华中路地铁站出入口旁),121.457628,31.183847,4000100100,4.5,17.00,独处品质空间,上海市,上海市,徐汇区
B0FFL5CHPY,Peet's Coffee皮爷咖啡(环贸iapm店),餐饮服务;咖啡厅;咖啡厅,050500,淮海中路999号IAPM商场2楼221室,121.458063,31.215328,13524619498,4.5,45.00,独处品质空间,上海市,上海市,徐汇区
B0KA1ZPTNT,大小乐咖啡商店(陕西南路488弄小区店),餐饮服务;咖啡厅;咖啡厅,050500,陕西南路488弄小区,121.461140,31.210140,,4.6,52.00,独处品质空间,上海市,上海市,徐汇区
B0J63S5LYT,likelikeslike coffee悟同咖啡,餐饮服务;咖啡厅;咖啡厅,050500,天平路238号临3,121.438049,31.198928,15000556509,4.4,47.00,独处品质空间,上海市,上海市,徐汇区
B0FFK4HLAA,AREA31区咖啡店,餐饮服务;咖啡厅;咖啡厅,050500,五原路88号B(常熟路地铁站8号口步行210米),121.447404,31.213187,13585912731;17816411575,4.4,38.00,独处品质空间,上海市,上海市,徐汇区
B0H06DDP10,Peet's Coffee皮爷咖啡(上海万象城店),餐饮服务;咖啡厅;咖啡厅,050500,上海城区吴中路1599号上海万象城购物中心L1层L109c号商铺,121.368956,31.170642,13651874136,4.5,40.00,独处品质空间,上海市,上海市,闵行区
B0I0ARARUD,猫二玫瑰咖啡,餐饮服务;外国餐厅;西餐厅(综合风味),050201,皋兰路2号甲(复兴公园西门内),121.467624,31.217534,021-33300266,4.4,130.00,独处品质空间,上海市,上海市,黄浦区
B0FFKV45CP,Peet's Coffee皮爷咖啡(长宁来福士店),餐饮服务;咖啡厅;咖啡厅,050500,长宁路1123号来福士广场东区1层23号铺,121.415228,31.215970,13917403576,4.4,35.00,独处品质空间,上海市,上海市,长宁区
B0FFKRO1KR,瑞幸咖啡(香港广场店),餐饮服务;咖啡厅;咖啡厅,050500,淮海中路282香港广场F3层,121.474887,31.222969,4000100100,4.4,19.00,独处品质空间,上海市,上海市,黄浦区
B0H6LGCQW3,% Arabica阿拉比卡咖啡(环贸iapm店),餐饮服务;咖啡厅;咖啡厅,050500,淮海中路999号环贸iapm商场2层(写字楼二期与商场交界处),121.458702,31.215621,18017462154,4.4,34.00,独处品质空间,上海市,上海市,徐汇区
B0FFG0YZYH,星巴克咖啡(古美文创街店),餐饮服务;咖啡厅;星巴克咖啡,050501,古美路569号1F,121.404576,31.145104,021-54739651;021-60782939;4008206998,4.6,43.00,独处品质空间,上海市,上海市,闵行区
B0FFIU6KU1,瑞幸咖啡(长峰中心店),餐饮服务;咖啡厅;咖啡厅,050500,延安西路1088号长峰中心一层101室,121.430791,31.211549,4000100100,4.4,23.00,独处品质空间,上海市,上海市,长宁区
B0IK5SRCI6,Peet's Coffee皮爷咖啡(凯德晶萃店),餐饮服务;咖啡厅;咖啡厅,050500,上海城区徐家汇路618号1层1F-TK06室(田子坊2号门对面),121.477304,31.210607,13651863467,4.4,35.00,独处品质空间,上海市,上海市,黄浦区
B0J13UFRDA,Seesaw 咖啡(上海中信泰富店),餐饮服务;咖啡厅;咖啡厅,050500,南京西路1168号中信泰富广场B1层03号商铺,121.455363,31.227989,18021043548,4.3,32.00,独处品质空间,上海市,上海市,静安区
B0FFH8HTJ7,星巴克咖啡(森宏生活广场店),餐饮服务;咖啡厅;星巴克咖啡,050501,长清路1200弄37号1楼2101室,121.492430,31.149206,021-50330399;021-60782939;4008077895,4.6,44.00,独处品质空间,上海市,上海市,浦东新区
B0G1BP7ED9,LAVAZZA拉瓦萨咖啡(上海美罗店),餐饮服务;咖啡厅;咖啡厅,050500,肇嘉浜路1111号1层,121.440131,31.193022,13122840063,4.4,30.00,独处品质空间,上海市,上海市,徐汇区
B0KBHDI1HD,nth coffee·n次咖啡(韩国街店),餐饮服务;咖啡厅;咖啡厅,050500,吴中路1329号A116,121.374844,31.172986,18621036977,4.4,35.00,独处品质空间,上海市,上海市,闵行区
B001574YBE,小时光咖啡馆(长寿路店),餐饮服务;咖啡厅;咖啡厅,050500,长寿路652号景源时尚产业园,121.432468,31.238498,15201869829,4.4,30.00,独处品质空间,上海市,上海市,普陀区
B0FFM9K9L8,Drops咖啡工作室,餐饮服务;咖啡厅;咖啡厅,050500,华山路376号,121.445414,31.217847,18767398963;19514761061,4.4,39.00,独处品质空间,上海市,上海市,静安区
B0FFKQQYGG,面包咖啡好天气パンカフェ日和,餐饮服务;咖啡厅;咖啡厅,050500,永嘉路331号,121.457600,31.208795,13166302130,4.5,71.00,独处品质空间,上海市,上海市,徐汇区
B0HA77055V,dia coffee嗲咖啡,餐饮服务;咖啡厅;咖啡厅,050500,上海市上海市静安区,121.440658,31.229624,17602145266,4.5,34.00,独处品质空间,上海市,上海市,静安区
B0GK6LTENV,Tims天好咖啡(招商局大厦捷枫店),餐饮服务;咖啡厅;咖啡厅,050500,东育路279号1层101单元,121.481375,31.157075,15902161970,4.3,23.00,独处品质空间,上海市,上海市,浦东新区
B0FFJ6QPDR,瑞幸咖啡(天山SOHO店),餐饮服务;餐饮相关场所;餐饮相关,050000,天山路1717号SOHO天山广场一层101-102号,121.407725,31.209425,4000100100,4.2,18.00,独处品质空间,上海市,上海市,长宁区
B0GDR5CQBR,% Arabica阿拉比卡咖啡(建国西路店),餐饮服务;咖啡厅;咖啡厅,050500,建国西路481号,121.451285,31.202960,13391011105,4.4,38.00,独处品质空间,上海市,上海市,徐汇区
B00155KKNZ,星巴克咖啡(远中风华店),餐饮服务;咖啡厅;星巴克咖啡,050501,昌化路68号,121.455023,31.234811,021-60782939;021-62679253;4008206998,4.7,42.00,独处品质空间,上海市,上海市,静安区
B0FFKKQ5G5,Tims天好咖啡(中区广场店),餐饮服务;咖啡厅;咖啡厅,050500,黄陂北路227号中区广场1层02店铺,121.470685,31.229282,021-63353866,4.4,31.00,独处品质空间,上海市,上海市,黄浦区
B0G0TNDJXU,Tims咖啡(恒基名人店),餐饮服务;咖啡厅;咖啡厅,050500,南京东路300号一层(南京东路地铁站5号口旁),121.484158,31.238276,021-63526693,4.3,26.00,独处品质空间,上海市,上海市,黄浦区
B0H0A7T9IY,Peet's Coffee皮爷咖啡(长寿路旭辉路),餐饮服务;咖啡厅;咖啡厅,050500,长寿路333号L1层L108号、L109号-1商铺,121.438408,31.240306,13764166941,4.4,35.00,独处品质空间,上海市,上海市,普陀区
B0K2SU940C,福利咖啡院FULLYCAFE(合川路店),餐饮服务;咖啡厅;咖啡厅,050500,合川路3380号A栋集装箱,121.379681,31.182696,18201910954;18964759053,4.5,38.00,独处品质空间,上海市,上海市,闵行区
B0HBTU5KP8,Tims咖啡(朵云轩创邑店),餐饮服务;咖啡厅;咖啡厅,050500,龙华西路268号C区1F107,121.447451,31.173746,021-64282237;18918613352,4.3,26.00,独处品质空间,上海市,上海市,徐汇区
B0J10AESVB,蔡嘉上博咖啡新天地店,餐饮服务;咖啡厅;咖啡厅,050500,太仓路123号(一大会址·黄陂南路地铁站2号口步行260米),121.475879,31.221722,18621308863,4.5,71.00,独处品质空间,上海市,上海市,黄浦区
B0FFM8L4Q3,Peet's Coffee皮爷咖啡(ITC国贸汇店),餐饮服务;咖啡厅;咖啡厅,050500,华山路1901号上海国贸汇广场地下二层(LG2层)216室,121.438018,31.197618,13917410576,4.4,36.00,独处品质空间,上海市,上海市,徐汇区
B0FFLNEQJA,瑞幸咖啡(金虹桥店),餐饮服务;咖啡厅;咖啡厅,050500,茅台路179号金虹桥商场负一层LG1011,121.402570,31.209020,4000100100,4.2,16.00,独处品质空间,上海市,上海市,长宁区
B0J1OZEN0C,Peet's Coffee皮爷咖啡(长宁大融城店),餐饮服务;咖啡厅;咖啡厅,050500,上海城区淞虹路377号L1层L1-T1-06室,121.360007,31.217808,15901710917,4.3,35.00,独处品质空间,上海市,上海市,长宁区
B0K0R9FTH3,瑞幸咖啡(漫选中古街店),餐饮服务;咖啡厅;咖啡厅,050500,南京西路1605号轨道交通7号线静安寺站负一层B01B25D36店铺,121.447925,31.223375,4000100100,4.2,17.00,独处品质空间,上海市,上海市,静安区
B0H1U7ZI3S,Tims咖啡(世和酒店店),餐饮服务;咖啡厅;咖啡厅,050500,西藏南路1558弄2号101-2室,121.488604,31.203215,021-63400806;13482122886,4.4,24.00,独处品质空间,上海市,上海市,黄浦区
B00155IS5C,花园饭店玫瑰咖啡厅(茂名南路店),餐饮服务;咖啡厅;咖啡厅,050500,茂名南路58号上海花园饭店1层,121.460309,31.219950,021-64151111,4.3,145.00,独处品质空间,上海市,上海市,黄浦区
B0FFK9H5Y1,瑞幸咖啡(中金国际广场店),餐饮服务;咖啡厅;咖啡厅,050500,漕溪北路339号百脑汇一层,121.438523,31.190456,4000100100,4.3,12.00,独处品质空间,上海市,上海市,徐汇区
B0FFL00CBW,瑞幸咖啡(百盛优客城市广场B1F店),餐饮服务;咖啡厅;咖啡厅,050500,天山路789号百盛优客城市广场东楼负一层E2001室,121.403929,31.210606,4000100100,4.3,14.00,独处品质空间,上海市,上海市,长宁区
B0FFGYUGT8,星巴克咖啡(迪美广场店),餐饮服务;咖啡厅;星巴克咖啡,050501,人民大道221号B1层236-238号单元,121.473389,31.228141,021-60782939;021-63231589;4008206998,4.3,40.00,独处品质空间,上海市,上海市,黄浦区
B0I2MLHVE6,BeanStar比星咖啡(上海人广来福士店),餐饮服务;咖啡厅;咖啡厅,050500,西藏中路268号人广来福士七层07-07室,121.476524,31.232165,18939852052,4.3,17.00,独处品质空间,上海市,上海市,黄浦区
B001573L8Z,两咖啡(静安嘉里中心南区商场店),餐饮服务;咖啡厅;咖啡厅,050500,延安中路1218号静安香格里拉大酒店1楼(近铜仁路),121.450397,31.222908,021-22038888;021-22038889,4.3,230.00,独处品质空间,上海市,上海市,静安区
B0I06PNKPA,% Arabica阿拉比卡咖啡(苏河湾万象天地店),餐饮服务;咖啡厅;咖啡厅,050500,福建北路100号上海苏河湾万象天地F1层L104号,121.479631,31.242918,17321481167,4.3,44.00,独处品质空间,上海市,上海市,静安区
B0J1GS53ED,Peet's Coffee 皮爷咖啡(徐汇绿地缤纷城西区店),餐饮服务;咖啡厅;咖啡厅,050500,东安路562号绿地缤纷城西区F1层WE-101,121.457063,31.183619,18202139188,4.4,34.00,独处品质空间,上海市,上海市,徐汇区
B0HKYDU3Y7,Peet's Coffee皮爷咖啡(上海维璟印象城),餐饮服务;咖啡厅;咖啡厅,050500,上海城区七莘路1507号上海维璟印象城1栋1层024-X2号铺位,121.363181,31.131493,13621820389,4.4,31.00,独处品质空间,上海市,上海市,闵行区
B0FFIU6KTY,瑞幸咖啡(光启文化广场店),餐饮服务;咖啡厅;咖啡厅,050500,斜土路2899号光启文化广场B座一层大堂,121.441210,31.185820,4000100100,4.2,14.00,独处品质空间,上海市,上海市,徐汇区
B0J2HSELGV,瑞幸咖啡(龙华会B2层店),餐饮服务;咖啡厅;咖啡厅,050500,龙华路2778号龙华会商场负二层B2N06号,121.453303,31.174753,4000100100,4.4,14.00,独处品质空间,上海市,上海市,徐汇区
B0JU3YW3R7,瑞幸咖啡(上海第一百货店),餐饮服务;咖啡厅;咖啡厅,050500,南京西路2-68号新世界城四层15号,121.473876,31.235326,4000100100,4.5,20.00,独处品质空间,上海市,上海市,黄浦区
B0KBOMGQ3F,Peet's Coffee皮爷咖啡(兴业太古汇店),餐饮服务;咖啡厅;咖啡厅,050500,石门一路288号L392室,121.463862,31.227805,18221709689,4.4,42.00,独处品质空间,上海市,上海市,静安区
B0I3VOEJP3,分号咖啡(人民广场店),餐饮服务;咖啡厅;咖啡厅,050500,九江路675号长江新能源大厦广西北路门,121.477615,31.233870,13002143661,4.4,30.00,独处品质空间,上海市,上海市,黄浦区
B0I33O1YVV,瑞幸咖啡(五洲国际大厦店),餐饮服务;咖啡厅;咖啡厅,050500,肇嘉浜路807号五洲国际大厦一层大堂,121.447847,31.197980,4000100100,4.2,13.00,独处品质空间,上海市,上海市,徐汇区
B0JUAKJERE,Komeda's Coffee口美达咖啡,餐饮服务;咖啡厅;咖啡厅,050500,茅台路179号金虹桥商场地下1楼LG1018室,121.403575,31.209225,13818285428;15821277362,4.5,50.00,独处品质空间,上海市,上海市,长宁区
B0FFIB7X9Y,堀口咖啡(洛克·外滩源店),餐饮服务;咖啡厅;咖啡厅,050500,圆明园路133号女青年会大楼1层,121.487996,31.241827,021-63333100,4.4,102.00,独处品质空间,上海市,上海市,黄浦区
B0FFJK51GX,瑞幸咖啡(胶州大楼店),餐饮服务;咖啡厅;咖啡厅,050500,胶州路58号胶州大楼一层(静安寺地铁站出入口步行310米),121.445258,31.225459,4000100100,4.4,18.00,独处品质空间,上海市,上海市,静安区
B0I39ZY11Q,Birdie Cup Cafe小鸟杯咖啡(静安嘉里中心店),餐饮服务;咖啡厅;咖啡厅,050500,南京西路1515号静安嘉里中心L3层,121.449166,31.224021,19101705435,4.4,32.00,独处品质空间,上海市,上海市,静安区
B0KAVS7SV1,滔乐工场 Taole Central·咖啡简餐,体育休闲服务;体育休闲服务场所;体育休闲服务场所,080000,定西路1525号上海中山公园凯悦嘉荟酒店2层,121.421414,31.218168,021-22218152,4.3,57.00,独处品质空间,上海市,上海市,长宁区
B0J09ST0ME,Peet's Coffee 皮爷咖啡(百联西郊购物中心店),餐饮服务;咖啡厅;咖啡厅,050500,仙霞西路88号百联西郊购物中心F1层,121.369994,31.208766,15821968203,4.2,42.00,独处品质空间,上海市,上海市,长宁区
B0HK3DM0M9,Manner Coffee(上海宁波联谊大楼店),餐饮服务;咖啡厅;咖啡厅,050500,南汇路75号(御品大厦西南门对面),121.456567,31.230218,15800466598,4.3,20.00,独处品质空间,上海市,上海市,静安区
B0FFKTSQMX,瑞幸咖啡(淮海中华大厦店),餐饮服务;咖啡厅;咖啡厅,050500,人民路885号淮海中华大厦一层103室,121.483349,31.225531,4000100100,4.4,25.00,独处品质空间,上海市,上海市,黄浦区
B0H64MHI12,乔咖啡(西岸店),餐饮服务;咖啡厅;咖啡厅,050500,龙腾大道2900号,121.462373,31.174298,021-54666612;18993550677,4.3,28.00,独处品质空间,上海市,上海市,徐汇区
B0G0DCBM76,熊爪咖啡give&take(永康路店),餐饮服务;咖啡厅;咖啡厅,050500,永康路68号,121.458168,31.211010,17721446659,4.4,21.00,独处品质空间,上海市,上海市,徐汇区
B0HDSP4FYP,Peet's Coffee皮爷咖啡(长风大悦城店),餐饮服务;咖啡厅;咖啡厅,050500,大渡河路196号长风大悦城1层L1-20/21号商铺,121.395956,31.222320,18217411310,4.3,36.00,独处品质空间,上海市,上海市,普陀区
B0JABZUXUY,雾雨咖啡店,餐饮服务;咖啡厅;咖啡厅,050500,云南北路18号,121.475288,31.236793,15221145141,4.6,33.00,独处品质空间,上海市,上海市,黄浦区
B0FFIU6KU3,瑞幸咖啡(恒利国际大厦店),餐饮服务;咖啡厅;咖啡厅,050500,成都北路189号恒利国际大厦一层大堂,121.466632,31.227021,4000100100,4.1,20.00,独处品质空间,上海市,上海市,静安区
B0FFL6OQ3E,無窮咖啡馆(集雅公寓店),餐饮服务;咖啡厅;咖啡厅,050500,衡山路331号(衡山路地铁站1号口步行260米),121.444807,31.202169,19978789567,4.2,36.00,独处品质空间,上海市,上海市,徐汇区
B0H39YR24D,拾分之壹咖啡商店(九江路店),餐饮服务;咖啡厅;咖啡厅,050500,九江路501号105室(南京东路地铁站4号口步行120米),121.481916,31.235591,13162177366,4.4,41.00,独处品质空间,上海市,上海市,黄浦区
B0FFHB9C6V,鲁马滋咖啡(中南新邨店),餐饮服务;咖啡厅;咖啡厅,050500,湖南路9号甲(近上海图书馆),121.442335,31.208216,021-34605708;18717938084,4.4,90.00,独处品质空间,上海市,上海市,徐汇区
B0FFKSXZ8N,瑞幸咖啡(华美达和平酒店店),餐饮服务;咖啡厅;咖啡厅,050500,斜土路688号宿适皇冠酒店一层,121.472899,31.202328,4000100100,4.3,11.00,独处品质空间,上海市,上海市,黄浦区
B0FFIRRT71,大众咖啡(西新别墅店),餐饮服务;咖啡厅;咖啡厅,050500,陕西北路581号-5,121.451842,31.232405,17521654242,4.3,33.00,独处品质空间,上海市,上海市,静安区
B0JALPX7YT,無名咖啡馆(钟和公寓店),餐饮服务;咖啡厅;咖啡厅,050500,南昌路与茂名南路交叉口西南60米,121.461362,31.215726,19145711679,4.4,45.00,独处品质空间,上海市,上海市,黄浦区
B0FFK64DL0,瑞幸咖啡(源达大厦店),餐饮服务;咖啡厅;咖啡厅,050500,长寿路360号源达大厦一层大堂,121.438917,31.241917,4000100100,4.2,17.00,独处品质空间,上海市,上海市,普陀区
B0FFK64YKB,瑞幸咖啡(百联徐汇商业广场一店),餐饮服务;咖啡厅;咖啡厅,050500,华山路2038号百联徐汇商业广场底商,121.437208,31.197180,4000100100,4.4,12.00,独处品质空间,上海市,上海市,徐汇区
B0FFKVEUR1,Tims天好咖啡(缤谷广场店),餐饮服务;咖啡厅;咖啡厅,050500,天山路345号缤谷广场东区116A116B,121.388604,31.214080,021-62157323,4.2,27.00,独处品质空间,上海市,上海市,长宁区
B0I1TRD0JV,LAVAZZA拉瓦萨咖啡(上海西岸滨江店),购物服务;服装鞋帽皮具店;品牌服装店,061101,龙腾大道3036-1号,121.462051,31.176793,13681609483,4.2,45.00,独处品质空间,上海市,上海市,徐汇区
B0IBXAPKIU,瑞幸咖啡(中山医院西院区门诊大楼店),餐饮服务;咖啡厅;咖啡厅,050500,平江路232号一层底商(肇嘉浜路地铁站2号口步行370米),121.453575,31.199539,4000100100,4.5,12.00,独处品质空间,上海市,上海市,徐汇区
B0KAS9Q39H,奈娃家族咖啡店,餐饮服务;咖啡厅;咖啡厅,050500,海阳西路100号,121.471933,31.153005,18930670961,4.4,24.00,独处品质空间,上海市,上海市,浦东新区
B0G0C6QH1G,Tims天好咖啡(漕河泾科技园),餐饮服务;咖啡厅;咖啡厅,050500,桂平路391号1幢114A室,121.403236,31.164600,021-61735380,4.2,40.00,独处品质空间,上海市,上海市,徐汇区
B0FFF5ZJOP,星巴克咖啡(乐虹坊店),餐饮服务;咖啡厅;星巴克咖啡,050501,虹井路288号乐虹坊一楼103单元,121.371403,31.176746,021-54573821;021-60782939;4008206998,4.6,39.00,独处品质空间,上海市,上海市,闵行区
B0JDUAMS4Q,大满咖啡(中福城二期店),餐饮服务;咖啡厅;咖啡厅,050500,浙江中路215弄1号底层,121.479004,31.233338,13621910238;15316007981,4.4,29.00,独处品质空间,上海市,上海市,黄浦区
B0JRS5MEGK,Peet's Coffee皮爷咖啡(静安嘉里店),餐饮服务;咖啡厅;咖啡厅,050500,南京西路1563号静安嘉里中心北区商场服务台对面,121.457112,31.244666,021-33196577,4.2,41.00,独处品质空间,上海市,上海市,静安区
B0LU15G2QQ,水煮月亮·饺子咖啡,餐饮服务;餐饮相关场所;餐饮相关,050000,茂名北路108号,121.460399,31.225747,18201960295;19502139177,4.3,50.00,独处品质空间,上海市,上海市,静安区
B0GKNB47O3,Peet's Coffee皮爷咖啡(恒隆广场店),餐饮服务;咖啡厅;咖啡厅,050500,南京西路1266号恒隆广场办公楼一期一楼大堂,121.453914,31.228055,021-62277377;13816177498,4.3,37.00,独处品质空间,上海市,上海市,静安区
B0FFL645J5,石藤咖啡(人民广场店),餐饮服务;咖啡厅;咖啡厅,050500,威海路12弄2-44号江阴小区,121.470765,31.228401,18721439961,4.4,35.00,独处品质空间,上海市,上海市,黄浦区
B0FFF2TQRP,咖啡陪你(虹泉路店),餐饮服务;咖啡厅;咖啡厅,050500,虹泉路1051弄43-45号,121.373972,31.168976,021-64799196,4.6,50.00,独处品质空间,上海市,上海市,闵行区
B0G1BK8E8X,LAVAZZA拉瓦萨咖啡(上海月星环球店),餐饮服务;咖啡厅;咖啡厅,050500,中山北路3300号环球港一层L1160,121.412829,31.232990,15300422213,4.3,34.00,独处品质空间,上海市,上海市,普陀区
B0FFLNIUUG,瑞幸咖啡(虹桥路店),餐饮服务;咖啡厅;咖啡厅,050500,凯旋路1540号轨道交通三号线虹桥路站一层,121.421062,31.197364,4000100100,4.2,15.00,独处品质空间,上海市,上海市,长宁区
B0I3XL5X2X,BeanStar比星咖啡(上海凯德晶萃广场店),餐饮服务;咖啡厅;咖啡厅,050500,徐家汇路268号B2层优衣库对面比星咖啡,121.476785,31.210079,19145707890,4.2,24.00,独处品质空间,上海市,上海市,黄浦区
B0HR6M72MH,Tims咖啡(长宁IM店),餐饮服务;咖啡厅;咖啡厅,050500,凯旋路1388号长宁国际发展广场5号楼101-102室,121.422245,31.198716,021-62092257,4.4,21.00,独处品质空间,上海市,上海市,长宁区
B0H1RXFOLX,RADAR COFFEE咖啡(思南路店),餐饮服务;咖啡厅;咖啡厅,050500,思南路27号(淮海中路地铁站1号口步行230米),121.466386,31.218507,15253612327;18116377053,4.4,35.00,独处品质空间,上海市,上海市,黄浦区
B0J2JM0EIQ,库迪咖啡(徐家汇地铁站店),餐饮服务;咖啡厅;咖啡厅,050500,漕溪北路徐家汇地铁站(11号口线尚加内1-1002商铺),121.438324,31.193223,13052519448,4.3,11.00,独处品质空间,上海市,上海市,徐汇区
B0FFKSDQ6H,瑞幸咖啡(绿地静安柒彩里店),餐饮服务;咖啡厅;咖啡厅,050500,万航渡路858号柒彩里中心F1,121.429520,31.228106,4000100100,4.2,14.00,独处品质空间,上海市,上海市,静安区
B0FFJ14ZKT,瑞幸咖啡(歌斐中心店),餐饮服务;咖啡厅;咖啡厅,050500,蒙自路757号上海歌斐中心一层102A1单元,121.482222,31.197793,4000100100,4.2,18.00,独处品质空间,上海市,上海市,黄浦区
B0FFKQ5Y6K,Peet's Coffee皮爷咖啡(月星环球港店),餐饮服务;咖啡厅;咖啡厅,050500,中山北路3300号环球港1楼L1156室,121.412734,31.232459,13917342296,4.4,34.00,独处品质空间,上海市,上海市,普陀区
B0KRBZJ18N,Coffee Dealer咖啡丢了(锦和巴黎时韵店),餐饮服务;咖啡厅;咖啡厅,050500,建国西路310号,121.457855,31.205081,,4.4,92.00,独处品质空间,上海市,上海市,徐汇区
B0FFJ2YR4V,瑞幸咖啡(维璟印象城店),餐饮服务;咖啡厅;咖啡厅,050500,莘庄镇七莘路1507号维璟印象城三层50室,121.363265,31.130818,4000100100,4.2,13.00,独处品质空间,上海市,上海市,闵行区
B0J10Z23LY,BeanStar比星咖啡(上海西康公园店),体育休闲服务;体育休闲服务场所;体育休闲服务场所,080000,西康路255号西康公园,121.450409,31.230167,18001878120,4.2,24.00,独处品质空间,上海市,上海市,静安区
B0FFHSJI5R,古悦面包咖啡日料,餐饮服务;外国餐厅;日本料理|餐饮服务;咖啡厅;咖啡厅,050202|050500,零陵路598-1号,121.448788,31.188242,021-54893698,4.2,49.00,独处品质空间,上海市,上海市,徐汇区
B0G0LCJQHY,客入咖啡棋牌(虹梅店),体育休闲服务;娱乐场所;棋牌室,080306,虹梅南路1008弄2号楼2楼,121.424552,31.123394,021-33269208,4.5,50.00,独处品质空间,上海市,上海市,闵行区
B0GKGRABSU,蓝屋咖啡,餐饮服务;咖啡厅;咖啡厅,050500,"局门路468号八号桥创意园2期(近工商银行,瞿溪路)",121.482165,31.202695,13764199788,4.4,42.00,独处品质空间,上海市,上海市,黄浦区
B0JB2DSN4R,瑞幸咖啡(淮海国际广场店),餐饮服务;咖啡厅;咖啡厅,050500,淮海中路1045号淮海国际广场一层大堂,121.456602,31.215290,4000100100,4.3,11.00,独处品质空间,上海市,上海市,徐汇区
B0FFIRF6BE,Tims咖啡(长宁利星行捷枫店),餐饮服务;咖啡厅;咖啡厅,050500,延安西路1319号101西室单元,121.425447,31.210582,021-62306721,4.2,38.00,独处品质空间,上海市,上海市,长宁区
B0J27A8FS7,23号宇宙咖啡,餐饮服务;咖啡厅;咖啡厅,050500,武定路612号,121.448943,31.232770,15800239561,4.4,31.00,独处品质空间,上海市,上海市,静安区
B0FFKSILS7,瑞幸咖啡(申亚时代广场店),餐饮服务;咖啡厅;咖啡厅,050500,蒲淞北路16号B座105(北新泾地铁站出入口步行120米),121.375488,31.217367,4000100100,4.2,14.00,独处品质空间,上海市,上海市,长宁区
B0LGD7J4DJ,Geographer地理学家咖啡(牯岭路店),餐饮服务;咖啡厅;咖啡厅,050500,西藏中路525号雅居乐国际广场,121.473117,31.236335,13262831236,4.5,57.00,独处品质空间,上海市,上海市,黄浦区
B0FFJCF81P,月球咖啡retro,餐饮服务;餐饮相关场所;餐饮相关,050000,南京西路地铁站12号口步行200米,121.460423,31.225224,17521045166,4.3,36.00,独处品质空间,上海市,上海市,静安区
B0GR573HKH,时光咖啡馆酒吧,体育休闲服务;娱乐场所;酒吧|餐饮服务;咖啡厅;咖啡厅,080304|050500,莘建东路399弄26支弄54号,121.382235,31.109080,021-64144191;18930907440,4.3,41.00,独处品质空间,上海市,上海市,闵行区
B0FFKYM9HZ,神户咖啡(金汇路店),餐饮服务;咖啡厅;咖啡厅,050500,金汇路528号虹桥古玩城一楼,121.374009,31.180990,021-64190073;19157485985,4.4,47.00,独处品质空间,上海市,上海市,闵行区
B0JDZ5700B,NOWWA挪瓦咖啡(近铁广场店),餐饮服务;咖啡厅;咖啡厅,050500,真北路788号南区B2层S-B2-A(真北路地铁站4号口旁),121.381602,31.231893,13120865923,4.2,18.00,独处品质空间,上海市,上海市,普陀区
B0JBS9ON22,Peet's Coffee皮爷咖啡(前滩时代广场店),餐饮服务;咖啡厅;咖啡厅,050500,海阳西路399号前滩时代广场办公楼一层大堂,121.479541,31.151090,18217101114,4.3,36.00,独处品质空间,上海市,上海市,浦东新区
B0GK1X2Z4U,Tims咖啡(梅奔中心店),餐饮服务;咖啡厅;咖啡厅,050500,中国(上海)自由贸易试验区世博大道1200号L101,121.493166,31.188482,021-63353866,4.2,22.00,独处品质空间,上海市,上海市,浦东新区
B0J6PBUIV3,瑞幸咖啡(巴黎春天陕西路店),餐饮服务;咖啡厅;咖啡厅,050500,长寿路155号巴黎春天陕西路店正门一层L01-F013B室,121.441594,31.242635,4000100100,4.2,14.00,独处品质空间,上海市,上海市,普陀区
B0GKJO0EJ0,ELEFANCO醒象咖啡(音乐广场店),餐饮服务;咖啡厅;咖啡厅,050500,长寿路104号(江宁路地铁站4号口步行60米),121.443305,31.244577,13611607223;18679007555,4.3,36.00,独处品质空间,上海市,上海市,普陀区
B0FFK009RX,瑞幸咖啡(海洋大厦店),餐饮服务;咖啡厅;咖啡厅,050500,延安东路550号海洋大厦一层105B室,121.481027,31.230363,4000100100,4.1,13.00,独处品质空间,上海市,上海市,黄浦区
B0HKVH6SHC,COPLUSDE咖啡豆仓(襄阳南路店),餐饮服务;咖啡厅;咖啡厅,050500,襄阳南路288号-2号,121.457617,31.210176,19117163903,4.4,54.00,独处品质空间,上海市,上海市,徐汇区
B0FFF00PLH,星巴克咖啡(第一百货商业中心C馆4F),餐饮服务;咖啡厅;星巴克咖啡,050501,南京东路830号第一百货C馆4F或者C馆1楼,121.475640,31.234394,021-53830612,4.6,41.00,独处品质空间,上海市,上海市,黄浦区
B0KDSXW0TC,瑞幸咖啡(德安大厦商务中心店),餐饮服务;咖啡厅;咖啡厅,050500,moho商场内,121.442872,31.234435,4000100100,4.3,15.00,独处品质空间,上海市,上海市,静安区
B0HAD7CUN5,壹杯加咖啡(通协路店),餐饮服务;咖啡厅;咖啡厅,050500,通协路272号5A-5C(近协和路),121.355271,31.226547,18550981774,4.2,61.00,独处品质空间,上海市,上海市,长宁区
B0L6CU9GBJ,动径咖啡,餐饮服务;咖啡厅;咖啡厅|购物服务;购物相关场所;购物相关场所,050500|060000,五原路86号A,121.447429,31.213275,13371912723,4.4,29.00,独处品质空间,上海市,上海市,徐汇区
B0J2HHH5CO,石藤咖啡酤酒铺,餐饮服务;餐饮相关场所;餐饮相关,050000,南京东路353号(上海悦荟)1楼115商铺,121.483904,31.236394,19514685541,4.4,31.00,独处品质空间,上海市,上海市,黄浦区
B0FFIC8K0Y,新参者咖啡(幸福里C座店),餐饮服务;咖啡厅;咖啡厅,050500,幸福路67号幸福里园区C座102,121.430797,31.204510,13761620671,4.2,57.00,独处品质空间,上海市,上海市,长宁区
B0JKMPCR7W,瑞幸咖啡(南京东路第一医药店),餐饮服务;餐饮相关场所;餐饮相关,050000,南京路步行街第一药店底商,121.478779,31.235674,4000100100,4.5,13.00,独处品质空间,上海市,上海市,黄浦区
B0HD35R1J7,LAVAZZA拉瓦萨咖啡(上海漕河泾印象城店),餐饮服务;咖啡厅;咖啡厅|餐饮服务;冷饮店;冷饮店,050500|050700,古美路1520号18幢漕河泾印象城L1-06a,121.399691,31.161929,18721573133,4.1,34.00,独处品质空间,上海市,上海市,徐汇区
B0G2NX7BWT,贝瑞咖啡(吴中路店),餐饮服务;咖啡厅;咖啡厅,050500,虹桥镇吴中路1688号W广场B栋德克士大楼7楼,121.370672,31.173296,13818294626;13918543978,4.2,17.00,独处品质空间,上海市,上海市,闵行区
B0HBXLR5MV,前院花园咖啡(星发大厦店),餐饮服务;咖啡厅;咖啡厅,050500,金汇路465号欢合酒店后方停车场内玻璃房,121.374195,31.178493,17721072617,4.3,60.00,独处品质空间,上海市,上海市,闵行区
B0FFGD0QWA,梵高艺术咖啡馆·Van Gogh SENSES Cafe(明天广场店),餐饮服务;餐饮相关场所;餐饮相关,050000,南京西路389号明天广场F2层,121.470094,31.230243,13916388836;18901901799,4.4,61.00,独处品质空间,上海市,上海市,黄浦区
B0FFGFYYZ0,看得到风景的咖啡馆(静安店),餐饮服务;咖啡厅;咖啡厅,050500,华山路2号静安高和大厦701室,121.444344,31.223070,,4.3,78.00,独处品质空间,上海市,上海市,静安区
B0HULD4IJI,% Arabica阿拉比卡咖啡(万象城店),餐饮服务;咖啡厅;咖啡厅,050500,吴中路1599号上海万象城L1层,121.370837,31.171308,18916272153,4.2,35.00,独处品质空间,上海市,上海市,闵行区
B0FFHMDDTZ,TAN CAFE譚咖啡,餐饮服务;咖啡厅;咖啡厅,050500,高安路101-1号(肇嘉浜路与高安路交叉口),121.447379,31.199695,18117522808;18616734556,4.3,23.00,独处品质空间,上海市,上海市,徐汇区
B0JAUUR9FF,库迪咖啡(长宁ArtPark大融城店),餐饮服务;咖啡厅;咖啡厅,050500,新泾镇淞虹377号T2栋楼1层E02室(2号线淞虹路站2号口),121.360647,31.217426,19921486461,4.4,14.00,独处品质空间,上海市,上海市,长宁区
B0G0DP5O15,Tims咖啡(南丰城店),餐饮服务;咖啡厅;咖啡厅,050500,遵义路122弄36号2-L103B单元,121.408489,31.207504,021-52280689,4.2,25.00,独处品质空间,上海市,上海市,长宁区
B0JASU9AOF,爽爷鲜肉饼咖啡铺(茂名南路店),餐饮服务;咖啡厅;咖啡厅,050500,茂名南路131弄-2底层B室(陕西南路地铁站4号口对面),121.461466,31.217479,13122691192,4.2,16.00,独处品质空间,上海市,上海市,黄浦区
B0I1L4G399,一咖啡,餐饮服务;咖啡厅;咖啡厅,050500,黄陂南路373号,121.475366,31.220461,13262893293,4.4,28.00,独处品质空间,上海市,上海市,黄浦区
B0L2K9H0B9,月球咖啡,餐饮服务;咖啡厅;咖啡厅,050500,永嘉路527弄1号,121.450883,31.205319,19901608482,4.4,41.00,独处品质空间,上海市,上海市,徐汇区
B0J1CSBAN2,富麦咖啡(四明别墅576弄店),餐饮服务;咖啡厅;咖啡厅,050500,愚园路590号(江苏路地铁站3号口步行450米),121.437686,31.221480,021-62107566;13901953921,4.3,35.00,独处品质空间,上海市,上海市,静安区
B0K1THU1RU,裕莲茶楼(上海丰盛里店),餐饮服务;茶艺馆;茶艺馆,050600,茂名北路221号1层,121.459388,31.227540,19145448134,4.6,32.00,独处品质空间,上海市,上海市,静安区
B0IB3CBEBT,隐溪茶馆(徐家汇店),餐饮服务;茶艺馆;茶艺馆,050600,肇嘉浜路969号(徐家汇地铁站14号口步行360米),121.442832,31.195597,021-33680857,4.5,145.00,独处品质空间,上海市,上海市,徐汇区
B0K2DUF1VE,LUCKYBOY神童·暹罗茶室,餐饮服务;冷饮店;冷饮店,050700,奉贤路217号(南京西路地铁站1号口步行140米),121.457852,31.230082,15900766611,4.6,74.00,独处品质空间,上海市,上海市,静安区
B0JU9ZC0T7,隐溪茶馆(静安寺店),餐饮服务;茶艺馆;茶艺馆,050600,愚园路151号静安福慧楼2楼(久光步行街内第二家门店),121.445255,31.224149,15317312837,4.6,164.00,独处品质空间,上海市,上海市,静安区
B0HRHG0RAY,隐溪茶馆(前滩太古里店),餐饮服务;茶艺馆;茶艺馆,050600,东育路638号(东育路和海阳西路交叉口),121.483357,31.150768,021-61682982;19102183925,4.5,156.00,独处品质空间,上海市,上海市,浦东新区
B0FFMG1XTR,隐溪茶馆(建国西路),生活服务;生活服务场所;生活服务场所,070000,建国西路285号2楼102室(茶馆楼上),121.458808,31.205189,021-60945665;17317185805,4.5,96.00,独处品质空间,上海市,上海市,徐汇区
B0FFHQ6BGZ,隐溪茶馆(黄金城道),购物服务;购物相关场所;购物相关场所,060000,黄金城道668号靠近银珠路(工商银行旁边),121.400839,31.195756,021-32206517,4.7,160.00,独处品质空间,上海市,上海市,长宁区
B0G3ZZQ3RY,隐溪茶馆(iapm环贸店),餐饮服务;茶艺馆;茶艺馆,050600,南昌路559号一层(陕西南路地铁站7号口旁),121.458144,31.214386,021-64649712,4.5,140.00,独处品质空间,上海市,上海市,徐汇区
B0FFK6O34G,新雅(丰盛里店),餐饮服务;餐饮相关场所;餐饮相关,050000,茂名北路281弄16号商铺301-302单元,121.458739,31.228585,15501144800,4.5,126.00,独处品质空间,上海市,上海市,静安区
B0FFI24LDU,隐溪茶馆(吴中路店),餐饮服务;茶艺馆;茶艺馆,050600,吴中路51号2楼(吴中路地铁站4号口步行470米),121.416650,31.187484,021-36696732,4.5,138.00,独处品质空间,上海市,上海市,徐汇区
B0HG57A9K5,隐溪茶馆(南京西路店),生活服务;生活服务场所;生活服务场所,070000,南阳路134号(静安区体育馆2号门对面),121.451355,31.228202,021-62130665;13248056175,4.5,170.00,独处品质空间,上海市,上海市,静安区
B0HRUUIFZ1,隐溪茶馆(前滩店),生活服务;生活服务场所;生活服务场所,070000,东育路227弄3号1层(近企耀路、济阳路),121.482318,31.158630,021-61945529;15316055521,4.5,166.00,独处品质空间,上海市,上海市,浦东新区
B0JGTSOUXX,吾里茶舍(新天地环宇荟店),餐饮服务;茶艺馆;茶艺馆,050600,黄陂南路与永年路交叉口西100米中海环宇荟L1层L128,121.476396,31.211381,18916156515,4.3,[],独处品质空间,上海市,上海市,黄浦区
B0HRHG1T9D,隐溪茶馆(中山公园店),餐饮服务;茶艺馆;茶艺馆,050600,定西路1513号,121.421550,31.217787,021-61682983;18017312006,4.5,158.00,独处品质空间,上海市,上海市,长宁区
B0JRPSMMY8,裕莲茶楼(美罗城店),餐饮服务;茶艺馆;茶艺馆|餐饮服务;冷饮店;冷饮店,050600|050700,肇嘉浜路1111号美罗城2F层2-18B-2,121.439704,31.192822,19916535081,4.5,29.00,独处品质空间,上海市,上海市,徐汇区
B0JUCHWSCA,淡马茶坊(淮海中路店),餐饮服务;冷饮店;冷饮店,050700,淮海中路809号西首室,121.463227,31.218162,19542991572,4.3,23.00,独处品质空间,上海市,上海市,黄浦区
B0HUNSAKF5,隐溪茶馆(静安寺二店),生活服务;生活服务场所;生活服务场所,070000,万航渡路368号(武定路地铁站2号口步行170米),121.437435,31.225272,021-62152309,4.4,173.00,独处品质空间,上海市,上海市,静安区
B0JAVZRZ7I,裕莲茶楼(前滩晶耀店),餐饮服务;茶艺馆;茶艺馆,050600,耀体路212号晶耀前滩北区B112,121.476840,31.152942,18100077525,4.4,24.00,独处品质空间,上海市,上海市,浦东新区
B0L2JM65LO,浸想宅院,风景名胜;风景名胜;风景名胜,110200,华泾路190号西岸自然艺术公园木作学堂内,121.451406,31.122290,13046273653;18049859557,4.5,106.00,独处品质空间,上海市,上海市,徐汇区
B0KKFOBV6N,永春园茶社(鸿寿坊店),餐饮服务;中餐厅;中餐厅,050100,西康路1105号(长寿路地铁站3号口步行260米),121.440670,31.241308,15601634197,4.5,79.00,独处品质空间,上海市,上海市,普陀区
B0HKPZ9VS5,隐溪茶馆(金虹桥店),餐饮服务;茶艺馆;茶艺馆,050600,茅台路179号金虹桥商场L103号商铺,121.402208,31.209470,021-60945008;15317061292,4.5,170.00,独处品质空间,上海市,上海市,长宁区
B0K1THBZND,上海369茶室,餐饮服务;茶艺馆;茶艺馆,050600,钦州路436号2楼,121.430808,31.167478,021-64159369,4.4,53.00,独处品质空间,上海市,上海市,徐汇区
B0H1LSI1FV,隐溪茶馆(长风公园),餐饮服务;茶艺馆;茶艺馆,050600,泸定路388号桃源派商业广场L1-05(南风汇都南门正对面),121.388782,31.227342,021-60701781;19101716821,4.5,170.00,独处品质空间,上海市,上海市,普陀区
B0KRD58S93,裕莲茶楼(环贸iapm店),餐饮服务;茶艺馆;茶艺馆,050600,淮海中路999号环贸iAPML3层328室,121.458145,31.215616,13122695321,4.5,31.00,独处品质空间,上海市,上海市,徐汇区
B0L6Y7O83H,必福楼潮汕茶楼,餐饮服务;快餐厅;茶餐厅,050305,钱家滩路90号E2-106-107,121.473815,31.153354,19117158877,4.4,120.00,独处品质空间,上海市,上海市,浦东新区
B0G07D33MT,隐溪茶馆(幸福里店),生活服务;生活服务场所;生活服务场所,070000,幸福里381号8号楼,121.429997,31.204449,021-62361761,4.5,138.00,独处品质空间,上海市,上海市,长宁区
B0IBO5HPXR,隐溪茶馆(田子坊店),餐饮服务;茶艺馆;茶艺馆,050600,打浦桥街道打浦路15号上海斯格威铂尔曼大酒店1层及B1层,121.470994,31.204360,18116436425,4.4,169.00,独处品质空间,上海市,上海市,黄浦区
B0KUTK5NZQ,开吉茶馆(上生新所店),餐饮服务;茶艺馆;茶艺馆,050600,上生新所15号楼102B,121.427435,31.207637,17511674949,4.5,59.00,独处品质空间,上海市,上海市,长宁区
B0FFKMQ8GR,奇迹茶空间(京德大楼店),餐饮服务;茶艺馆;茶艺馆|科教文化服务;培训机构;培训机构,050600|141400,常德路319号京德大厦21层,121.446831,31.226674,15721399599,4.3,130.00,独处品质空间,上海市,上海市,静安区
B0H0KDP2ZQ,隐溪茶馆(莘庄仲盛),餐饮服务;茶艺馆;茶艺馆,050600,都市路5001号仲盛世界商城2层210号,121.387819,31.106703,18121311578,4.4,157.00,独处品质空间,上海市,上海市,闵行区
B0KKRZR6SH,秋望雀悦荟棋牌·茶吧,体育休闲服务;体育休闲服务场所;体育休闲服务场所,080000,漕东三路1弄-8号,121.438766,31.171005,13621655018,4.5,40.00,独处品质空间,上海市,上海市,徐汇区
B0K2T7SYRN,鹤茶野所(来福士店),餐饮服务;冷饮店;冷饮店,050700,B1鹤茶野所,121.476605,31.232457,19557962197,4.4,28.00,独处品质空间,上海市,上海市,黄浦区
B0KDBSVD7A,星天地茶艺棋牌会所(紫藤店),餐饮服务;茶艺馆;茶艺馆,050600,紫藤路11号2楼(紫藤路地铁站1号口步行160米),121.364654,31.170798,021-54375585,4.5,49.00,独处品质空间,上海市,上海市,闵行区
B0FFJFUAP8,梅间堂茶馆(绿地缤纷城店),餐饮服务;餐饮相关场所;餐饮相关,050000,东安路800弄12号101室,121.458280,31.181951,021-64753539,4.4,172.00,独处品质空间,上海市,上海市,徐汇区
B0JRJAGBL8,相约茶艺棋牌,餐饮服务;茶艺馆;茶艺馆,050600,梅陇镇虹梅南路1578号相约茶艺棋牌,121.427571,31.116587,13651911622,4.4,35.00,独处品质空间,上海市,上海市,闵行区
B0JAD58A5W,隐溪茶馆(龙华店),餐饮服务;茶艺馆;茶艺馆,050600,瑞平路106号绿地缤纷城西区2层202室,121.455965,31.183803,021-64282939;13391366527,4.4,130.00,独处品质空间,上海市,上海市,徐汇区
B0K2RCDBXW,云古里茶馆外滩店,餐饮服务;茶艺馆;茶艺馆,050600,汉口路99号1楼(南京东路地铁站2号口步行470米),121.487844,31.236347,18917719803,4.5,77.00,独处品质空间,上海市,上海市,黄浦区
B0J0CRF8M7,裕莲茶楼(维璟印象城店),餐饮服务;冷饮店;冷饮店,050700,七莘路1507号莘庄维璟印象城商场2层(西树泡芙隔壁),121.363304,31.130777,15201853394,4.3,34.00,独处品质空间,上海市,上海市,闵行区
B0HRJ4ME4Y,隐溪茶馆(世博会馆店),餐饮服务;茶艺馆;茶艺馆,050600,蒙自路757号(世博会博物馆地铁站出入口旁)平安滨江金融中心商场2F层101,121.481895,31.197797,18917327083,4.4,118.00,独处品质空间,上海市,上海市,黄浦区
B0HRJKL0T7,隐溪茶馆(万象城店),餐饮服务;茶艺馆;茶艺馆,050600,吴中路1599号万象城购物中心L2层235店铺,121.370389,31.170447,021-64025690,4.4,120.00,独处品质空间,上海市,上海市,闵行区
B0KDHUKNEL,隐自在·茶馆(南京西路店),体育休闲服务;体育休闲服务场所;体育休闲服务场所,080000,大田路127号(自然博物馆地铁站1号口步行350米),121.464215,31.232875,15618208761,4.5,124.00,独处品质空间,上海市,上海市,静安区
B0L1J58O2E,一一·吾曰·霞飞茶室·新中式美学空间,生活服务;生活服务场所;生活服务场所,070000,淮海中路451号,121.471073,31.221596,,4.1,44.00,独处品质空间,上海市,上海市,黄浦区
B0L22ZZIAQ,牌友会棋牌室·茶室(莘庄店),体育休闲服务;娱乐场所;棋牌室,080306,七莘路200号8幢,121.377151,31.113339,13564933121,4.5,53.00,独处品质空间,上海市,上海市,闵行区
B0I0ZK6LG2,开吉茶馆(久光百货),餐饮服务;茶艺馆;茶艺馆,050600,南京西路1618号久光百货1层,121.445591,31.224133,17612103401,4.4,41.00,独处品质空间,上海市,上海市,静安区
B0HAUCUO66,蝉野茶馆(淮海中路店),餐饮服务;茶艺馆;茶艺馆,050600,淮海中路1984弄1号,121.436770,31.203494,021-62177767;021-62177768,4.4,165.00,独处品质空间,上海市,上海市,长宁区
B0JU4H0YJH,拾久涧茶楼,餐饮服务;茶艺馆;茶艺馆,050600,肇嘉浜路750号(肇嘉浜路地铁站2号口步行380米),121.446942,31.198912,18116070037,4.4,113.00,独处品质空间,上海市,上海市,徐汇区
B0LDOZV5GD,裕莲茶楼(金虹桥国际中心店),餐饮服务;茶艺馆;茶艺馆,050600,天山路街道茅台路179号金虹桥商场L1楼层L111商铺,121.402556,31.209073,18019425843,4.4,26.00,独处品质空间,上海市,上海市,长宁区
B0K39RJXVL,留芳茶社,餐饮服务;餐饮相关场所;餐饮相关,050000,漕宝路36号和信商务大楼F1层,121.432268,31.168069,021-60293655,4.4,56.00,独处品质空间,上海市,上海市,徐汇区
B00155I88A,山水茶楼(华纳风格酒店店),餐饮服务;茶艺馆;茶艺馆,050600,莲花路1733号华纳风格酒店15楼,121.390411,31.170017,021-61196777;021-61205666,4.4,90.00,独处品质空间,上海市,上海市,闵行区
B00156EIRH,清和茶室(古北店),餐饮服务;快餐厅;茶餐厅,050305,虹桥路1468号(与金珠路交叉口),121.400678,31.199714,15300713992,4.4,163.00,独处品质空间,上海市,上海市,长宁区
B0J0NAGQYS,kukur(淮海坊店),餐饮服务;茶艺馆;茶艺馆,050600,淮海中路927弄140号淮海坊,121.461004,31.216009,,4.4,51.00,独处品质空间,上海市,上海市,黄浦区
B0KUPH6JA2,云古里茶馆(徐汇万科广场店),餐饮服务;茶艺馆;茶艺馆,050600,沪闵路9233号徐汇万科T3座L1-03,121.432076,31.158564,13641816708,4.4,75.00,独处品质空间,上海市,上海市,徐汇区
B0JRHKDB0I,茗知道(世博源店),餐饮服务;茶艺馆;茶艺馆,050600,世博大道1368号世博源1区L1层102号,121.491942,31.187812,021-68586778;16601777988,4.4,135.00,独处品质空间,上海市,上海市,浦东新区
B0GKLZJ30J,隐云茶舍,餐饮服务;茶艺馆;茶艺馆,050600,北京西路1700号5号楼1楼(云峰剧场右侧),121.443341,31.226515,15900573819,4.4,150.00,独处品质空间,上海市,上海市,静安区
B0JK3MB99F,邈墨茶馆(上生新所店),餐饮服务;茶艺馆;茶艺馆,050600,"番禹路222弄55号,安西路金地新华道Mstand楼上",121.426539,31.208538,17321337962;18957132169,4.4,107.00,独处品质空间,上海市,上海市,长宁区
B0K6PAYJ1C,CHAGEE霸王茶姬(巴黎春天·悦汇天山店),餐饮服务;冷饮店;冷饮店,050700,天山路762号巴黎春天·悦汇天山1层19号商铺,121.401535,31.211783,18616531131,4.3,19.00,独处品质空间,上海市,上海市,长宁区
B0HBDCTDFF,御丰茶室棋牌(普陀店),体育休闲服务;娱乐场所;棋牌室,080306,凯旋北路1495号后门盘湾方舟边上2楼,121.413085,31.229067,021-52800272;15316022848,4.4,51.00,独处品质空间,上海市,上海市,普陀区
B0LB99YN0S,几言茶书房(正大乐城店),购物服务;专卖店;书店|餐饮服务;茶艺馆;茶艺馆,061205|050600,龙华中路598号-6-302室,121.458831,31.186502,18621564765,4.3,139.00,独处品质空间,上海市,上海市,徐汇区
B0K3CRASOW,胡小鸭共享棋牌茶室,体育休闲服务;娱乐场所;棋牌室,080306,绿洲广场A栋1803室(曹杨路地铁站出入口步行330米),121.414272,31.236106,16601879985,4.4,40.00,独处品质空间,上海市,上海市,普陀区
B0K0KMCNZZ,时春.食春淮扬茶社(中庚漫游城店),餐饮服务;餐饮相关场所;餐饮相关,050000,中庚漫游城商业街一楼OUT-L119,121.397360,31.132664,13501851773,4.4,68.00,独处品质空间,上海市,上海市,闵行区
B0K6YK60RN,黄庭茶馆(尚嘉店),餐饮服务;茶艺馆;茶艺馆,050600,仙霞路99号尚嘉中心L222A,121.407137,31.205688,13381803071,4.3,118.00,独处品质空间,上海市,上海市,长宁区
B0FFJOZL8U,夏舍茶事(陕西南路店),餐饮服务;茶艺馆;茶艺馆,050600,陕西南路5号城市酒店裙楼5楼,121.457134,31.222747,021-62788838;18930808996,4.3,146.00,独处品质空间,上海市,上海市,黄浦区
B0J2GUI7XI,开吉茶馆(鸿寿坊店),餐饮服务;茶艺馆;茶艺馆,050600,新会路236弄鸿寿坊2号1层110a室,121.440537,31.240877,,4.5,60.00,独处品质空间,上海市,上海市,普陀区
B0K1XO64O1,一两青欢24小时·茶空间(长寿路店),餐饮服务;冷饮店;冷饮店,050700,陕西北路1438号财富时代大厦802(江宁路地铁站4号口步行290米),121.442368,31.242915,17778081605,4.4,86.00,独处品质空间,上海市,上海市,普陀区
B0FFGPZDN0,星期八茶室棋牌(白玉路店),体育休闲服务;娱乐场所;棋牌室,080306,白玉路101号4楼(曹杨路地铁站2号口步行180米),121.417649,31.235384,021-65688155,4.4,71.00,独处品质空间,上海市,上海市,普陀区
B0G2PSI3WT,八马茶业(莘庄店),购物服务;专卖店;专营店,061200,碧秀路102号,121.384590,31.113327,15921304529,4.4,115.00,独处品质空间,上海市,上海市,闵行区
B0L3OHY7M5,申城相爷府茶楼(豫园),餐饮服务;茶艺馆;茶艺馆|购物服务;购物相关场所;购物相关场所,050600|060000,方浜中路235号四层、五层,121.493025,31.225560,021-58777797;18621122307,4.3,92.00,独处品质空间,上海市,上海市,黄浦区
B0J1G5675L,黄庭茶馆(徐家汇店),餐饮服务;茶艺馆;茶艺馆,050600,汇金百货(汇金广场店)4楼423室,121.440400,31.195671,13311600523,4.3,122.00,独处品质空间,上海市,上海市,徐汇区
B0L6XASLWX,宋明客厅(上海展览中心店),餐饮服务;餐饮相关场所;餐饮相关,050000,南京西路1363号静安越界SPACE301室,121.450916,31.225295,16628882916,4.4,137.00,独处品质空间,上海市,上海市,静安区
B0KKK7J7BI,礼厚茶肆ITC店,餐饮服务;茶艺馆;茶艺馆,050600,华山路1901号One ITC商场地下二层245室礼厚茶肆,121.438162,31.197920,13585834105,4.3,22.00,独处品质空间,上海市,上海市,徐汇区
B0LGNZVY1C,隐溪茶馆(上海站店),餐饮服务;茶艺馆;茶艺馆,050600,裕通路100号宝矿洲际商务中心南门(霸王茶姬旁),121.452825,31.243925,13062759498,4.5,126.00,独处品质空间,上海市,上海市,静安区
B0FFKT1NI7,意境小舍茶(真光路科普街店),餐饮服务;茶艺馆;茶艺馆,050600,梅川路1249号C栋102,121.383257,31.241899,15901818769,4.4,117.00,独处品质空间,上海市,上海市,普陀区
B0K01LDYWH,万圣·棋牌茶艺,体育休闲服务;体育休闲服务场所;体育休闲服务场所,080000,罗锦路218号临街1号,121.416242,31.122475,18000780028,4.5,36.00,独处品质空间,上海市,上海市,闵行区
B0LU7R0YAN,蘭三谷茶空间,餐饮服务;茶艺馆;茶艺馆,050600,吴中路1588号爱琴海购物中心六楼6F 601室,121.373150,31.174664,19502153633,4.7,98.00,独处品质空间,上海市,上海市,闵行区
B0L6S75IEY,永春园茶社(长宁来福士店),餐饮服务;中餐厅;中餐厅,050100,长宁路1123号E-1-45号,121.414713,31.215752,15502167178,4.5,88.00,独处品质空间,上海市,上海市,长宁区
B0H6LPC3MO,1950·茶馆,餐饮服务;茶艺馆;茶艺馆,050600,常德路888号静安工人文化宫一楼,121.442053,31.234886,15000186868,4.3,179.00,独处品质空间,上海市,上海市,静安区
B0K1X73LMT,听云台·茗茶空间,餐饮服务;茶艺馆;茶艺馆,050600,芙蓉江路77弄仙蓉花苑1号底层,121.396221,31.206862,021-52867796,4.4,153.00,独处品质空间,上海市,上海市,长宁区
B0FFLK0S9J,半盏茶室,餐饮服务;茶艺馆;茶艺馆,050600,合川路3088号4栋105-1,121.382549,31.179009,15317725792,4.4,120.00,独处品质空间,上海市,上海市,闵行区
B0FFH610P7,遇到你要的时光,餐饮服务;餐饮相关场所;餐饮相关,050000,宝庆路10号(常熟路地铁站7号口步行190米),121.449776,31.211179,15317509913,4.3,136.00,独处品质空间,上海市,上海市,徐汇区
B0FFG754BQ,归朴茶空间,餐饮服务;茶艺馆;茶艺馆,050600,建国西路619弄12号,121.447807,31.200990,15921621572,4.5,175.00,独处品质空间,上海市,上海市,徐汇区
B0HKADL862,幸会雀馆·茶社·网咖(剑河店),体育休闲服务;娱乐场所;网吧,080308,剑河路609号(近仙霞西路),121.369175,31.206783,,4.4,[],独处品质空间,上海市,上海市,长宁区
B0KDC5SJ8R,云古里茶馆(七宝融信上坤中心店),餐饮服务;茶艺馆;茶艺馆,050600,上坤路77弄先番城云古里茶馆2F,121.355326,31.163791,18117069803,4.4,53.00,独处品质空间,上海市,上海市,闵行区
B0KBFUVALU,可以亭茶空间(老西门茶馆),餐饮服务;茶艺馆;茶艺馆,050600,西藏南路复兴东路1159号四楼405室(地铁老西门站一号出口左转),121.483372,31.219136,13381976868,4.2,98.00,独处品质空间,上海市,上海市,黄浦区
B00155GQ8F,友缘茶人(大渡河路店),餐饮服务;茶艺馆;茶艺馆,050600,大渡河路565号(长风公园地铁站2号口步行180米),121.396588,31.226165,021-52652126,4.4,63.00,独处品质空间,上海市,上海市,普陀区
B0J37SGX8E,裕莲茶楼(西郊百联店),餐饮服务;餐饮相关场所;餐饮相关,050000,仙霞西路88号1楼G05-01F01-01-0072商铺,121.370126,31.209409,19301155891,4.2,30.00,独处品质空间,上海市,上海市,长宁区
B0LUFH1YKD,贵凡茶舍(天钥桥路1121弄小区店),餐饮服务;茶艺馆;茶艺馆,050600,天钥桥路1121弄1号,121.445439,31.177938,18321019648,4.4,89.00,独处品质空间,上海市,上海市,徐汇区
B0KKSS3WDE,大茶不茶(新·淮海坊店),餐饮服务;茶艺馆;茶艺馆,050600,凯旋路1580-1号一层新·淮海坊F1层(虹桥路地铁站6号口旁),121.422078,31.196475,021-62373381,4.3,110.00,独处品质空间,上海市,上海市,长宁区
B0L6ZU2SS2,澜熙奢茶茶艺棋牌,体育休闲服务;体育休闲服务场所;体育休闲服务场所,080000,古北路1799号B栋101室,121.403437,31.187308,18321363069,4.5,66.00,独处品质空间,上海市,上海市,闵行区
B0FFMAFCFV,南溪阁,餐饮服务;茶艺馆;茶艺馆,050600,沪闵路7398号22幢202室,121.401161,31.133123,021-67885259,4.4,100.00,独处品质空间,上海市,上海市,闵行区
B0FFK77SX2,龙华佛茶(龙华寺店),餐饮服务;茶艺馆;茶艺馆,050600,龙华路2853号(近龙华西路)龙华寺,121.452058,31.175621,021-64577777,4.3,101.00,独处品质空间,上海市,上海市,徐汇区
B0H6SSYMJZ,华祥苑·上海华茶馆(外滩店),餐饮服务;茶艺馆;茶艺馆|购物服务;专卖店;专营店,050600|061200,中山东一路20号,121.489719,31.239253,021-63335330;13020229019;15316055880,4.5,277.00,独处品质空间,上海市,上海市,黄浦区
B0IBMHLK4H,一荼雅事 私享茶空间,餐饮服务;茶艺馆;茶艺馆,050600,华山路351弄1号边门(静安寺地铁站11号口步行400米),121.446177,31.217836,13472542556,4.4,128.00,独处品质空间,上海市,上海市,静安区
B00155IMRB,黄隆泰(浙江中路店),购物服务;专卖店;专营店|餐饮服务;茶艺馆;茶艺馆,061200|050600,浙江中路457、459号,121.477254,31.237072,021-63224904,4.2,75.00,独处品质空间,上海市,上海市,黄浦区
B0KK2565GK,6茶共享茶室(肇嘉浜路店),餐饮服务;茶艺馆;茶艺馆,050600,肇嘉浜路333号408室(嘉善路地铁站5号口旁),121.460487,31.202177,13764895215,4.4,76.00,独处品质空间,上海市,上海市,徐汇区
B0K23LO2ZW,涵春茶肆(庙童店),餐饮服务;冷饮店;冷饮店,050700,旧校场路33号(豫园地铁站7号口步行320米),121.490786,31.227107,19102192956,4.4,25.00,独处品质空间,上海市,上海市,黄浦区
B0I1B4QFF3,茗约荷境(大木桥路店),餐饮服务;茶艺馆;茶艺馆,050600,大木桥路18号玖时活力中心五楼,121.460582,31.201819,021-64577977,4.4,269.00,独处品质空间,上海市,上海市,徐汇区
B0I075JPSE,闲人道巅茶(华侨城店),餐饮服务;茶艺馆;茶艺馆,050600,新会路245-247号(长寿路地铁站出入口步行270米),121.440677,31.240205,021-52999686,4.5,117.00,独处品质空间,上海市,上海市,普陀区
B0HAMBZCPJ,隆盛棋牌茶室,体育休闲服务;娱乐场所;棋牌室,080306,虹中路388弄16号17幢206,121.383139,31.184518,021-55886658;13482470545,4.4,43.00,独处品质空间,上海市,上海市,闵行区
B0J1ZUOQX8,龙小主24H麻将棋牌室(绿洲广场店),体育休闲服务;体育休闲服务场所;体育休闲服务场所,080000,白兰路133号B座2204(曹杨路地铁站出入口步行340米),121.414139,31.235741,15527021991,4.3,30.00,独处品质空间,上海市,上海市,普陀区
B0LRYZVKXW,黄庭茶馆(新天地店),餐饮服务;茶艺馆;茶艺馆,050600,上海城区湖滨路150号湖滨道购物中心二层E06单元,121.479219,31.220740,19101768208,4.5,100.00,独处品质空间,上海市,上海市,黄浦区
B0FFL8X9O8,朴溪茶馆(徐汇店),餐饮服务;茶艺馆;茶艺馆,050600,桂平路343号-5,121.405926,31.161281,13671611691;15000119939,4.4,126.00,独处品质空间,上海市,上海市,徐汇区
B0L67RXOA9,泓沃澜堂上海豫园露台茶馆,餐饮服务;茶艺馆;茶艺馆,050600,方浜中路265号华宝楼二楼,121.491963,31.225638,17001600003,4.4,74.00,独处品质空间,上海市,上海市,黄浦区
B0FFLBNMWX,沐春茶舍(南三小区店),餐饮服务;餐饮相关场所;餐饮相关,050000,南昌路196弄1号(淮海中路地铁站2号口步行410米),121.466055,31.218227,13248088888,4.4,195.00,独处品质空间,上海市,上海市,黄浦区
B0KBMR63OJ,松·艺术空间艺术茶饮,餐饮服务;茶艺馆;茶艺馆,050600,豫园商城豫园老街19号️1-2楼,121.491532,31.227648,13681821299,4.5,94.00,独处品质空间,上海市,上海市,黄浦区
B0LURS02W9,松源崇岳茶空间,餐饮服务;茶艺馆;茶艺馆,050600,通协路19号,121.359801,31.226139,15957455167,4.5,98.00,独处品质空间,上海市,上海市,长宁区
B0KUPM7AOB,开开小院·茶室·茶友会,餐饮服务;中餐厅;中餐厅,050100,南京西路1081弄51号一楼,121.457542,31.228045,13167241354;13764220507,4.1,[],独处品质空间,上海市,上海市,静安区
B0IKGH6CLI,雲起時·茶馆(莘庄店),购物服务;购物相关场所;购物相关场所,060000,七莘路646号A栋106,121.373092,31.119620,021-34501895;18917739385,4.4,141.00,独处品质空间,上海市,上海市,闵行区
B0LA494NGW,扬春茶社(乐坊店)淮扬菜-早茶,餐饮服务;茶艺馆;茶艺馆,050600,虹井路288号乐坊·虹井生活广场,121.371779,31.176410,15855779234,4.3,44.00,独处品质空间,上海市,上海市,闵行区
B0L1LKCX6A,小野茶坊(徐汇万科广场店),餐饮服务;茶艺馆;茶艺馆,050600,沪闵路9191号徐汇万科广场L1层,121.431772,31.157847,13472716288,4.3,41.00,独处品质空间,上海市,上海市,徐汇区
B0L3H57HHK,黄庭茶馆(南京东路店),餐饮服务;茶艺馆;茶艺馆,050600,南京东路98号锦江都城酒店二楼(电梯右手边),121.488066,31.238780,19117183202,4.2,105.00,独处品质空间,上海市,上海市,黄浦区
B0LRY7VOBO,知希之RARE TEA(静安寺店),餐饮服务;冷饮店;冷饮店,050700,常德路323号,121.446831,31.226855,18964282274,4.4,41.00,独处品质空间,上海市,上海市,静安区
B0LAD772DC,归去归来艺术茶空间,餐饮服务;茶艺馆;茶艺馆,050600,新华路60号(交通大学地铁站5号口步行290米),121.431281,31.201563,021-56997799,4.4,99.00,独处品质空间,上海市,上海市,长宁区
B0JUYUVAWV,6茶共享茶室(丽都新贵店),餐饮服务;茶艺馆;茶艺馆,050600,新闸路831号丽都新贵大厦22楼H室,121.460058,31.234778,13482030211,4.3,106.00,独处品质空间,上海市,上海市,静安区
B0LKMR73EG,八马茶业(徐家汇店),生活服务;生活服务场所;生活服务场所,070000,华山路1901号Oneitc商场LG2-231,121.437690,31.197889,13761972455,4.3,29.00,独处品质空间,上海市,上海市,徐汇区
B0FFJBNV8C,石上茶事(漕河景苑店),餐饮服务;茶艺馆;茶艺馆,050600,康健路74号,121.429332,31.165466,021-64367572;13567726999;13621631686,4.4,144.00,独处品质空间,上海市,上海市,徐汇区
B0JUKU3RKG,品樾茶楼,餐饮服务;茶艺馆;茶艺馆,050600,春申路2699号1幢2楼,121.413440,31.109824,13917341189,4.4,101.00,独处品质空间,上海市,上海市,闵行区
B0LDVUQAO2,祇缘精舍·茶 ·茶座 ·茶室,购物服务;专卖店;专营店,061200,延安中路740号3号前门(南京西路店),121.459227,31.224173,13816630330,4.3,[],独处品质空间,上海市,上海市,静安区
B0I3VMC4EG,举茗邑·茶室 LUXE TEA(洲际旗下大华长风华邑酒店),餐饮服务;冷饮店;冷饮店,050700,大渡河路388弄1号上海大华长风华邑酒店1楼,121.394561,31.224542,021-22503988,4.0,60.00,独处品质空间,上海市,上海市,普陀区
B0LBOU9KBX,束寻推拿吃茶,生活服务;洗浴推拿场所;洗浴推拿场所,071400,虹桥路高岛屋百货商场5楼(伊犁路地铁站3号口步行260米),121.403140,31.197336,,4.0,130.00,独处品质空间,上海市,上海市,长宁区
B0FFKSJG0A,茗和台茶楼,餐饮服务;茶艺馆;茶艺馆,050600,莘庄镇报春路555号,121.382090,31.121901,021-54302806,4.4,130.00,独处品质空间,上海市,上海市,闵行区
B0K2JC5XBH,瑞趣茶馆棋牌(延安路店),体育休闲服务;娱乐场所;棋牌室,080306,凯旋路1010号延安西路口(上汽凯旋坊内),121.417719,31.207535,021-60707068;18321227248,4.5,61.00,独处品质空间,上海市,上海市,长宁区
