id,name,type,typecode,address,lng,lat,tel,rating,cost,group,pname,cityname,adname
B0J19L582P,上海哈尔滨食品厂(汇金百货店),购物服务;专卖店;专营店|餐饮服务;糕饼店;糕饼店|购物服务;超级市场;超市|公司企业;公司;公司,061200|050800|060400|170200,天钥桥路40-90号汇联商厦,121.440042,31.195493,15800583674,4.2,[],社交餐饮|购物菜场,上海市,上海市,徐汇区
B00156QP4U,牛朋(大木桥路店),购物服务;综合市场;农副产品市场|餐饮服务;糕饼店;糕饼店,060703|050800,大木桥路97号(大木桥路与正阳路交叉口附近),121.461575,31.200566,021-54960023,4.0,24.00,社交餐饮|购物菜场,上海市,上海市,徐汇区
B0I2YZP9EG,BELLVILLES贝拉维拉(五原路店),购物服务;体育用品店;户外用品|购物服务;服装鞋帽皮具店;服装鞋帽皮具店|餐饮服务;糕饼店;糕饼店,060907|061100|050800,五原路108号(常熟路地铁站8号口步行260米),121.446911,31.212957,18016239684,4.2,[],社交餐饮|购物菜场,上海市,上海市,徐汇区
B0FFGZMZN6,牛奶棚(枫林路店),购物服务;综合市场;农副产品市场|餐饮服务;糕饼店;糕饼店,060703|050800,枫林路251号,121.456238,31.195190,021-64436602,4.4,17.00,社交餐饮|购物菜场,上海市,上海市,徐汇区
B00156LVIV,汇京国际广场,购物服务;商场;普通商场,060102,虹桥路777号(虹桥路地铁站4号口步行190米),121.423612,31.195962,021-52801880;021-64878601;13482824576,4.6,[],购物菜场,上海市,上海市,徐汇区
B0I155TYLU,IM Shanghai长宁国际T7栋,购物服务;商场;商场,060100,IM Shanghai长宁国际北区,121.422375,31.198675,,4.2,[],购物菜场,上海市,上海市,长宁区
B0FFG95L4Z,家宁生活广场,购物服务;商场;普通商场,060102,大木桥路428号联友商务中心,121.462078,31.196395,,4.1,[],购物菜场,上海市,上海市,徐汇区
B00154DTEG,美罗城,购物服务;商场;购物中心,060101,肇嘉浜路1111号,121.439649,31.192944,021-64268888,4.8,[],购物菜场,上海市,上海市,徐汇区
B0L0713P8F,新六百YOUNG,购物服务;商场;商场|购物服务;服装鞋帽皮具店;服装鞋帽皮具店,060100|061100,衡山路932号,121.438800,31.195384,,4.2,[],购物菜场,上海市,上海市,徐汇区
B0I155TYLT,IM Shanghai长宁国际T6栋,购物服务;商场;商场,060100,IM Shanghai长宁国际南区,121.421777,31.198857,,4.2,[],购物菜场,上海市,上海市,长宁区
B0FFI9ZX8O,南洋1931,购物服务;商场;商场,060100,裕德路165号商场悦宝园旁边HAPE TY中岛小铺,121.433542,31.185925,021-64393333,4.6,[],购物菜场,上海市,上海市,徐汇区
B0FFKF29VF,加华广场,购物服务;商场;普通商场,060102,虹桥路808号融景·解园A8栋,121.424082,31.194569,,4.3,[],购物菜场,上海市,上海市,徐汇区
B0LKUCYEZB,FFC滨江悦里,购物服务;商场;商场,060100,瑞宁路2号,121.468738,31.192881,,4.0,[],购物菜场,上海市,上海市,徐汇区
B0KAFZHX3M,TRI PLACE三角地,购物服务;商场;普通商场,060102,新华路365弄6号楼101-102室,121.424857,31.202203,13621936368,3.8,[],购物菜场,上海市,上海市,长宁区
B00156ZP87,正大乐城,购物服务;商场;普通商场,060102,中山南二路699号,121.458140,31.186395,021-61956888;021-61956890,4.6,[],购物菜场,上海市,上海市,徐汇区
B00155I9QT,腾飞广场,购物服务;商场;普通商场,060102,天钥桥路333号(上海体育场地铁站3号口步行370米),121.442432,31.187895,,4.3,[],购物菜场,上海市,上海市,徐汇区
B00156ECCB,百联徐汇商业广场,购物服务;商场;普通商场,060102,华山路1988号,121.436927,31.197251,021-54070000;021-54070760,4.6,[],购物菜场,上海市,上海市,徐汇区
B0FFI123GJ,保利时光里,购物服务;商场;购物中心,060101,瑞平路230号,121.455048,31.181645,021-64223700,4.7,[],购物菜场,上海市,上海市,徐汇区
B001571EUI,新·淮海坊,购物服务;商场;普通商场,060102,凯旋路1580-1582号(虹桥路地铁站6号口旁),121.422257,31.196225,15221972623,4.3,[],购物菜场,上海市,上海市,长宁区
B00151CC90,飞洲国际广场(零陵路),购物服务;商场;购物中心,060101,零陵路899号(上海体育馆地铁站1号口旁),121.437551,31.183243,021-51506432;021-51509656,4.6,[],购物菜场,上海市,上海市,徐汇区
B0LRAU0S81,绿地缤纷城(徐汇店),购物服务;商场;购物中心,060101,东安路562号,121.456921,31.183799,021-33639688,4.7,[],购物菜场,上海市,上海市,徐汇区
B0JRXMTB8K,港汇恒隆广场北座,购物服务;商场;普通商场|购物服务;商场;购物中心,060102|060101,虹桥路一号,121.436572,31.195053,,4.5,[],购物菜场,上海市,上海市,徐汇区
B0JAL9GB9P,港汇恒隆广场南座,购物服务;商场;普通商场|购物服务;商场;购物中心,060102|060101,港汇恒隆广场,121.437590,31.194570,,4.5,[],购物菜场,上海市,上海市,徐汇区
B0HG6PDC2R,绿地缤纷城东区(绿地中心2期店),购物服务;商场;购物中心|购物服务;商场;普通商场,060101|060102,东安路562号(龙华中路地铁站6号口步行80米),121.457741,31.183768,,4.4,[],购物菜场,上海市,上海市,徐汇区
B0H6KUBJPN,One ITC,购物服务;商场;购物中心,060101,华山路1901号(近广元路),121.437968,31.197769,021-34012600,4.7,[],购物菜场,上海市,上海市,徐汇区
B0G26NKM7X,城开YOYO,购物服务;商场;普通商场,060102,徐家汇天钥桥路123号yoyo商场,121.442163,31.192478,021-64380318,4.5,[],购物菜场,上海市,上海市,徐汇区
B0FFL814VF,徐汇绿地缤纷城西区,购物服务;商场;购物中心|购物服务;商场;普通商场,060101|060102,东安路562号(龙华中路地铁站出入口步行110米),121.456403,31.183420,021-33639688,4.6,[],购物菜场,上海市,上海市,徐汇区
B0FFJDT9DX,汇金百货东区,购物服务;商场;购物中心|购物服务;专卖店;烟酒专卖店,060101|061210,肇嘉浜路1000号汇金百货5F层,121.440806,31.195352,,4.2,[],购物菜场,上海市,上海市,徐汇区
B0FFJA28LX,IM Shanghai长宁国际,商务住宅;楼宇;商住两用楼宇|购物服务;商场;普通商场,120203|060102,凯旋路1398号(虹桥路地铁站1号口步行200米),121.421507,31.199061,15000914929;18221922803,4.7,[],购物菜场|金融住宿政府|商务产业,上海市,上海市,长宁区
B0FFHOJ7FO,日月光中心东区,购物服务;商场;购物中心,060101,徐家汇路618(打浦桥地铁站1号口步行110米),121.469538,31.207491,021-60752196,4.3,[],购物菜场,上海市,上海市,黄浦区
B0FFF3A4ZF,徐汇TPY太平洋中心,购物服务;商场;商场,060100,肇嘉浜路1117号,121.439167,31.193012,,4.6,[],购物菜场,上海市,上海市,徐汇区
B0L03REKZ6,ITC Dining,购物服务;商场;商场,060100,虹桥路183号徐家汇中心F5层,121.434975,31.193625,,4.1,[],购物菜场,上海市,上海市,徐汇区
B0H6PKJGQ3,TWO itc,购物服务;商场;商场,060100,恭城路160号(徐家汇地铁站16号口步行240米),121.436235,31.196747,,4.4,[],购物菜场,上海市,上海市,徐汇区
B0H06SCKAQ,玖時活力中心,购物服务;商场;购物中心,060101,大木桥路18号(嘉善路地铁站出入口步行70米),121.460418,31.201497,,4.6,[],购物菜场,上海市,上海市,徐汇区
B0GRNLDRC3,美千居商业广场(华鼎大厦店),购物服务;商场;普通商场,060102,中山西路2368号(上海体育馆地铁站7号口步行490米),121.432271,31.180318,15757876792,4.4,[],购物菜场,上海市,上海市,徐汇区
B0FFL423QY,TWO itc,购物服务;商场;商场,060100,昭平路与恭城路交叉口东北80米,121.436226,31.196758,,4.4,[],购物菜场,上海市,上海市,徐汇区
B0FFHX900S,永新坊(天钥桥路店),购物服务;商场;购物中心,060101,天钥桥路149号(徐家汇地铁站14号口步行450米),121.443004,31.192152,021-33686262;021-33688938,4.6,[],购物菜场,上海市,上海市,徐汇区
B0FFFDPLAW,美罗城A区,购物服务;商场;商场,060100,肇嘉浜路1111-1号美罗城,121.439693,31.193435,,4.4,[],购物菜场,上海市,上海市,徐汇区
B0FFFDKQ9G,美罗城B区,购物服务;商场;商场,060100,肇嘉浜路1111号美罗城(徐家汇地铁站出入口旁),121.438917,31.192581,,4.3,[],购物菜场,上海市,上海市,徐汇区
B00155L9YH,美城天地,购物服务;商场;普通商场,060102,天钥桥路323号(近南丹东路),121.442271,31.188804,,4.3,[],购物菜场,上海市,上海市,徐汇区
B00155L3PH,汇联商厦(天钥桥路店),购物服务;商场;普通商场,060102,天钥桥路美罗城东南100米,121.441136,31.193057,021-64382288,4.6,[],购物菜场,上海市,上海市,徐汇区
B0G04K4NXK,SPACE(港汇恒隆广场),购物服务;商场;商场,060100,虹桥路1号港汇恒隆广场北座L255,121.436326,31.195072,021-66527060,3.4,[],购物菜场,上海市,上海市,徐汇区
B0LK7M2OIZ,日月光中心亚洲馆,购物服务;商场;购物中心,060101,徐家汇路与打浦路交叉口西北80米,121.469154,31.206127,,3.9,[],购物菜场,上海市,上海市,黄浦区
B0FFGWGY2S,绿地缤纷城(绿地中心国际广场店),购物服务;商场;购物中心|购物服务;商场;普通商场,060101|060102,东安路562号(龙华中路地铁站6号口步行70米),121.456748,31.183613,021-33639688,4.7,[],购物菜场,上海市,上海市,徐汇区
B00155G4GK,汇金百货,购物服务;商场;购物中心,060101,肇嘉浜路1000号,121.440280,31.195345,021-64269999,4.6,[],购物菜场,上海市,上海市,徐汇区
B0H31AXXAJ,FUSION BAY尚享汇橙生活,购物服务;商场;商场,060100,东安路888号,121.462489,31.181258,,4.0,[],购物菜场,上海市,上海市,徐汇区
B00155N7J7,东方商厦,购物服务;商场;购物中心,060101,漕溪北路8号(徐家汇地铁站11号口旁),121.437853,31.193238,13585514054;18616500605,4.6,[],购物菜场,上海市,上海市,徐汇区
B00155LW84,日月光中心,购物服务;商场;购物中心,060101,徐家汇路618号(打浦桥地铁站1号口旁),121.468491,31.206583,021-60752196;021-60878888;4001832230,4.8,[],购物菜场,上海市,上海市,黄浦区
B00155QPSL,上海港汇恒隆广场,购物服务;商场;购物中心,060101,衡山路838号2号initial,121.437217,31.194628,021-64070111;021-33268788,4.9,[],购物菜场,上海市,上海市,徐汇区
B0FFJ7WG26,红料理串串有瘾(淮海西路店),购物服务;商场;免税品店,060103,淮海西路555号汇京国际广场1层108室,121.423142,31.196139,021-52901722;021-54503277,4.3,87.00,购物菜场,上海市,上海市,徐汇区
B00155L9ZX,星游城(装修中),购物服务;商场;购物中心,060101,天钥桥路580号(上海体育场地铁站3号口步行90米),121.442355,31.185117,021-61619700,4.4,[],购物菜场,上海市,上海市,徐汇区
B001531B2D,上海六百(建设中),购物服务;商场;购物中心,060101,肇嘉浜路1068号(徐家汇地铁站14号口旁),121.439628,31.194607,,4.5,[],购物菜场,上海市,上海市,徐汇区
B0JGMA314Z,西岸中寰(建设中),购物服务;商场;商场,060100,瑞宁路288号西岸中环(龙华中路地铁站6号口步行320米),121.459857,31.184416,,4.3,[],购物菜场,上海市,上海市,徐汇区
B0G3A66G7J,乌中市集,购物服务;综合市场;蔬菜市场|购物服务;特殊买卖场所;特殊买卖场所|购物服务;便民商店/便利店;便民商店/便利店,060705|061300|060200,乌鲁木齐路318号(上海图书馆地铁站2号口步行430米),121.446425,31.211132,13788906676;19121497993,4.5,[],购物菜场,上海市,上海市,徐汇区
B00155EOL7,LAWSON罗森(太原路店),购物服务;便民商店/便利店;便民商店/便利店,060200,太原路76号,121.454641,31.207381,021-64370899;18918614090,4.2,[],购物菜场,上海市,上海市,徐汇区
B0FFHGNK8R,全家便利店(枫林路二店),购物服务;便民商店/便利店;便民商店/便利店,060200,枫林路181-2号附近,121.455098,31.196863,17621840823;18616367676,4.3,[],购物菜场,上海市,上海市,徐汇区
B0FFF5UEA6,ASUS华硕电脑售后中心数码配件(法华镇路店),购物服务;便民商店/便利店;便民商店/便利店,060200,红庄小区东北门旁,121.433894,31.202061,4001883607,4.3,[],购物菜场,上海市,上海市,长宁区
B0FFFY1GUR,全家便利店(陕西南路店),购物服务;便民商店/便利店;便民商店/便利店,060200,陕西南路271弄1-137号永嘉51街坊小区,121.462003,31.207750,021-64663094,4.3,[],购物菜场,上海市,上海市,黄浦区
B0JUVCFWW2,海角街市,购物服务;便民商店/便利店;便民商店/便利店,060200,永嘉路570号永嘉庭4号楼413号,121.451307,31.206177,18301770808,4.5,131.00,购物菜场,上海市,上海市,徐汇区
B00155IVT9,全家便利店(玉兰花苑店),购物服务;便民商店/便利店;便民商店/便利店,060200,蒲汇塘路52号,121.434807,31.186368,021-64398385;18321749558,4.3,[],购物菜场,上海市,上海市,徐汇区
B0HBXCPX85,好特卖HotMaxx(日月光中心伯爵居店),购物服务;服装鞋帽皮具店;品牌服装店|购物服务;便民商店/便利店;便民商店/便利店,061101|060200,徐家汇路618号日月光中心徐家汇区B2层B2-XJH08、09,121.468336,31.205765,021-20569088,4.5,[],购物菜场,上海市,上海市,黄浦区
B0FFIPPS8D,LAWSON罗森(嘉善路店),购物服务;便民商店/便利店;便民商店/便利店,060200,嘉善路101-103号底层,121.459305,31.211165,4008206390,4.3,[],购物菜场,上海市,上海市,徐汇区
B0FFG69TJN,全家便利店(长峰店),购物服务;便民商店/便利店;便民商店/便利店,060200,延安西路1088号长峰中心1层,121.430800,31.211724,021-62107431;18817768207,4.3,[],购物菜场,上海市,上海市,长宁区
B00155MOXL,全家便利店(小木桥路二店),购物服务;便民商店/便利店;便民商店/便利店,060200,,121.458624,31.196496,021-54565383,4.2,[],购物菜场,上海市,上海市,徐汇区
B0FFH3RTUS,全家便利店(斜土路六店),购物服务;便民商店/便利店;便民商店/便利店,060200,斜土路1404号(嘉善路地铁站4号口步行420米),121.461732,31.197851,17756350210,4.1,[],购物菜场,上海市,上海市,徐汇区
B0FFI9QJYM,全家便利店(漕溪北路七店),购物服务;便民商店/便利店;便民商店/便利店,060200,漕溪北路739号1层C单元,121.437159,31.184740,13818839094,4.3,[],购物菜场,上海市,上海市,徐汇区
B0FFI1AWMS,全家便利店(绿地中心国际广场店),购物服务;便民商店/便利店;便民商店/便利店,060200,东安路562号绿地缤纷城东区1F层,121.458006,31.183525,,4.4,[],购物菜场,上海市,上海市,徐汇区
B0FFIVBPVA,LAWSON罗森(华山路店),购物服务;便民商店/便利店;便民商店/便利店,060200,华山路1619号(交通大学地铁站6号口步行100米),121.434639,31.203483,021-62317652;4008206390,4.2,[],购物菜场,上海市,上海市,长宁区
B0FFGF3AZ9,LAWSON罗森(湖南店),购物服务;便民商店/便利店;便民商店/便利店,060200,淮海中路1640号(上海图书馆地铁站3号口步行90米),121.443111,31.207406,021-64372698;4008206390,4.2,[],购物菜场,上海市,上海市,徐汇区
B0FFIJKOXY,LAWSON罗森(东方商厦店),购物服务;便民商店/便利店;便民商店/便利店,060200,衡山路徐家汇1-1002号G座(徐家汇地铁站11号口旁),121.438311,31.193276,021-22057699,4.1,[],购物菜场,上海市,上海市,徐汇区
B0FFIUHTPI,全家便利店(瑞金店),购物服务;便民商店/便利店;便民商店/便利店,060200,瑞金二路130号,121.465813,31.211189,021-64713202,4.3,[],购物菜场,上海市,上海市,黄浦区
B0FFIGTXU1,全家便利店(定西路五店),购物服务;便民商店/便利店;便民商店/便利店,060200,定西路790号,121.423897,31.208925,021-61270657;021-61458625;15721036710,4.1,[],购物菜场,上海市,上海市,长宁区
B0FFF61DE1,全家便利店(虹桥路二店),购物服务;便民商店/便利店;便民商店/便利店,060200,虹桥路998号(虹桥路地铁站6号口步行280米),121.420398,31.195474,021-62146271,4.1,[],购物菜场,上海市,上海市,长宁区
B0I1TCA9Z1,LAWSON罗森(703号店),购物服务;便民商店/便利店;便民商店/便利店,060200,衡山路286号(衡山路地铁站1号口步行130米),121.445338,31.203279,021-64045279,4.1,[],购物菜场,上海市,上海市,徐汇区
B0FFF54HUN,全家便利店(森本大楼店),购物服务;便民商店/便利店;便民商店/便利店,060200,天钥桥路567号(上海体育场地铁站3号口步行170米),121.442966,31.186026,021-22057686;15800699416,4.2,[],购物菜场,上海市,上海市,徐汇区
B00155QDZF,7-ELEVEn(西华酒店店),购物服务;便民商店/便利店;7-ELEVEn便利店,060201,淮海西路1号上海西华酒店1层103室,121.434941,31.201815,021-62805471;021-64825471;19921517597,4.2,[],购物菜场,上海市,上海市,徐汇区
B0FFGZWZGT,乐驿商场,购物服务;便民商店/便利店;便民商店/便利店|购物服务;超级市场;超市,060200|060400,宜山路600号(市六医院急诊底楼),121.423189,31.178508,,3.9,[],购物菜场,上海市,上海市,徐汇区
B00156YMEQ,全家便利店(乐山路三店),购物服务;便民商店/便利店;便民商店/便利店,060200,乐山路33-1,121.432460,31.196259,17521679408,4.2,[],购物菜场,上海市,上海市,徐汇区
B0FFHPUHCF,LAWSON罗森(百联徐汇商业广场店),购物服务;便民商店/便利店;便民商店/便利店,060200,华山路2088号汇银广场南楼,121.437300,31.196665,,4.2,[],购物菜场,上海市,上海市,徐汇区
B00155HONV,全家便利店(兵工大厦店),购物服务;便民商店/便利店;便民商店/便利店,060200,肇嘉浜路268号(嘉善路地铁站5号口旁),121.459833,31.202180,021-60382313;021-64165640,4.1,[],购物菜场,上海市,上海市,徐汇区
B00155MV8B,7-ELEVEn(永新坊店),购物服务;便民商店/便利店;7-ELEVEn便利店,060201,辛耕路121号(天钥桥路辛耕路交叉口),121.442964,31.192508,021-33686350;13957855685,4.2,[],购物菜场,上海市,上海市,徐汇区
B0J35HUD9F,全家便利店(天钥桥三店),购物服务;便民商店/便利店;便民商店/便利店,060200,天钥桥路386号1层02室1座(慈云街天钥桥路),121.441823,31.188059,021-54247823;13916747718,4.2,[],购物菜场,上海市,上海市,徐汇区
B0FFHMTZ9W,全家便利店(天钥桥路五店),购物服务;便民商店/便利店;便民商店/便利店,060200,天钥桥路890-3号(上海游泳馆地铁站2号口步行430米),121.444702,31.179875,021-54670209;15868535228,4.1,[],购物菜场,上海市,上海市,徐汇区
B0FFJGEPMP,华联超市(南丹店),购物服务;便民商店/便利店;便民商店/便利店,060200,南丹路169号(徐家汇地铁站1号口步行410米),121.432931,31.189463,18019785821,4.0,[],购物菜场,上海市,上海市,徐汇区
B0FFJIY7FJ,全家便利店(番禺路六店),购物服务;便民商店/便利店;便民商店/便利店,060200,乐山路乐山新村,121.428596,31.198064,18600330091,4.1,[],购物菜场,上海市,上海市,徐汇区
B0JKGA30NW,全家便利店(安顺路二店),购物服务;便民商店/便利店;便民商店/便利店,060200,淮海西路358弄1-5号淮海世纪花苑,121.426371,31.199171,18621109505,4.1,[],购物菜场,上海市,上海市,长宁区
B00154DO4X,全家便利店(亚都店),购物服务;便民商店/便利店;便民商店/便利店,060200,南丹东路300弄9-2号(徐家汇地铁站2号口步行230米),121.438760,31.188690,15703986365,4.1,[],购物菜场,上海市,上海市,徐汇区
B00154DNXO,LAWSON罗森(法华镇路店),购物服务;便民商店/便利店;便民商店/便利店,060200,法华镇路206号(交通大学地铁站5号口步行400米),121.430959,31.203050,021-62831267,4.2,[],购物菜场,上海市,上海市,长宁区
B00155EOL9,LAWSON罗森(五原路店),购物服务;便民商店/便利店;便民商店/便利店,060200,乌鲁木齐中路214号底层东部,121.445826,31.212644,4008206390,4.2,[],购物菜场,上海市,上海市,徐汇区
B00155HOE9,LAWSON罗森(永嘉路店),购物服务;便民商店/便利店;便民商店/便利店,060200,永嘉路601号(乌鲁木齐南路永嘉路),121.449136,31.204726,021-54270946;18918614090,4.2,[],购物菜场,上海市,上海市,徐汇区
B0H3FK7LX0,全家便利店(乌鲁木齐中路店),购物服务;便民商店/便利店;便民商店/便利店,060200,乌鲁木齐中路大华新村(常熟路地铁站8号口步行380米),121.445799,31.212782,,4.2,[],购物菜场,上海市,上海市,徐汇区
B0FFFRA4X8,全家便利店(中山西路五店),购物服务;便民商店/便利店;便民商店/便利店,060200,中山西路1999号华宜大厦1层(近宜山路),121.426577,31.182100,021-34141751;021-54123509,4.1,[],购物菜场,上海市,上海市,徐汇区
B00156GN07,全家便利店(种德桥路店),购物服务;便民商店/便利店;便民商店/便利店,060200,仲德桥路2号,121.420315,31.207998,,4.2,[],购物菜场,上海市,上海市,长宁区
B00154DNXR,LAWSON罗森(平武路店),购物服务;便民商店/便利店;便民商店/便利店,060200,平武路150弄2-26号和平小区,121.431904,31.208602,021-80270663,4.2,[],购物菜场,上海市,上海市,长宁区
B0FFJRDSSK,淳欣食品(茶陵路345弄小区店),购物服务;便民商店/便利店;便民商店/便利店,060200,大木桥路327号(大木桥路地铁站4号口步行320米),121.462410,31.196815,13621844603,3.9,[],购物菜场,上海市,上海市,徐汇区
B0FFF554ES,全家便利店(肇家浜路三店),购物服务;便民商店/便利店;便民商店/便利店,060200,地铁7号线肇嘉浜路站7-101,121.450382,31.197867,021-26064126;021-54960822;13585769120,4.1,[],购物菜场,上海市,上海市,徐汇区
B0FFFV1VNH,Dell戴尔电脑(售后服务)数码配件(宜山路店),购物服务;便民商店/便利店;便民商店/便利店,060200,宜山路站3号口(宜山路地铁站2号口步行110米),121.428638,31.185698,4007160318,4.0,[],购物菜场,上海市,上海市,徐汇区
B0FFIXTU76,全家便利店(徐家汇站四店),购物服务;便民商店/便利店;便民商店/便利店,060200,徐家汇街道华山路轨道交通九号线徐家汇站内9-111号,121.437160,31.195784,13817618197,4.1,[],购物菜场,上海市,上海市,徐汇区
B0FFIINK2Q,联华超市,购物服务;便民商店/便利店;便民商店/便利店|购物服务;超级市场;超市,060200|060400,清真路24号(嘉善路地铁站4号口步行320米),121.459730,31.199710,13816584435,4.2,[],购物菜场,上海市,上海市,徐汇区
B0FFHP5UPY,全家便利店(宜山路九店),购物服务;便民商店/便利店;便民商店/便利店,060200,宜山路28-3号,121.431169,31.191587,021-54650573;021-54650591;13641803746,3.7,[],购物菜场,上海市,上海市,徐汇区
B0FFGSVGYF,百联(虹桥路店),购物服务;便民商店/便利店;便民商店/便利店,060200,虹桥路772弄1-1号(虹桥路地铁站6号口步行390米),121.424640,31.194640,021-34280651,4.2,[],购物菜场,上海市,上海市,徐汇区
B0FFIUHTM1,LAWSON罗森(南丹东路店),购物服务;便民商店/便利店;便民商店/便利店,060200,南丹东路100弄1号,121.443499,31.190080,021-64382677,4.1,[],购物菜场,上海市,上海市,徐汇区
B00156YM59,LAWSON罗森(宛平南路店),购物服务;便民商店/便利店;便民商店/便利店,060200,宛平南路366号,121.445443,31.195943,021-54190230,4.0,[],购物菜场,上海市,上海市,徐汇区
B0FFGHJOZU,上海第二食品商店(番禺小区店),购物服务;便民商店/便利店;便民商店/便利店,060200,番禺路798号,121.428457,31.197790,021-52667255;15901618066,4.2,[],购物菜场,上海市,上海市,徐汇区
B00157GATI,全家便利店(华容路店),购物服务;便民商店/便利店;便民商店/便利店,060200,华容路111弄之1-7号华容小区,121.449546,31.179787,021-54610005;18516590539,4.1,[],购物菜场,上海市,上海市,徐汇区
B00155ILOD,全家便利店(定西七店),购物服务;便民商店/便利店;便民商店/便利店,060200,消防救援支队东北门旁,121.423254,31.210664,,4.1,[],购物菜场,上海市,上海市,长宁区
B00155MOYS,全家便利店(小木桥路三店),购物服务;便民商店/便利店;便民商店/便利店,060200,小木桥路227弄1-4号小木桥路227弄小区,121.457928,31.197999,021-54565383;021-54565527,4.1,[],购物菜场,上海市,上海市,徐汇区
B00155ISOD,全家便利店(斜土二店),购物服务;便民商店/便利店;便民商店/便利店,060200,斜土路1107号1层,121.465106,31.199624,021-64047945,4.1,[],购物菜场,上海市,上海市,徐汇区
B0FFHGPBSW,ASUS华硕电脑数码配件(淮海西路店),购物服务;便民商店/便利店;便民商店/便利店,060200,淮海西路68号(交通大学地铁站5号口步行50米)华硕电脑售后维修,121.433425,31.201717,4001883607,4.0,[],购物菜场,上海市,上海市,长宁区
B0KB1CBRDK,全家便利店(柳州路四店),购物服务;便民商店/便利店;便民商店/便利店,060200,柳州路636号一层,121.420450,31.179684,13381822096,4.1,[],购物菜场,上海市,上海市,徐汇区
B0FFKS8PP7,LAWSON罗森(上海市卢湾体育中心综合楼店),购物服务;便民商店/便利店;便民商店/便利店,060200,建国西路135号上海市卢湾体育中心综合楼F1层,121.464111,31.207151,13761478810,4.1,[],购物菜场,上海市,上海市,黄浦区
B0FFLNO86L,快客便利店(徐汇店),购物服务;便民商店/便利店;便民商店/便利店,060200,中山南二路926号,121.448714,31.184172,13916845263,4.2,[],购物菜场,上海市,上海市,徐汇区
B00154DNNI,LAWSON罗森(虹桥路808号店),商务住宅;住宅区;住宅小区|购物服务;便民商店/便利店;便民商店/便利店,120302|060200,虹桥路808号门店(虹桥路地铁站6号口步行340米),121.424256,31.194801,021-64310691;13817164925;4008206390,4.1,[],购物菜场,上海市,上海市,徐汇区
B0FFIU61JE,LAWSON罗森(新华路店),购物服务;便民商店/便利店;便民商店/便利店,060200,新华路408号,121.424560,31.203954,021-32206635;18721294632,4.1,[],购物菜场,上海市,上海市,长宁区
B00154DOJL,LAWSON罗森(延安西路1527店),购物服务;便民商店/便利店;便民商店/便利店,060200,定西路1075号(定西路与昭化路交叉口),121.423095,31.211334,021-62107483;15921017970,4.2,[],购物菜场,上海市,上海市,长宁区
B0FFHGPM1I,LAWSON罗森(圣爱大厦店),购物服务;便民商店/便利店;便民商店/便利店,060200,漕溪北路88号圣爱大厦1层(徐家汇商圈天钥桥路),121.437225,31.191825,021-60857694;4008206390,3.9,[],购物菜场,上海市,上海市,徐汇区
B0LDC5TODU,日日,购物服务;便民商店/便利店;便民商店/便利店,060200,延安西路1262号上生新所2期10栋202室,121.427198,31.207796,,4.3,970.00,购物菜场,上海市,上海市,长宁区
B0FFG69SVX,LAWSON罗森(零陵路),购物服务;便民商店/便利店;便民商店/便利店,060200,零陵路392号(东安路地铁站2号口旁),121.453928,31.190207,,4.1,[],购物菜场,上海市,上海市,徐汇区
B00156GXN6,LAWSON罗森(宜山222号店),购物服务;便民商店/便利店;便民商店/便利店,060200,宜山路222号(宜山路地铁站3号口步行380米),121.429911,31.189218,021-54562090;13764421030;4008206390,4.0,[],购物菜场,上海市,上海市,徐汇区
B0FFL9RCXP,LAWSON罗森(宛平南路二店),购物服务;便民商店/便利店;便民商店/便利店,060200,宛平南路824-828号底层,121.451059,31.184493,021-64030701,3.9,[],购物菜场,上海市,上海市,徐汇区
B0FFIIS3IP,LAWSON罗森(2798大木桥路588号店),购物服务;便民商店/便利店;便民商店/便利店,060200,零陵路193号-4-5-6(大木桥路地铁站4号口步行90米),121.463363,31.195000,,4.1,[],购物菜场,上海市,上海市,徐汇区
B0FFGL0RTO,红怡副食品(乌鲁木齐中路店),购物服务;便民商店/便利店;便民商店/便利店,060200,乌鲁木齐中路274号(常熟路地铁站8号口步行400米),121.446014,31.212239,18321240582,4.0,[],购物菜场,上海市,上海市,徐汇区
B0LBKR6NA7,上海市第二食品商店(常熟店),购物服务;便民商店/便利店;便民商店/便利店,060200,淮海中路1366号(常熟路地铁站7号口步行100米),121.449075,31.212025,021-64700838,4.0,[],购物菜场,上海市,上海市,徐汇区
B0FFH9AXAA,喜士多便利店(嘉善路店),购物服务;便民商店/便利店;便民商店/便利店,060200,肇嘉浜路288号中福商务楼F1层,121.460587,31.203846,021-54591570,4.1,[],购物菜场,上海市,上海市,徐汇区
B0FFGDYKF1,LAWSON罗森(徐家汇景园店),购物服务;便民商店/便利店;便民商店/便利店,060200,徐虹北路18弄1-1号(宜山路地铁站5号口步行220米),121.427455,31.189604,4008206390,4.0,[],购物菜场,上海市,上海市,徐汇区
B0FFK6B6I5,LAWSON罗森(增泽世贸店),购物服务;便民商店/便利店;便民商店/便利店,060200,百家星厨东70米(延安西路地铁站2号口步行450米),121.420226,31.208442,13358848583,4.0,[],购物菜场,上海市,上海市,长宁区
B00155IMC1,喜士多便利店(枫林路店),购物服务;便民商店/便利店;便民商店/便利店,060200,平江路230号(肇嘉浜路地铁站2号口步行410米),121.453638,31.199753,021-64227609,3.9,[],购物菜场,上海市,上海市,徐汇区
B00154DGF5,好德便利(天平路店),购物服务;便民商店/便利店;便民商店/便利店,060200,广元路196号(徐家汇地铁站16号口步行410米),121.438290,31.198767,021-62824051,4.1,[],购物菜场,上海市,上海市,徐汇区
B0H1UX1OAU,LAWSON罗森(3289肇嘉浜路221号店),购物服务;便民商店/便利店;便民商店/便利店,060200,肇家浜路221号1幢101室,121.463414,31.203012,021-64183823;4008206390,4.1,[],购物菜场,上海市,上海市,徐汇区
B00156YNEU,LAWSON罗森(光启城店),购物服务;便民商店/便利店;便民商店/便利店,060200,宜山路455号光启城b2(宜山路地铁站出入口旁),121.427361,31.183466,021-60293315;13122967756;4008206390,3.9,[],购物菜场,上海市,上海市,徐汇区
B0FFHCE1GZ,全家便利店(瑞金南路店),购物服务;便民商店/便利店;便民商店/便利店,060200,申晖小区东门南90米,121.468634,31.197555,,4.0,[],购物菜场,上海市,上海市,徐汇区
B0H0BRZQ3Y,LAWSON罗森(宝溢丰大厦店),购物服务;便民商店/便利店;便民商店/便利店,060200,中山南二路440号宝溢丰大厦F1层,121.461956,31.190507,4008206390,4.1,[],购物菜场,上海市,上海市,徐汇区
B00154DV8J,联想客户服务科技有限公司(云福大厦店),购物服务;便民商店/便利店;便民商店/便利店,060200,肇嘉浜路267号(嘉善路地铁站2号口旁),121.461804,31.202719,4001687862,3.9,[],购物菜场,上海市,上海市,徐汇区
B0FFLF1HJZ,喜士多便利店(漕溪北路店),购物服务;便民商店/便利店;便民商店/便利店,060200,蒲西路166号(徐家汇地铁站3号口步行70米),121.437245,31.189944,18918206376,3.9,[],购物菜场,上海市,上海市,徐汇区
B0FFKTBZ8F,LAWSON罗森(零陵路299号店),购物服务;便民商店/便利店;便民商店/便利店,060200,枫林国际大厦C楼西南门西北80米,121.457877,31.192074,021-64226795;4008206390,4.0,[],购物菜场,上海市,上海市,徐汇区
B00155ILIE,DELL戴尔电脑(售后服务)数码配件(煤科大厦店),购物服务;便民商店/便利店;便民商店/便利店,060200,肇嘉浜路258号-268号,121.441133,31.193820,4001806923,4.1,[],购物菜场,上海市,上海市,徐汇区
B00155IQMU,Dell戴尔电脑(售后服务)数码配件(乐山路店),购物服务;便民商店/便利店;便民商店/便利店,060200,乐山路33号(戴尔电脑售后维修),121.433266,31.196263,4001860382,3.9,[],购物菜场,上海市,上海市,徐汇区
B0FFHHBZTQ,喜士多便利店(协和小区店),购物服务;便民商店/便利店;便民商店/便利店,060200,延安西路1289弄1号104室,121.426374,31.210787,15921124745,3.9,[],购物菜场,上海市,上海市,长宁区
B00155IQO9,好德便利(宝庆路店),购物服务;便民商店/便利店;便民商店/便利店,060200,宝庆路16号(常熟路地铁站7号口步行270米),121.449854,31.210432,021-64379666,4.0,[],购物菜场,上海市,上海市,徐汇区
B0FFJRTJPN,家得利生鲜超市(杨宅路店),购物服务;便民商店/便利店;便民商店/便利店,060200,杨宅路20号,121.420079,31.206716,,4.1,[],购物菜场,上海市,上海市,长宁区
B0G335XMSN,喜士多便利店(南丹东路店),购物服务;便民商店/便利店;便民商店/便利店,060200,南丹东路255号(徐家汇地铁站2口步行80米),121.438708,31.189359,18916189542,4.1,[],购物菜场,上海市,上海市,徐汇区
B0FFJRUVPR,喜士多便利店(肇嘉浜路店),购物服务;便民商店/便利店;便民商店/便利店,060200,肇嘉浜路102号(打浦桥地铁站4号口步行330米),121.465406,31.204371,15221564257,4.1,[],购物菜场,上海市,上海市,黄浦区
B0FFHCE2YT,LAWSON罗森(保利·西岸中心店),购物服务;便民商店/便利店;便民商店/便利店,060200,瑞平路237弄保利·西岸中心C座,121.455059,31.180658,13916827338,4.1,[],购物菜场,上海市,上海市,徐汇区
B0MGPC0UB2,全家便利店(番禺路四店),购物服务;便民商店/便利店;便民商店/便利店,060200,番禺路878号,121.428253,31.196254,021-52389227;021-64187110;15921568070,0.3,[],购物菜场,上海市,上海市,徐汇区
B0FFJZJUSZ,全家便利店(徐虹中路店),购物服务;便民商店/便利店;便民商店/便利店,060200,徐虹中路20-5号(宜山路地铁站5号口步行170米),121.424627,31.187820,13956778295;18456042705,4.1,[],购物菜场,上海市,上海市,徐汇区
B0FFKSCAPD,美宜佳(天钥桥路店),购物服务;便民商店/便利店;便民商店/便利店,060200,天钥桥路909-2号东区,121.445311,31.178353,19946169373;4008871133,4.0,[],购物菜场,上海市,上海市,徐汇区
B00156EN2K,快客便利店(尚秀商务楼店),购物服务;便民商店/便利店;便民商店/便利店,060200,肇嘉浜路825号尚秀商务楼F1层,121.446870,31.197667,021-64383496,4.1,[],购物菜场,上海市,上海市,徐汇区
B0FFK6VFJ7,LAWSON罗森(3023宜山路438号店),购物服务;便民商店/便利店;便民商店/便利店,060200,古宜路71号(宜山路地铁站10号口步行60米),121.427208,31.184466,13917732479;4008206390,4.0,[],购物菜场,上海市,上海市,徐汇区
B00155HMB9,喜士多便利店(田渡小区店),购物服务;便民商店/便利店;便民商店/便利店,060200,新华路569弄106支弄1-23号田渡小区,121.420660,31.201904,021-62832774,4.0,[],购物菜场,上海市,上海市,长宁区
B0FFG69OED,喜士多便利店(宜山店),购物服务;便民商店/便利店;便民商店/便利店,060200,宜山路631号,121.424654,31.178444,021-64750554,3.9,[],购物菜场,上海市,上海市,徐汇区
B0FFF3AFIQ,昊诚商行,购物服务;便民商店/便利店;便民商店/便利店,060200,太原路126号1楼(近永嘉路社区卫生中心),121.454833,31.206591,021-64318077,3.8,[],购物菜场,上海市,上海市,徐汇区
B0FFHD4679,全家便利店(肇嘉浜路二店)(装修中),购物服务;便民商店/便利店;便民商店/便利店,060200,肇嘉浜路1111号美罗城1层,121.440292,31.192915,021-54356237;021-54561263;18071671588,4.3,[],购物菜场,上海市,上海市,徐汇区
B0K6NNXL88,锦昌祥进口雪茄商店(泰康路店),购物服务;便民商店/便利店;便民商店/便利店,060200,泰康路190弄之1-6号原水小区,121.469782,31.207934,15316881989,4.0,[],购物菜场,上海市,上海市,黄浦区
B0GU6Z9ZQ9,LAWSON罗森(田渡小区店),购物服务;便民商店/便利店;便民商店/便利店,060200,新华路569弄106支弄1-23号田渡小区,121.420889,31.201838,021-80270663,3.9,[],购物菜场,上海市,上海市,长宁区
B0FFG2J5SX,好德便利店(淮海店),购物服务;便民商店/便利店;便民商店/便利店,060200,淮海中路1417弄1号(常熟路地铁站7号口步行340米),121.447847,31.210226,021-64745666,3.9,[],购物菜场,上海市,上海市,徐汇区
B001571SBC,喜士多便利店(嘉汇广场店),购物服务;便民商店/便利店;便民商店/便利店,060200,斜土路2601号2号楼嘉富阁1层,121.443102,31.187222,021-26588402;13671752081,3.8,[],购物菜场,上海市,上海市,徐汇区
B00155QGKQ,LAWSON罗森(上海游泳馆店),购物服务;便民商店/便利店;便民商店/便利店,060200,中山南二路1300号徐汇体育公园综合体地下一层112商铺,121.440425,31.178725,,4.1,[],购物菜场,上海市,上海市,徐汇区
B0FFL6DLY3,便利蜂(百丽国际广场店),购物服务;便民商店/便利店;便民商店/便利店,060200,柳州路950号,121.420970,31.185808,4000001234,3.9,[],购物菜场,上海市,上海市,徐汇区
B0KR7KIVNS,LAWSON罗森(昭化路店),购物服务;便民商店/便利店;便民商店/便利店,060200,海厦小区北2门旁(延安西路地铁站1号口步行470米),121.421298,31.211074,13358848583,4.1,[],购物菜场,上海市,上海市,长宁区
B0GK3CTIQ7,京东便利店(古宜路店),购物服务;便民商店/便利店;便民商店/便利店,060200,古宜路116号(宜山路地铁站11号口步行180米),121.425818,31.186202,18901953778,4.2,[],购物菜场,上海市,上海市,徐汇区
B0H1U10PMO,LAWSON罗森(上海电影广场店),购物服务;便民商店/便利店;便民商店/便利店,060200,漕溪北路595号上海电影广场C栋F1层,121.437935,31.186714,18016263564;4008206390,4.0,[],购物菜场,上海市,上海市,徐汇区
B0FFJGFK5N,LAWSON罗森(上海实业大厦店),购物服务;便民商店/便利店;便民商店/便利店,060200,漕溪北路18号103室(上海实业大厦),121.437742,31.192588,18073075905,4.1,[],购物菜场,上海市,上海市,徐汇区
B0FFLI0BOR,喜士多便利店(天钥桥2门市),购物服务;便民商店/便利店;便民商店/便利店,060200,天钥桥路325号嘉汇国际广场A栋1层101室,121.442985,31.188748,13524770780,4.0,[],购物菜场,上海市,上海市,徐汇区
B0FFG45H8J,喜士多便利店(肇嘉浜店),购物服务;便民商店/便利店;便民商店/便利店,060200,肇嘉浜路267号(嘉善路地铁站2号口旁),121.461804,31.202719,021-54107153;021-56778618,2.1,[],购物菜场,上海市,上海市,徐汇区
B0FFG0WLST,喜士多便利店(海富公寓店),购物服务;便民商店/便利店;便民商店/便利店,060200,法华镇路455-7号,121.426551,31.204462,021-62827583,4.0,[],购物菜场,上海市,上海市,长宁区
B0FFGL0VTP,好德便利店(华鼎广场店),购物服务;便民商店/便利店;便民商店/便利店,060200,中山西路2366弄1-3号华鼎广场,121.432432,31.180485,021-54665291,4.1,[],购物菜场,上海市,上海市,徐汇区
B0FFG3W03F,联想科技有限公司(蒲汇塘路店),购物服务;便民商店/便利店;便民商店/便利店,060200,徐家汇街道蒲汇塘路101号109室,121.433248,31.187258,4001655318,3.9,[],购物菜场,上海市,上海市,徐汇区
B00155IQJW,好德便利店(建国店),购物服务;便民商店/便利店;便民商店/便利店,060200,建国西路289号(天猫服务站),121.457967,31.204912,021-64336046,3.9,[],购物菜场,上海市,上海市,徐汇区
B00155IQN7,好德便利(岳阳路店),购物服务;便民商店/便利店;便民商店/便利店,060200,岳阳路145号,121.452486,31.205886,021-64317789,4.0,[],购物菜场,上海市,上海市,徐汇区
B00156O96R,LAWSON罗森(徐汇苑大厦店),购物服务;便民商店/便利店;便民商店/便利店,060200,中山南二路1089号徐汇苑大厦1层,121.443264,31.178849,,3.9,[],购物菜场,上海市,上海市,徐汇区
B00155IM8F,快客便利店(华容路店),购物服务;便民商店/便利店;便民商店/便利店,060200,华容路89号,121.450973,31.180223,021-54251463,4.0,[],购物菜场,上海市,上海市,徐汇区
B0FFH9UUJQ,六顺杂货店,购物服务;便民商店/便利店;便民商店/便利店,060200,乌中小区西南1门西50米(常熟路地铁站8号口步行420米),121.446101,31.212013,13641866069,4.2,[],购物菜场,上海市,上海市,徐汇区
B0FFG0X1YT,良友(徐汇店),购物服务;便民商店/便利店;便民商店/便利店,060200,徐虹北路110号,121.430450,31.193632,021-64471300,3.7,[],购物菜场,上海市,上海市,徐汇区
B0JKLC5LLG,瑞多便利店(斜土路1674弄小区店),购物服务;便民商店/便利店;便民商店/便利店,060200,斜土路1680号,121.454779,31.195250,13681630218,4.1,[],购物菜场,上海市,上海市,徐汇区
B0FFHCE30A,LAWSON罗森(东方曼哈顿店),购物服务;便民商店/便利店;便民商店/便利店,060200,东方曼哈顿世纪豪庭虹桥路168号4号楼地下室,121.433509,31.191480,,4.0,[],购物菜场,上海市,上海市,徐汇区
B0FFGIEINC,好德便利店(上海衡山路休闲街店),购物服务;便民商店/便利店;便民商店/便利店,060200,吴兴路215号(衡山路地铁站1号口步行320米),121.444755,31.201616,021-64336926;021-64668277,4.1,[],购物菜场,上海市,上海市,徐汇区
B0FFJZH3TL,LAWSON罗森(零陵大木桥588店),购物服务;便民商店/便利店;便民商店/便利店,060200,日晖六村东南1门旁(大木桥路地铁站3号口步行100米),121.461427,31.193408,4008206390,3.9,[],购物菜场,上海市,上海市,徐汇区
B0FFHA0T4U,LAWSON罗森(徐汇软件基地店),购物服务;便民商店/便利店;便民商店/便利店,060200,虹桥路550号,121.428054,31.193453,4008206390,2.6,[],购物菜场,上海市,上海市,徐汇区
B00155HMA0,良友(番禺路小区店),购物服务;便民商店/便利店;便民商店/便利店,060200,番禺路190号,121.429301,31.207106,021-62816287,4.0,[],购物菜场,上海市,上海市,长宁区
B0FFI2KEI9,喜士多便利店(文定店),购物服务;便民商店/便利店;便民商店/便利店,060200,中山西路2240号3号楼A101室,121.430035,31.180939,18918786356,4.0,[],购物菜场,上海市,上海市,徐汇区
B0H037SZAV,喜士多便利店(斜土1a门市),购物服务;便民商店/便利店;便民商店/便利店,060200,斜土路816弄1号底层西侧,121.469115,31.201341,13122288213,4.1,[],购物菜场,上海市,上海市,黄浦区
B0FFFSN8HD,良友(法华镇店),购物服务;便民商店/便利店;便民商店/便利店,060200,法华镇路507号,121.425743,31.204730,021-62802828,3.8,[],购物菜场,上海市,上海市,长宁区
B00155LITT,好德便利店(中国科学院上海分院研究生公寓店),购物服务;便民商店/便利店;便民商店/便利店,060200,肇嘉浜路407号第一幢底层(嘉善路地铁站5号口步行190米),121.458422,31.201816,021-64167204,3.9,[],购物菜场,上海市,上海市,徐汇区
B0MGBMSYEM,喜士多便利店(文定1A店),购物服务;便民商店/便利店;便民商店/便利店,060200,文定路209号A座1楼,121.431949,31.184913,13381761679,2.5,[],购物菜场,上海市,上海市,徐汇区
B0GUC573V8,苏宁小店折扣店(中山南二路店),购物服务;便民商店/便利店;便民商店/便利店,060200,中山南二路900号,121.449985,31.185123,13524649684,3.9,[],购物菜场,上海市,上海市,徐汇区
B00155IM4G,快客便利店(龙华店),购物服务;便民商店/便利店;便民商店/便利店,060200,龙华路1831号(龙华中路地铁站11号口步行150米),121.456173,31.186503,15800428658,4.1,[],购物菜场,上海市,上海市,徐汇区
B0JR07UU42,7-ELEVEn(长宁国际),购物服务;便民商店/便利店;7-ELEVEn便利店,060201,凯旋路1398号4栋1层GD-14-01层,121.420988,31.199972,15877091634,4.0,[],购物菜场,上海市,上海市,长宁区
B00155HNMF,良友(裕德店),购物服务;便民商店/便利店;便民商店/便利店,060200,漕溪北路718号唯鑫企业F1层,121.436166,31.184777,021-64382750,3.9,[],购物菜场,上海市,上海市,徐汇区
B0H0K1RIB0,喜士多便利店,购物服务;便民商店/便利店;便民商店/便利店,060200,东方明珠凯旋中心北门旁(虹桥路地铁站2号口步行60米),121.421420,31.197408,13564969734,3.9,[],购物菜场,上海市,上海市,长宁区
B00155IQK5,好德便利店(番禺路511弄小区店),购物服务;便民商店/便利店;便民商店/便利店,060200,新华路104号(交通大学地铁站5号口步行400米),121.430260,31.201929,021-62819144,3.8,[],购物菜场,上海市,上海市,长宁区
B00155IM5Q,好德便利店(宛平店),购物服务;便民商店/便利店;便民商店/便利店,060200,宛平南路378号,121.447331,31.191007,021-64285720,4.0,[],购物菜场,上海市,上海市,徐汇区
B0FFLOIF4V,LAWSON罗森(中镇小区店),购物服务;便民商店/便利店;便民商店/便利店,060200,法华镇路720弄1-29号中镇小区,121.422501,31.206057,15317179607,4.0,[],购物菜场,上海市,上海市,长宁区
B00155IM22,快客便利店(徐虹店),购物服务;便民商店/便利店;便民商店/便利店,060200,徐虹中路26-1号(宜山路地铁站5号口步行230米),121.424118,31.187520,021-54590767,3.8,[],购物菜场,上海市,上海市,徐汇区
B0FFF628PN,吉盛客生活超市,购物服务;超级市场;超市|购物服务;便民商店/便利店;便民商店/便利店,060400|060200,番禺路868-4号,121.428363,31.197087,13660098816,1.7,[],购物菜场,上海市,上海市,徐汇区
B00155IM70,好德便利店(三航大厦店),购物服务;便民商店/便利店;便民商店/便利店,060200,斜土路1632号三航大厦F1层,121.457809,31.196312,021-64435187,3.8,[],购物菜场,上海市,上海市,徐汇区
B00155HNSD,好德便利(徐汇院区上海交通大学医学院附属精神卫生中心店),购物服务;便民商店/便利店;便民商店/便利店,060200,零陵路598号,121.448430,31.188109,021-64861426,4.0,[],购物菜场,上海市,上海市,徐汇区
B0I1VPSJFP,LAWSON罗森(煤科大厦店),购物服务;便民商店/便利店;便民商店/便利店,060200,天钥桥路1号煤科大厦F1层,121.441133,31.193820,13651688826;4008206390,2.9,[],购物菜场,上海市,上海市,徐汇区
B0FFG69MW8,快客便利店(康兴店),购物服务;便民商店/便利店;便民商店/便利店,060200,康平路69号1层(近吴兴路),121.443480,31.203849,021-64332440,4.0,[],购物菜场,上海市,上海市,徐汇区
B0FFGPWA9J,平武百货超市(和平小区店),购物服务;便民商店/便利店;便民商店/便利店|购物服务;超级市场;超市,060200|060400,平武路142号,121.432045,31.208632,13918222008;18901938457,4.1,[],购物菜场,上海市,上海市,长宁区
B00155IQMN,好德便利店(宛龙店),购物服务;便民商店/便利店;便民商店/便利店,060200,宛平南路933号低层及地下,121.452389,31.183233,021-33685164,3.8,[],购物菜场,上海市,上海市,徐汇区
B0L04CXSHA,全家便利店(新徐虹北路店),购物服务;便民商店/便利店;便民商店/便利店,060200,徐虹北路与柿子湾路交叉口西南60米,121.426705,31.188939,,3.8,[],购物菜场,上海市,上海市,徐汇区
B0FFG2J5YE,良友(斜土路店),购物服务;便民商店/便利店;便民商店/便利店,060200,斜土路1594号,121.459806,31.194575,021-64039836,3.9,[],购物菜场,上海市,上海市,徐汇区
B0JBGUMT3J,寻味粹品食品超市(宛南小区店),购物服务;便民商店/便利店;便民商店/便利店,060200,宛南二村西北门西南90米,121.448390,31.183206,13918007420,3.8,[],购物菜场,上海市,上海市,徐汇区
B00155L7UI,LAWSON罗森(宛平南路三店),购物服务;便民商店/便利店;便民商店/便利店,060200,宛平南路255弄1-35号徐家汇花园,121.446427,31.193621,021-54198302,4.0,[],购物菜场,上海市,上海市,徐汇区
B00155IQKQ,好德(幸福路店),购物服务;便民商店/便利店;便民商店/便利店,060200,幸福路9号(交通大学地铁站5号口步行460米),121.430849,31.203624,021-52101213;021-62810371,3.9,[],购物菜场,上海市,上海市,长宁区
B0FFG1XG05,机械革命(售后服务)数码配件(乌中小区店),购物服务;便民商店/便利店;便民商店/便利店,060200,常熟路地铁站8号口步行460米,121.446495,31.211716,4007802015,3.7,[],购物菜场,上海市,上海市,徐汇区
B0FFK2AJMV,山花小铺,购物服务;便民商店/便利店;便民商店/便利店,060200,复旦大学附属中山医院东院区5号门旁,121.454957,31.197136,021-64170537,3.9,[],购物菜场,上海市,上海市,徐汇区
B0FFGLQUKL,LAWSON罗森(零陵路店),购物服务;便民商店/便利店;便民商店/便利店,060200,宛平南路725号,121.449505,31.187933,,4.0,[],购物菜场,上海市,上海市,徐汇区
B0HGFO7J4Y,LAWSON罗森(恒昌花园店),购物服务;便民商店/便利店;便民商店/便利店,060200,零陵路541号,121.449387,31.188823,4008206390,4.1,[],购物菜场,上海市,上海市,徐汇区
B0G0LUHTLC,LAWSON罗森(新安里店),购物服务;便民商店/便利店;便民商店/便利店,060200,延安西路1264弄1-10号新安里,121.426674,31.209968,4008206390,4.1,[],购物菜场,上海市,上海市,长宁区
B00156YM6Y,甜心烟杂店(建国中路),购物服务;便民商店/便利店;便民商店/便利店,060200,建国中路101号(打浦桥地铁站1号口步行380米),121.469475,31.209578,021-64660407,4.1,[],购物菜场,上海市,上海市,黄浦区
B0FFLFRULM,万昌烟酒商行(瑞金社区店),购物服务;专卖店;烟酒专卖店|购物服务;便民商店/便利店;便民商店/便利店,061210|060200,建国中路26号-5万昌烟酒商行,121.467843,31.209105,15221055159,4.0,[],购物菜场,上海市,上海市,黄浦区
B00153A3D1,天醇杂货店(天平路店),购物服务;便民商店/便利店;便民商店/便利店,060200,天平路139-1号(徐家汇地铁站16号口步行430米),121.438177,31.198978,021-62823686;13004120884,3.7,[],购物菜场,上海市,上海市,徐汇区
B0HKUDXB36,光明便利(枫林店),购物服务;便民商店/便利店;便民商店/便利店,060200,清真路1620号,121.455978,31.198249,021-64032079;021-64037044,3.8,[],购物菜场,上海市,上海市,徐汇区
B0G23ABIHT,喜士多便利店(漕溪北2店),购物服务;便民商店/便利店;便民商店/便利店,060200,漕溪北路45号航空科技大厦F1层,121.439997,31.191929,13328909015;13960592458,3.9,[],购物菜场,上海市,上海市,徐汇区
B0FFG69NSV,良友(法华镇一店),购物服务;便民商店/便利店;便民商店/便利店,060200,法华镇路751弄1-45号西镇小区,121.421589,31.206755,021-62802828,3.8,[],购物菜场,上海市,上海市,长宁区
B0JALG6Q88,罗森便利店(长虹小区店),购物服务;便民商店/便利店;便民商店/便利店,060200,虹桥路996弄3-161号长虹小区,121.420565,31.193799,,4.0,[],购物菜场,上海市,上海市,长宁区
B0LKPBYAIO,7-11便利店(徐家汇站),购物服务;便民商店/便利店;便民商店/便利店,060200,虹桥路183号徐家汇中心,121.435793,31.194202,,3.9,[],购物菜场,上海市,上海市,徐汇区
B0I1GSX058,爱森优选(枫林路店),购物服务;综合市场;农副产品市场|购物服务;便民商店/便利店;便民商店/便利店,060703|060200,枫林路251号,121.456225,31.195207,021-33817260;17163705981,2.0,[],购物菜场,上海市,上海市,徐汇区
B0LARCBFGH,7-ELEVEn(日晖六村店),购物服务;便民商店/便利店;便民商店/便利店,060200,零陵路193号(大木桥路地铁站3号口步行130米),121.461466,31.193432,,4.0,[],购物菜场,上海市,上海市,徐汇区
B00156DHI8,联华快客便利店(斜土路一店),购物服务;便民商店/便利店;便民商店/便利店,060200,斜土路2584(上海体育场地铁站2号口步行330米),121.444276,31.187732,021-64645457,0.9,[],购物菜场,上海市,上海市,徐汇区
B00155IQJZ,好德便利店(蒲汇塘路店),购物服务;便民商店/便利店;便民商店/便利店,060200,徐家汇街道蒲汇塘路101号109室,121.433254,31.187270,021-64697437,2.0,[],购物菜场,上海市,上海市,徐汇区
B0H3YC7ZDA,荟选超市(Hlife荟选集市店),购物服务;便民商店/便利店;便民商店/便利店,060200,徐虹北路11号(宜山路地铁站5号口步行280米),121.427663,31.190230,15000555118,4.1,[],购物菜场,上海市,上海市,徐汇区
B0L3VMH6BF,7-ELEVEn(宜山路店),购物服务;便民商店/便利店;便民商店/便利店,060200,宜山路520号104室-甲(宜山路地铁站9号口步行220米),121.425416,31.181415,,3.8,[],购物菜场,上海市,上海市,徐汇区
B0FFG69WJQ,快客便利店(古宜路店),购物服务;便民商店/便利店;便民商店/便利店,060200,古宜路103号(宜山路地铁站出入口步行200米),121.426126,31.185607,18917160171,3.7,[],购物菜场,上海市,上海市,徐汇区
B00155F6JA,徐汇区兴达杂货商店,购物服务;便民商店/便利店;便民商店/便利店,060200,乌鲁木齐中路304号(常熟路地铁站8号口步行470米),121.446285,31.211639,021-64335407;18964604278,3.7,[],购物菜场,上海市,上海市,徐汇区
B0FFM5L0OG,兰鸿百货商店(宛平南路店),购物服务;便民商店/便利店;便民商店/便利店,060200,宛平南路725-4号,121.449741,31.187182,13262668828,3.8,[],购物菜场,上海市,上海市,徐汇区
B00154DU4Q,荣华杂货店(金谷邨店),购物服务;便民商店/便利店;便民商店/便利店,060200,瑞金二路街道瑞金二路街道瑞金二路街道绍兴路18弄1-83号金谷邨,121.466031,31.210410,13636629722,3.9,[],购物菜场,上海市,上海市,黄浦区
B00155IM8M,良友(宛平南路店),购物服务;便民商店/便利店;便民商店/便利店,060200,宛平南路834号,121.451151,31.184358,021-64383224,3.7,[],购物菜场,上海市,上海市,徐汇区
B00155FFXW,麒麟烟酒店(斜土路店),购物服务;便民商店/便利店;便民商店/便利店,060200,斜土路2586号101室,121.444025,31.187716,13917013140;15201836090,4.4,[],购物菜场,上海市,上海市,徐汇区
B0015709QM,平江便利店(平江路),购物服务;便民商店/便利店;便民商店/便利店,060200,平江路258号附近(肇嘉浜路地铁站2号口步行260米),121.452852,31.199145,13761703937,4.0,[],购物菜场,上海市,上海市,徐汇区
B0FFG0XS8L,良友(天钥新村店),购物服务;便民商店/便利店;便民商店/便利店,060200,天钥新村2号(上海体育场地铁站2号口步行200米),121.445158,31.186230,021-64286250,3.8,[],购物菜场,上海市,上海市,徐汇区
B0KUMD44AW,元华超市(清真路店),购物服务;便民商店/便利店;便民商店/便利店,060200,清真路65号(嘉善路地铁站4号口步行370米),121.459358,31.199316,,4.1,[],购物菜场,上海市,上海市,徐汇区
B001570Y5A,金斯森便利店,购物服务;便民商店/便利店;便民商店/便利店,060200,高安路51号(近衡山路)(衡山路地铁站1号口步行170米),121.445785,31.202803,021-64317268;13806790231,3.8,[],购物菜场,上海市,上海市,徐汇区
B0KB6XDAK5,懒熊百货商店,购物服务;便民商店/便利店;便民商店/便利店,060200,延安西路1448弄1号2c室,121.422926,31.208766,15026628710;15601667547,4.0,[],购物菜场,上海市,上海市,长宁区
B0H64XKA5V,京东便利店(汇景苑店),购物服务;便民商店/便利店;便民商店/便利店,060200,汇景苑西1门旁(嘉善路地铁站2号口步行310米),121.460945,31.204754,17821829688,3.9,[],购物菜场,上海市,上海市,徐汇区
B00155FVFP,统宜便利店(泛太大厦店),购物服务;便民商店/便利店;便民商店/便利店,060200,延安西路1211-2号泛太大厦,121.428050,31.210697,021-62260756,3.9,[],购物菜场,上海市,上海市,长宁区
B0LKNLRAKB,松鼠便利(肇嘉浜店),购物服务;便民商店/便利店;便民商店/便利店,060200,医学院路17号(嘉善路地铁站4号口步行340米),121.459125,31.200425,021-54250985,3.9,[],购物菜场,上海市,上海市,徐汇区
B0KULMXWX7,益友生活(清真路店),购物服务;便民商店/便利店;便民商店/便利店,060200,清真路28-1号,121.459396,31.199561,13574116225,3.6,[],购物菜场,上海市,上海市,徐汇区
B0K3HZ3NPY,7-ELEVEn(协昌小区店),购物服务;便民商店/便利店;便民商店/便利店,060200,天钥桥路888号(上海游泳馆地铁站2号口步行410米),121.444643,31.180027,,4.1,[],购物菜场,上海市,上海市,徐汇区
B0FFHCE2AZ,LAWSON罗森(204067斜土路1400店),购物服务;便民商店/便利店;便民商店/便利店,060200,斜土路1400号-3号(嘉善路地铁站4号口步行410米),121.462188,31.198108,,4.0,[],购物菜场,上海市,上海市,徐汇区
B0G3DR35I3,解忧便利店,购物服务;便民商店/便利店;便民商店/便利店,060200,"泰康路316弄1-8号,泰康路332弄1-4号勤乐邨",121.467685,31.207456,18621638514,4.0,[],购物菜场,上海市,上海市,黄浦区
B001576VW4,琦宝便利店(小木桥路323弄店),购物服务;便民商店/便利店;便民商店/便利店,060200,小木桥路路323弄1-4号小木桥路323弄,121.459110,31.196225,021-64189346;15800325497,3.9,[],购物菜场,上海市,上海市,徐汇区
B0I0LD9F8D,上海苏沪香食品商行,购物服务;便民商店/便利店;便民商店/便利店,060200,中山南二路950弄东南侧,121.448062,31.183558,19359177002,3.9,[],购物菜场,上海市,上海市,徐汇区
B0FFIT7B5W,索尼相机售后维修中心(虹桥路店)(暂停营业),购物服务;家电电子卖场;数码电子|购物服务;便民商店/便利店;便民商店/便利店,060306|060200,虹桥路1号索尼相机售后维修,121.437806,31.193215,4001786378,3.7,[],购物菜场,上海市,上海市,徐汇区
B0FFKYGEJL,百世邻里便利店,购物服务;便民商店/便利店;便民商店/便利店,060200,钦州北路170号,121.421486,31.180429,13918907723,3.8,[],购物菜场,上海市,上海市,徐汇区
B0FFMB69I1,璃梦便利超市(林肯公寓店),购物服务;便民商店/便利店;便民商店/便利店,060200,淮海中路1562弄6号林肯公寓,121.445303,31.208759,13651913622,3.8,[],购物菜场,上海市,上海市,徐汇区
B0FFI090HT,复兴便利,购物服务;便民商店/便利店;便民商店/便利店,060200,复兴中路与宝庆路交叉口西南20米,121.449782,31.210475,13817191309,3.8,[],购物菜场,上海市,上海市,徐汇区
B0FFGI6LF5,快客龙便利店(幸福里店),购物服务;便民商店/便利店;便民商店/便利店,060200,番禺路381号幸福里F座1层,121.430064,31.204216,13681867868,3.9,[],购物菜场,上海市,上海市,长宁区
B0L0GH2ZK3,LAWSON罗森(文定路店),购物服务;便民商店/便利店;便民商店/便利店,060200,裕德路168号,121.432888,31.185503,,4.1,[],购物菜场,上海市,上海市,徐汇区
B001523508,天康百货店,购物服务;便民商店/便利店;便民商店/便利店,060200,天平路208弄1-2号(交通大学地铁站2号口步行430米),121.437498,31.200049,13641641972,3.9,[],购物菜场,上海市,上海市,徐汇区
B0I1VKMF5E,优选便利店(亚都国际名园店),购物服务;便民商店/便利店;便民商店/便利店,060200,亚都国际名园北门旁(徐家汇地铁站2号口步行170米),121.438278,31.188814,13818813659,1.0,[],购物菜场,上海市,上海市,徐汇区
B0FFIBLQ8X,百脑汇(中金国际广场店),购物服务;家电电子卖场;数码电子,060306,漕溪北路339号(徐家汇地铁站4号口旁),121.438482,31.190636,021-31770606;021-61252232,4.6,[],购物菜场,上海市,上海市,徐汇区
B0FFLCV8CP,华为授权服务中心(徐汇漕溪北路),购物服务;家电电子卖场;手机销售|生活服务;维修站点;维修站点,060305|071200,漕溪北路575号(徐汇区区政府右侧斜对面),121.437232,31.188195,021-34771126,4.8,[],购物菜场|生活服务,上海市,上海市,徐汇区
B00155BDWU,太平洋数码1期,购物服务;家电电子卖场;数码电子,060306,太平洋数码一期211-3自强科技有限公司,121.439370,31.192162,15618339131,4.4,[],购物菜场,上海市,上海市,徐汇区
B0I36L81UY,百脑汇huaw(汇嘉大厦店),购物服务;家电电子卖场;数码电子,060306,漕溪北路339号百脑汇一楼1A08(徐家汇地铁站4号口旁),121.438482,31.190636,021-61252232;17301836828,4.5,[],购物菜场,上海市,上海市,徐汇区
B00155QBT6,中国电信(漕溪北路营业厅),生活服务;电讯营业厅;中国电信营业厅|购物服务;家电电子卖场;手机销售|公司企业;公司;电信公司,070601|060305|170208,漕溪北路915号(上海体育馆地铁站1号口步行180米),121.437280,31.183824,021-64416603;021-64684001,4.2,[],购物菜场,上海市,上海市,徐汇区
B0JG7ZSM30,小米之家(徐汇区徐家汇百联商业广场汽车旗舰店),购物服务;家电电子卖场;手机销售,060305,天平路街道上海市徐汇区华山路2038号1层G49-1F-1-001室2层G49-2F-1-001室,121.437379,31.196797,021-54112859,4.5,[],购物菜场,上海市,上海市,徐汇区
B0LRBZLTZP,尼康超级典范店御成phot旗舰店,购物服务;家电电子卖场;数码电子,060306,瑞金南路169号,121.468459,31.201225,021-54250634;15021932241,4.7,[],购物菜场,上海市,上海市,黄浦区
B0FFKQNZ3N,Apple授权专营店(港汇恒隆广场店),购物服务;家电电子卖场;手机销售|购物服务;家电电子卖场;数码电子|生活服务;维修站点;维修站点,060305|060306|071200,虹桥路1号6楼608A(徐家汇地铁站出口步行80米),121.437189,31.194592,021-54561271,4.4,[],购物菜场|生活服务,上海市,上海市,徐汇区
B0G1691SJH,Apple授权专营店(美罗城店),购物服务;家电电子卖场;手机销售,060305,肇嘉浜路1111号一层1-4室(徐家汇地铁站出入口旁),121.439960,31.193199,021-54198973,4.3,[],购物菜场,上海市,上海市,徐汇区
B0HK5CKK0T,方太集团FotileStyle全屋定制,购物服务;家电电子卖场;数码电子|购物服务;家居建材市场;厨卫市场,060306|060604,肇嘉浜路658号(肇嘉浜路地铁站2号口步行110米),121.449794,31.199716,021-64735058,4.4,[],购物菜场,上海市,上海市,徐汇区
B0JK4ZQB2S,华为智能生活馆•上海TPY中心,购物服务;家电电子卖场;手机销售,060305,肇嘉浜路1117号1层,121.439144,31.193200,021-34197898,4.7,[],购物菜场,上海市,上海市,徐汇区
B0FFI92JRC,上海技嘉AORUS百脑汇旗舰店,购物服务;家电电子卖场;数码电子,060306,漕溪北路339号(徐家汇地铁站4号口旁),121.438268,31.190488,13524894494,4.3,[],购物菜场,上海市,上海市,徐汇区
B0FFFRHO7X,Apple授权专营店(正大乐城店),购物服务;家电电子卖场;手机销售,060305,中山南二路699号正大乐城1层7-109,121.458180,31.186387,021-60191685,4.6,[],购物菜场,上海市,上海市,徐汇区
B0HBXCPX8D,华为授权体验店(日月光中心),购物服务;家电电子卖场;手机销售,060305,徐家汇路618号日月光中心一层(打浦桥地铁站4号口旁),121.467542,31.206554,021-54526491;18217748878,4.6,[],购物菜场,上海市,上海市,黄浦区
B0I6YDP6N6,上海知音堂,购物服务;家电电子卖场;数码电子,060306,肇嘉浜路1065号飞雕国际大厦1104室,121.441290,31.194396,021-54233879,4.3,[],购物菜场,上海市,上海市,徐汇区
B0KUUDU9AK,佳能官方旗舰店,购物服务;家电电子卖场;数码电子,060306,漕溪北路41号太平洋数码一期一楼101室(临街店),121.438843,31.192121,021-54566528;18221756541,4.6,[],购物菜场,上海市,上海市,徐汇区
B0FFJBBVSF,华为授权体验店(美罗城),购物服务;家电电子卖场;数码电子,060306,肇嘉浜路1111号美罗城1层近B区门口1/14号华为授权体验店,121.438944,31.192465,021-33685876,4.6,[],购物菜场,上海市,上海市,徐汇区
B0HRTB4NFJ,三星授权体验店(美罗城店),购物服务;家电电子卖场;手机销售,060305,肇嘉浜路1111号(徐家汇地铁站出入口旁),121.439142,31.192568,15001755899;15821769108,4.5,[],购物菜场,上海市,上海市,徐汇区
B0LDPAO3JG,索尼PlayStation5PS5专卖店,购物服务;家电电子卖场;数码电子,060306,东安路562号B103(龙华中路地铁站出入口步行70米),121.456580,31.183562,13127933730,4.2,[],购物菜场,上海市,上海市,徐汇区
B0FFKWXM9C,华为授权体验店(徐汇正大乐城),购物服务;家电电子卖场;手机销售,060305,船厂路36号正大乐城1层5-102号华为授权体验店,121.457830,31.186478,021-33560602,4.5,[],购物菜场,上海市,上海市,徐汇区
B0KG5M5TVY,华为授权体验店(港汇恒隆广场),购物服务;家电电子卖场;手机销售,060305,虹桥路1号港汇恒隆广场6层608华为授权体验店,121.437232,31.194365,18670446723,4.6,[],购物菜场,上海市,上海市,徐汇区
B0FFIQYSVW,华为授权体验店(徐汇绿地缤纷城),购物服务;家电电子卖场;手机销售,060305,东安路562号徐汇绿地缤纷城1层WE107号华为授权体验店近地铁7号,121.457075,31.184014,021-54893299,4.4,[],购物菜场,上海市,上海市,徐汇区
B0FFHDAH4S,OPPO官方授权体验店(上海徐汇区百脑汇店),购物服务;家电电子卖场;手机销售,060305,徐家汇街道漕溪北路339号L1A02(徐家汇地铁站4号口旁),121.438358,31.190787,13774311850,4.4,[],购物菜场,上海市,上海市,徐汇区
B0FFJBBVTL,小米之家(徐汇区美罗城店),购物服务;家电电子卖场;手机销售|购物服务;家电电子卖场;数码电子,060305|060306,天平路街道上海上海市徐汇区肇嘉浜路1111号,121.439664,31.193025,021-33682077,4.2,[],购物菜场,上海市,上海市,徐汇区
B00156EPNQ,中国移动通信,购物服务;家电电子卖场;手机销售|生活服务;生活服务场所;生活服务场所,060305|070000,斜土路1457号,121.460359,31.197785,13916310087,4.3,[],购物菜场,上海市,上海市,徐汇区
B0GK16TM1W,DJI大疆丨哈苏(上海港汇恒隆概念店),购物服务;家电电子卖场;数码电子,060306,虹桥路1号港汇恒隆广场1层171、172号铺,121.437189,31.194544,021-64260598;13166357915,4.6,[],购物菜场,上海市,上海市,徐汇区
B0FFI929W1,荣耀授权体验店(百脑汇店),购物服务;家电电子卖场;手机销售,060305,漕溪北路339号百脑汇二楼2C05荣耀体验店,121.438475,31.190936,13341832431,4.5,[],购物菜场,上海市,上海市,徐汇区
B0JKDZ1S21,OPPO官方授权服务体验中心(上海徐汇区上海电影广场店),购物服务;家电电子卖场;手机销售,060305,漕溪北路595号上海电影集团办公楼A座6楼6007室,121.438366,31.186586,021-60385792,4.4,[],购物菜场,上海市,上海市,徐汇区
B0LDXC5YJI,太平洋数码广场(汇嘉大厦店),购物服务;家电电子卖场;数码电子,060306,肇嘉浜路1117号(近漕溪北路),121.438888,31.192095,021-54905900;15316789190,4.0,[],购物菜场,上海市,上海市,徐汇区
B0FFHI50F4,任天堂switch专卖店,购物服务;家电电子卖场;数码电子,060306,漕溪北路339号百脑汇3楼3B03D(徐家汇地铁站4号口旁),121.438097,31.190679,13564632322,4.1,[],购物菜场,上海市,上海市,徐汇区
B0FFFGWQH5,中国电信(肇嘉浜路专营店),购物服务;家电电子卖场;手机销售|生活服务;电讯营业厅;中国电信营业厅,060305|070601,肇嘉浜路549号(平华大厦内),121.456519,31.201275,021-64180054,4.5,[],购物菜场,上海市,上海市,徐汇区
B0FFGY7KE9,戴尔微星微软授权服务中心(明申中心大厦店),购物服务;家电电子卖场;数码电子,060306,凯旋路3131号明申中心大厦28层2808,121.432656,31.181669,15821484924,4.4,[],购物菜场,上海市,上海市,徐汇区
B0L02HN4VK,DJI大疆授权体验专区(百脑汇店),购物服务;家电电子卖场;数码电子,060306,上海市徐汇区漕溪北路339号一楼1B04B,121.438482,31.190636,18616898910,4.3,[],购物菜场,上海市,上海市,徐汇区
B0HK27XPON,荣耀授权体验店(打浦桥日月光中心店),购物服务;家电电子卖场;手机销售,060305,徐家汇路618号荣耀体验店,121.467801,31.206169,19121131318,4.3,[],购物菜场,上海市,上海市,黄浦区
B0FFHDBLT2,DJI大疆授权体验专区(太平洋数码一期),购物服务;家电电子卖场;数码电子,060306,街道漕溪北路41号太平洋数码一期1层105号,121.438936,31.192134,17621937517;18621637322,4.5,[],购物菜场,上海市,上海市,徐汇区
B0KAGHZDC0,尼康官方典范店Nikon,购物服务;家电电子卖场;数码电子,060306,上海城区肇嘉浜路1111号B段2层2-13B单元,121.439649,31.192944,021-52271197;18221958205,4.5,[],购物菜场,上海市,上海市,徐汇区
B0FFK091RW,FUJIFILM富士相机专卖店,购物服务;家电电子卖场;数码电子|购物服务;专卖店;摄影器材店,060306|061212,肇嘉浜路1111号美罗城2F层(徐家汇地铁站出入口旁),121.439221,31.192685,15721574352,4.2,[],购物菜场,上海市,上海市,徐汇区
B0HRJPL4MY,佳能认证店(御成美罗店),购物服务;家电电子卖场;数码电子,060306,肇嘉浜路1111号美罗城2楼2-16B,121.439458,31.192756,021-54665388,4.6,[],购物菜场,上海市,上海市,徐汇区
B0HK9D2T5J,小米之家(黄浦区打浦桥日月光广场专卖店),购物服务;家电电子卖场;手机销售,060305,打浦桥街道上海上海市黄浦区徐家汇路618号瑞金区1F-RJ-01-04室,121.467924,31.205803,13221383980,4.2,[],购物菜场,上海市,上海市,黄浦区
B0J6PPY6T1,OPPO官方授权体验店(徐汇打浦桥日月光店),购物服务;家电电子卖场;手机销售,060305,徐家汇路618号打浦桥日月光1F-RJ05-07,121.467804,31.205880,17317320801,4.1,[],购物菜场,上海市,上海市,黄浦区
B0FFGZI5U8,尼康Nikon典范店PLUS百脑汇总店,购物服务;家电电子卖场;数码电子,060306,漕溪北路百脑汇一楼1B02B(徐家汇地铁站4号口旁),121.438325,31.190783,021-60293866;13910763001,4.4,[],购物菜场,上海市,上海市,徐汇区
B0FFKHZUDL,三星授权体验店(徐汇漕溪北路店),购物服务;家电电子卖场;手机销售,060305,漕溪北路333号百脑汇2期(徐家汇地铁站4号口旁),121.438446,31.190795,13651517056;18795986679,4.5,[],购物菜场,上海市,上海市,徐汇区
B0HK5UM5W8,华为授权体验店(光启城),购物服务;家电电子卖场;手机销售,060305,宜山路455号光启城L1层158-160号华为授权体验店,121.428197,31.183748,021-64281779,4.1,[],购物菜场,上海市,上海市,徐汇区
B0KUGAUFT0,美的智慧家(上海尚海整装黄浦店美的装企店),购物服务;家电电子卖场;家电电子卖场,060300,打浦桥街道肇嘉浜路100弄(打浦桥地铁站4号口步行350米),121.465155,31.204389,17621091867,4.1,[],购物菜场,上海市,上海市,黄浦区
B0K15STKB2,蓝盒子床垫(长宁•自营店),购物服务;家电电子卖场;家电电子卖场,060300,昭化路618海粟文化广场C栋1楼06室,121.420057,31.210581,16601756238,4.3,[],购物菜场,上海市,上海市,长宁区
B0G1PMIMYF,科大讯飞旗舰店(上海徐家汇TPY中心),购物服务;家电电子卖场;数码电子,060306,肇嘉浜路1117号TPY中心三楼L3-03,121.439917,31.193066,13524966936,3.7,[],购物菜场,上海市,上海市,徐汇区
B0H0XZ1POJ,小米之家(徐汇区正大乐城专卖店),购物服务;家电电子卖场;手机销售,060305,斜土路街道上海市徐汇区中山南二路699号正大乐城小米之家,121.458128,31.186349,18217090985,4.1,[],购物菜场,上海市,上海市,徐汇区
B0FFFXQUPD,Bose(上海港汇恒隆广场店),购物服务;家电电子卖场;数码电子,060306,虹桥路1号港汇广场6楼,121.437453,31.194251,021-64283313,4.2,[],购物菜场,上海市,上海市,徐汇区
B0FFKFKOXQ,ROG玩家国度(百脑汇店),购物服务;家电电子卖场;数码电子,060306,漕溪北路339号百脑汇1B06室,121.438384,31.190667,13671858540;18686427711,4.1,[],购物菜场,上海市,上海市,徐汇区
B0FFMDS49V,FUJIFILM富士相机专卖店(上海熙秉),购物服务;家电电子卖场;数码电子|购物服务;专卖店;摄影器材店,060306|061212,漕溪北路339号百脑汇2D10(徐家汇地铁站4号口旁),121.438454,31.190698,15618995960;18315396181,4.1,[],购物菜场,上海市,上海市,徐汇区
B0KGZMWEE6,DJI大疆授权专卖店(上海TPY中心店),购物服务;家电电子卖场;数码电子,060306,肇嘉浜路1117号TPY中心L2-12,121.439170,31.193095,13336202499,4.5,[],购物菜场,上海市,上海市,徐汇区
B0FFIKJ77V,佳能旗舰店,购物服务;家电电子卖场;数码电子|购物服务;专卖店;摄影器材店,060306|061212,肇嘉浜路1117号TPY中心3层1、11、9号线10号口,121.439319,31.192958,15921044292,4.1,[],购物菜场,上海市,上海市,徐汇区
B0L1BGY597,DJI大疆(上海御成授权体验店),购物服务;家电电子卖场;手机销售,060305,瑞金南路169号瑞金南路与斜土路交叉口,121.468494,31.201017,,4.4,[],购物菜场,上海市,上海市,黄浦区
B0J01SUZ1Q,华为鸿蒙智家授权体验店(喜盈门国际馆),购物服务;家电电子卖场;手机销售,060305,宜山路407号301室(宜山路地铁站2号口步行190米),121.429690,31.186020,18964286648,4.5,[],购物菜场,上海市,上海市,徐汇区
B0H6XMUN0N,ROG玩家国度(徐家汇太平洋店),购物服务;家电电子卖场;数码电子,060306,漕溪北路41号太平洋数码一期102室,121.438946,31.192077,13641744572,4.0,[],购物菜场,上海市,上海市,徐汇区
B0FFIZAKKW,微软Surface&XBOX专卖店(上海仲璇百脑汇店),购物服务;家电电子卖场;数码电子,060306,漕溪北路339号百脑汇1B04A(徐家汇地铁站4号口旁),121.438240,31.190640,13681644394,4.1,[],购物菜场,上海市,上海市,徐汇区
B0IUHCOU3N,索尼PlayStation(绿地缤纷城店),购物服务;家电电子卖场;数码电子,060306,东安路562号徐汇绿地缤纷城西区一楼103,121.456425,31.183428,13816737099,4.1,[],购物菜场,上海市,上海市,徐汇区
B0J1K5BDPU,Shokz韶音(上海港汇恒隆店),购物服务;家电电子卖场;数码电子,060306,虹桥路1号港汇恒隆广场南座5层515B号Shokz韶音,121.437162,31.194272,19301245118,4.2,[],购物菜场,上海市,上海市,徐汇区
B0K3X505AS,松下相机专卖店,购物服务;家电电子卖场;数码电子,060306,2C10A(徐家汇地铁站4号口旁),121.438301,31.190737,15618995960;18315396181,4.2,[],购物菜场,上海市,上海市,徐汇区
B0FFKDTD0P,DJI大疆专区店(上海南洋1931店),购物服务;家电电子卖场;数码电子,060306,裕德路111号南洋1931商场一楼大疆专区,121.432925,31.185918,13817404340,4.5,[],购物菜场,上海市,上海市,徐汇区
B00154DNUS,联华(香花桥小区店),购物服务;家电电子卖场;手机销售|购物服务;超级市场;超市,060305|060400,新华路370弄之2-36号香花桥小区,121.425034,31.203729,021-52540051;18019785722,4.2,[],购物菜场,上海市,上海市,长宁区
B0H1B5Y337,润影音生活馆,购物服务;家电电子卖场;数码电子,060306,徐汇区宜山路320号喜盈门全案定制中心2楼C216-C217/1楼C107,121.429126,31.188205,15301851939,3.9,[],购物菜场,上海市,上海市,徐汇区
B0LG7AWHD4,海尔专卖店(宜山路家饰佳店),购物服务;家电电子卖场;家电电子卖场,060300,宜山路450号2楼G2006室,121.426708,31.184046,15900771385;15900997596,4.1,[],购物菜场,上海市,上海市,徐汇区
B0FFHRLZQW,SONY体验店(美罗城店),购物服务;家电电子卖场;数码电子,060306,徐家汇肇嘉浜路1111号美罗城4楼,121.439372,31.192545,021-33688086,4.1,[],购物菜场,上海市,上海市,徐汇区
B0FFMF3EBJ,百脑汇索尼专卖店(上海店),购物服务;家电电子卖场;数码电子,060306,漕溪北路339号(徐家汇地铁站4口旁),121.438348,31.190724,021-61158186;15026950010,4.2,[],购物菜场,上海市,上海市,徐汇区
B00156E3HN,玛祖铭立上海办公生活体验中心(旗舰店),购物服务;家电电子卖场;数码电子,060306,肇嘉浜路686号(肇嘉浜路地铁站2号口步行220米),121.448738,31.199462,021-54560682;021-54756399,4.2,[],购物菜场,上海市,上海市,徐汇区
B0KAZMA27U,美的智慧家(上海尚海整装宜山路店),购物服务;家电电子卖场;家电电子卖场,060300,宜山路515弄3层(宜山路地铁站9号口步行420米),121.425689,31.180386,18365591165,3.9,[],购物菜场,上海市,上海市,徐汇区
B0LGJSO5L7,logitech 罗技,购物服务;家电电子卖场;数码电子,060306,漕溪北路41号太平洋数码一期一楼160室罗技店,121.439045,31.192045,15801858668,4.2,[],购物菜场,上海市,上海市,徐汇区
B0LR7HJ3H9,华硕电脑(上海百脑汇店),购物服务;家电电子卖场;家电电子卖场,060300,上海城区漕溪北路339号101部位1C01室,121.438465,31.190685,13127795661,4.2,[],购物菜场,上海市,上海市,徐汇区
B0FFF00KXN,中国联通(轻工大木桥小区店),购物服务;家电电子卖场;手机销售,060305,大木桥路316号(大木桥路地铁站4号口步行410米),121.461918,31.197573,021-33633228,4.5,[],购物菜场,上海市,上海市,徐汇区
B0KKC7I429,影石Insta360上海百脑汇店,购物服务;家电电子卖场;数码电子,060306,徐家汇百脑汇二期一楼影石专卖店1B05,121.438345,31.190656,15168406397,4.2,[],购物菜场,上海市,上海市,徐汇区
B0KGOHHERO,摩飞电器体验店,购物服务;家电电子卖场;家电电子卖场,060300,肇嘉浜路1117号TPY中心3楼L3-16,121.439122,31.193035,18221858881,3.8,[],购物菜场,上海市,上海市,徐汇区
B0FFHDKVSD,vivo专卖店(百脑汇店),购物服务;家电电子卖场;手机销售,060305,漕溪北路339号百脑汇2层(徐家汇地铁站4号口旁),121.438366,31.190786,13524213801;13916107125,4.1,[],购物菜场,上海市,上海市,徐汇区
B00155ISF4,联想科技有限公司(法华店),购物服务;家电电子卖场;数码电子,060306,法华镇路751弄1-45号西镇小区,121.422614,31.206271,4001883251,[],[],购物菜场,上海市,上海市,长宁区
B0H0UOQU3F,中国移动(零陵路营业厅),购物服务;家电电子卖场;手机销售,060305,零陵小区东南1门旁(上海体育场地铁站2号口步行190米),121.445432,31.187188,13636692608,4.2,[],购物菜场,上海市,上海市,徐汇区
B0JD719RBF,XGIMI极米投影(港汇恒隆店),购物服务;家电电子卖场;数码电子|生活服务;摄影冲印店;摄影冲印,060306|071300,港汇恒隆广场,121.437727,31.194381,17521055896,3.9,[],购物菜场,上海市,上海市,徐汇区
B0JR9DG7UF,大金空调(上海)旗舰店,购物服务;家电电子卖场;家电电子卖场,060300,宜山路439号2层(宜山路地铁站7号口旁),121.427783,31.184167,15000819240,4.0,[],购物菜场,上海市,上海市,徐汇区
B0FFI0M894,Canon佳能相机(售后服务)数码配件(番禺路四店),购物服务;家电电子卖场;数码电子,060306,番禺路878号,121.428253,31.196254,4001650610,3.6,[],购物菜场,上海市,上海市,徐汇区
B0FFIPPRIE,小飞手机平板电脑回收维修店,购物服务;家电电子卖场;手机销售|生活服务;维修站点;维修站点,060305|071200,漕溪北路41号136室(徐家汇地铁站9号口旁),121.439173,31.192170,,4.5,[],购物菜场|生活服务,上海市,上海市,徐汇区
B0FFM5OPFP,任天堂Nintendo Switch(美罗城店),购物服务;家电电子卖场;数码电子,060306,肇嘉浜路1111号美罗城3F层3-3B,121.439824,31.192771,18621818618,4.0,[],购物菜场,上海市,上海市,徐汇区
B0LAFHRQQR,小米之家(徐汇区绿地缤纷广场专卖店),购物服务;家电电子卖场;数码电子,060306,斜土路街道东安路562号WC-101,121.456148,31.183515,15800852307,4.1,[],购物菜场,上海市,上海市,徐汇区
B0I1LKDIS4,索尼授权指定店(上海美罗城),购物服务;家电电子卖场;数码电子,060306,肇嘉浜路1111号4楼4-8B(徐家汇地铁站出入口旁),121.439456,31.192619,18321733072,4.4,[],购物菜场,上海市,上海市,徐汇区
B0LABM38O6,卡萨帝旗舰店(上海徐汇东方商厦),购物服务;家电电子卖场;家电电子卖场,060300,漕溪北路8号F5家电,121.437808,31.193361,15821677286,3.5,[],购物菜场,上海市,上海市,徐汇区
B0I2BDZN72,Apple(百脑汇店),购物服务;家电电子卖场;数码电子,060306,漕溪北路339号百脑汇五楼5C07B,121.438625,31.190675,021-61910668;13564187613;13918892187,3.7,[],购物菜场,上海市,上海市,徐汇区
B0FFMCG89Z,太平洋网络(太平洋数码1期店),购物服务;家电电子卖场;手机销售,060305,徐家汇街道漕溪北路41号太平洋数码一期118,121.439323,31.192176,021-54243802,4.2,[],购物菜场,上海市,上海市,徐汇区
B0HD2YBURQ,Nespresso(One ITC店),购物服务;家电电子卖场;家电电子卖场,060300,华山路1901号国贸汇广场L233,121.438198,31.197815,13167042024,3.8,[],购物菜场,上海市,上海市,徐汇区
B0FFKSDS6A,爱回收(美罗城店)·手机数码奢侈品黄金回收,购物服务;家电电子卖场;数码电子|生活服务;生活服务场所;生活服务场所,060306|070000,肇嘉浜路1111号A段2层2-18F单元,121.439705,31.193163,,4.3,[],购物菜场,上海市,上海市,徐汇区
B0JBCAHWQ4,卡萨帝旗舰店(宜山路七建大厦店),购物服务;家电电子卖场;家电电子卖场,060300,田林街道宜山路439号1楼南区102室,121.427541,31.183991,13501801615,4.2,[],购物菜场,上海市,上海市,徐汇区
B0FFF6X9EQ,JBL(美罗城店),购物服务;家电电子卖场;数码电子,060306,肇嘉浜路1111号美罗城3楼,121.439434,31.192748,021-64267085;15202191755;15800702940,4.0,[],购物菜场,上海市,上海市,徐汇区
B0IU75LWFQ,日立中央空调(官方旗舰店),购物服务;家电电子卖场;家电电子卖场,060300,宜山路450号B层105(宜山路地铁站9号口步行180米),121.425273,31.184097,15618339395,3.8,[],购物菜场,上海市,上海市,徐汇区
B0FFIXR3B3,Canon佳能相机(售后服务)数码配件(南丹路店),购物服务;家电电子卖场;数码电子,060306,南丹路348号(宜山路地铁站5号口步行470米),121.428098,31.191249,4007802015,3.9,[],购物菜场,上海市,上海市,徐汇区
B0KGO7I5HN,小米之家(徐汇区南洋1931专卖店),购物服务;家电电子卖场;数码电子,060306,徐家汇街道上海市徐汇区裕德路125号一层01部位F1-09号单元,121.433175,31.185925,18501613140,4.1,[],购物菜场,上海市,上海市,徐汇区
B0LG7AVBH0,卡萨帝中央空调(城市体验中心),购物服务;家电电子卖场;家电电子卖场,060300,凯旋路3021-2号(宜山路地铁站2号口步行290米),121.429751,31.184327,13816608513,4.1,[],购物菜场,上海市,上海市,徐汇区
B0L315UFL7,东芝星级生活馆(上海喜盈门店),购物服务;家电电子卖场;家电电子卖场,060300,宜山路407-1号(宜山路地铁站2号口步行350米),121.430275,31.186275,13661654427,4.1,[],购物菜场,上海市,上海市,徐汇区
B0H245MFRH,中国移动(海华商厦店),购物服务;家电电子卖场;手机销售,060305,徐家汇路669号-08.海华商厦打浦路8号109室,121.469167,31.205121,13816439666,4.0,[],购物菜场,上海市,上海市,黄浦区
B0IGNSZ2EN,荣耀官方授权服务中心(徐汇漕溪北路店)(暂停营业),购物服务;家电电子卖场;手机销售,060305,漕溪北路551号一层(徐家汇地铁站2号口步行100米),121.437510,31.188521,021-60380195;021-64328772,4.6,[],购物菜场,上海市,上海市,徐汇区
B0JGDCH44F,亿通手机维修换屏,购物服务;家电电子卖场;手机销售|生活服务;维修站点;维修站点,060305|071200,泰康路282号(打浦桥地铁站1号口步行50米),121.468075,31.207534,13611611997,4.2,[],购物菜场|生活服务,上海市,上海市,黄浦区
B0JUYUNFMI,约克天氟地水中央空调地暖(家饰佳店),购物服务;家电电子卖场;家电电子卖场,060300,宜山路450号B1068号(宜山路地铁站9号口步行170米),121.425401,31.184242,13774221192;13816414279,3.9,[],购物菜场,上海市,上海市,徐汇区
B0FFGWHEIE,ALIENWARE外星人(美罗城总店),购物服务;家电电子卖场;数码电子,060306,肇嘉浜路1111号美罗城B区3层3-13,121.439319,31.192663,13061751780,4.2,[],购物菜场,上海市,上海市,徐汇区
B0L07C2DZZ,Nikon尼康相机(延安西路店),购物服务;家电电子卖场;数码电子,060306,延安西路1228号尼康相机售后维修,121.427970,31.209776,4001828153,3.6,[],购物菜场,上海市,上海市,长宁区
B0FFHYIWGO,中国移动,购物服务;家电电子卖场;手机销售,060305,瑞金二路231号(打浦桥地铁站1号口步行230米),121.466929,31.207843,13611782825,4.1,[],购物菜场,上海市,上海市,黄浦区
B0K0YDE7PZ,小米之家(徐汇区光启城专卖店),购物服务;家电电子卖场;手机销售,060305,田林街道上海上海市徐汇区宜山路455号光启城时尚购物中心F1,121.428204,31.184219,13512180787,4.1,[],购物菜场,上海市,上海市,徐汇区
B0JR97H48T,科大讯飞AI学习机专卖店(徐汇百脑汇店),购物服务;家电电子卖场;数码电子,060306,漕溪北路339号百脑汇一楼1C05A(徐家汇地铁站4号口旁),121.438384,31.190443,13761624707,3.8,[],购物菜场,上海市,上海市,徐汇区
B00155HMDE,上海天复文印数码科技有限公司,购物服务;专卖店;摄影器材店|购物服务;家电电子卖场;家电电子卖场|生活服务;维修站点;维修站点,061212|060300|071200,湖南路577号,121.433575,31.207844,,4.3,[],购物菜场|生活服务,上海市,上海市,长宁区
B0L2FH1ESM,华硕电脑 DIY组装电脑(中金国际广场店),购物服务;家电电子卖场;数码电子,060306,漕溪北路339号百脑汇3楼3C01室,121.438340,31.190485,18616781591,3.8,[],购物菜场,上海市,上海市,徐汇区
B0G1C7QZPE,田雨日立中央空调·采暖·新风(宜山路店),购物服务;家电电子卖场;家电电子卖场,060300,宜山路436号金银岛商场3楼G9-11室(地铁10号出口直达商场地下室),121.427245,31.184693,13818486695;18301839295,3.4,[],购物菜场,上海市,上海市,徐汇区
B0J0OU86PR,博世家电(全球旗舰店),购物服务;家电电子卖场;家电电子卖场,060300,凯旋路2588号101博世(宜山路地铁站2号口步行230米),121.428875,31.185582,18516238867,4.3,[],购物菜场,上海市,上海市,徐汇区
B0FFHSKLKY,华为合作店(百脑汇),购物服务;家电电子卖场;手机销售,060305,漕溪北路339号百脑汇上海店2楼2C02,121.438331,31.190751,19167681155,3.7,[],购物菜场,上海市,上海市,徐汇区
B0K12B7T7Q,博朗上海港汇恒隆广场南座615C,购物服务;家电电子卖场;综合家电商场,060301,虹桥路100-2号,121.437046,31.194584,13918727072,4.0,[],购物菜场,上海市,上海市,徐汇区
B0IK5RW4IC,爱回收|手机数码·黄金·奢侈品回收(正大乐城店),购物服务;家电电子卖场;家电电子卖场,060300,中山南二路699号正大乐城F1层5-106-1B,121.458126,31.186686,,4.2,[],购物菜场,上海市,上海市,徐汇区
B0J0HHVK2N,三菱重工中央空调·城市展厅·物优家,购物服务;家电电子卖场;家电电子卖场,060300,蒲汇塘路185-1临号(宜山路地铁站3号口步行490米),121.430351,31.188203,18901602383,4.2,[],购物菜场,上海市,上海市,徐汇区
B0LRBZLU11,富士相机体验店御成phot旗舰店,购物服务;家电电子卖场;数码电子,060306,瑞金南路185弄之1-6号瑞南新苑,121.468421,31.201087,,4.3,[],购物菜场,上海市,上海市,黄浦区
B0HAFUTRLH,欧美佳电smeg(旗舰店),购物服务;家电电子卖场;家电电子卖场,060300,凯旋路3033号,121.431757,31.182637,021-54258967,4.0,[],购物菜场,上海市,上海市,徐汇区
B0L6X93K1M,卡萨帝旗舰店(盛源大地店),购物服务;家电电子卖场;家电电子卖场,060300,文定路200号2层,121.432077,31.186654,17115932993;18912146705,3.8,[],购物菜场,上海市,上海市,徐汇区
B0FFHYJJ9M,大金空调蒲汇塘路店,购物服务;家电电子卖场;家电电子卖场,060300,蒲汇塘路150号(宜山路地铁站3号口步行470米),121.430387,31.187417,021-54840588;13801934363;15821770353,3.8,[],购物菜场,上海市,上海市,徐汇区
B0L01DFTG0,索尼相机(肇嘉浜路店),购物服务;家电电子卖场;数码电子,060306,肇嘉浜路249号索尼相机售后维修,121.462670,31.202787,4001877367,3.6,[],购物菜场,上海市,上海市,徐汇区
B0GRL7NX7B,RELX悦刻(太平洋数码一期),购物服务;家电电子卖场;家电电子卖场,060300,漕溪北路41号太平洋数码1期1层洗手间对面155,121.439091,31.192061,13391261799,4.3,[],购物菜场,上海市,上海市,徐汇区
B00155FW97,联想科技有限公司(斜土路一店),购物服务;家电电子卖场;数码电子,060306,斜土路2584(上海体育场地铁站2号口步行330米),121.444276,31.187732,4001687862,4.1,[],购物菜场,上海市,上海市,徐汇区
B0LGGC0NWJ,卡萨帝旗舰店(宜山路店),购物服务;家电电子卖场;家电电子卖场,060300,斜土路街道宜山路439号(宜山路地铁站7号口步行80米),121.427628,31.183914,13052037918,3.9,[],购物菜场,上海市,上海市,徐汇区
B0FFL9ZEHR,倍轻松(美罗城店),购物服务;家电电子卖场;家电电子卖场|购物服务;专卖店;专营店,060300|061200,肇嘉浜路1111号3-14B/15A,121.439372,31.192723,13764711460,3.6,[],购物菜场,上海市,上海市,徐汇区
B0FFH7STSN,逸亚手机电脑维修,购物服务;家电电子卖场;数码电子,060306,番禺路383号,121.430051,31.204211,13671690111,4.0,[],购物菜场,上海市,上海市,长宁区
B0FFK8YAMT,小天才步步高(百脑汇店),购物服务;家电电子卖场;数码电子,060306,漕溪北路333号中金国际广场B楼F2层,121.438461,31.190934,,3.9,[],购物菜场,上海市,上海市,徐汇区
B0FFI8V2ML,联想来酷智生活专卖店(百脑汇店),购物服务;家电电子卖场;数码电子,060306,漕溪北路339号百脑汇1B03号(徐家汇地铁站4号口旁),121.438380,31.190667,18701742249,3.8,[],购物菜场,上海市,上海市,徐汇区
B0I1XUODXT,佳能·索尼·徕卡·奥林巴斯相机生活馆(太平洋数码一期店),购物服务;家电电子卖场;数码电子,060306,漕溪北路41号太平洋数码一期108室,121.438938,31.192097,13022156002,4.2,[],购物菜场,上海市,上海市,徐汇区
B0FFGZ0UQJ,飞利浦睡眠呼吸体验中心(建国中路店),购物服务;家电电子卖场;家电电子卖场,060300,建国中路169号(打浦桥地铁站1号口步行280米),121.467167,31.208611,021-54061382,4.1,[],购物菜场,上海市,上海市,黄浦区
B0K3ZMFOY0,格力家饰佳宜山路店,购物服务;家电电子卖场;家电电子卖场,060300,宜山路450号2楼(宜山路地铁站9号口步行150米),121.425798,31.184419,13681729922,3.8,[],购物菜场,上海市,上海市,徐汇区
B0G3ZYNPSC,数码小镇(中金国际广场百脑汇店),购物服务;家电电子卖场;数码电子,060306,漕溪北路与蒲西路交叉口东南60米(徐家汇地铁站5号口旁),121.438371,31.190964,13621866203,3.8,[],购物菜场,上海市,上海市,徐汇区
B0FFF6XFL3,戴尔x外星人电脑-销售与售后一体式服务中心,购物服务;家电电子卖场;数码电子,060306,漕溪北路339号中金国际广场一楼1B01A,121.438346,31.190568,13162408205,4.0,[],购物菜场,上海市,上海市,徐汇区
B0FFFGQOFP,博世家电生活体验馆(宜山路店),购物服务;家电电子卖场;家电电子卖场,060300,宜山路439号七建大厦2楼(宜山路地铁站7号口步行60米),121.427594,31.184116,15000819240,3.8,[],购物菜场,上海市,上海市,徐汇区
B0FFHUAYYE,Vivo中国移动(广元西路店),购物服务;家电电子卖场;手机销售,060305,广元西路181号(徐家汇地铁站17号口步行450米),121.434330,31.196778,,4.0,[],购物菜场,上海市,上海市,徐汇区
B0L1SHPN5N,追觅DREAME(港汇恒隆广场店),购物服务;家电电子卖场;家电电子卖场,060300,虹桥路1号港汇恒隆广场3楼367,121.436898,31.195092,,3.7,[],购物菜场,上海市,上海市,徐汇区
B0FFLGPMT6,iQOO(百脑汇店),购物服务;家电电子卖场;手机销售,060305,漕溪北路339号百脑汇2层(徐家汇地铁站4号口旁),121.438304,31.190627,13524213801,3.8,[],购物菜场,上海市,上海市,徐汇区
B0J0NAGR2G,宝华韦健(Bowers&Wilkins)耳机音响,购物服务;家电电子卖场;数码电子,060306,漕溪北路339号二楼2D02A(徐家汇地铁站4号口旁),121.438062,31.190561,13601755978,4.0,[],购物菜场,上海市,上海市,徐汇区
B0FFGZHOS2,佳奇数码,购物服务;家电电子卖场;数码电子,060306,昭化路351号,121.424721,31.212754,021-51095122;13817333408,4.3,[],购物菜场,上海市,上海市,长宁区
B0J0VZVYHF,苹果手机电脑维修服务中心(徐汇店),购物服务;家电电子卖场;手机销售|生活服务;维修站点;维修站点,060305|071200,天钥路250弄8号底层东部107,121.441805,31.189976,18018583168,3.8,[],购物菜场|生活服务,上海市,上海市,徐汇区
B0G1LU6JDQ,罗技模范店(百脑汇店),购物服务;家电电子卖场;数码电子,060306,漕溪北路339号百脑汇三楼3B03E,121.438425,31.190725,021-61262588,3.9,[],购物菜场,上海市,上海市,徐汇区
B0I13UXNMJ,HP电脑(徐汇区店),购物服务;家电电子卖场;数码电子,060306,漕溪北路339号百脑汇1层1B01A(徐家汇地铁站4号口旁),121.438596,31.190454,13341768173;13917366185,3.6,[],购物菜场,上海市,上海市,徐汇区
B0L0HSQDQH,GoPro(漕溪北路旗舰店),购物服务;家电电子卖场;数码电子,060306,徐家汇街道漕溪北路339号百脑汇二期一楼,121.438426,31.190808,17347054829;18616898910,3.6,[],购物菜场,上海市,上海市,徐汇区
B0G1L57LMN,Marshall马歇尔(百脑汇授权店),购物服务;家电电子卖场;数码电子,060306,漕溪北路339号百脑汇2层2E12非常数码,121.438309,31.190512,13764823480;18616395123,3.9,[],购物菜场,上海市,上海市,徐汇区
B0FFF6XBQD,飞利浦官方旗舰店(肇嘉浜路店),购物服务;家电电子卖场;家电电子卖场,060300,肇嘉浜路1000汇金百货七楼,121.440418,31.195368,13916729873,3.7,[],购物菜场,上海市,上海市,徐汇区
B0FFFSRREX,西门子(宜山家饰佳店),购物服务;家电电子卖场;家电电子卖场,060300,宜山路450号2楼G2040室,121.426175,31.184325,13661564641,3.8,[],购物菜场,上海市,上海市,徐汇区
B0FFFCTOBT,齐飞电脑,购物服务;家电电子卖场;数码电子|生活服务;维修站点;维修站点,060306|071200,小木桥路368-1号(大木桥路地铁站3号口步行460米),121.459324,31.195391,,3.9,[],购物菜场|生活服务,上海市,上海市,徐汇区
B0L1PU63E8,Roborock石头科技(上海汇金百货肇嘉浜路店),购物服务;家电电子卖场;家电电子卖场,060300,肇嘉浜路1000号汇金百货5楼,121.440243,31.195240,15800982639;15895651337,3.7,[],购物菜场,上海市,上海市,徐汇区
B0J0150DE9,华为合作店(百脑汇希郡宁通讯店),购物服务;家电电子卖场;手机销售,060305,漕溪北路41号太平洋数码一期128室,121.438925,31.192475,18911948676,3.3,[],购物菜场,上海市,上海市,徐汇区
B0FFGIL983,日月数码(广元西路420弄小区店),购物服务;家电电子卖场;数码电子,060306,徐虹北路114号-116,121.430474,31.193670,,4.1,[],购物菜场,上海市,上海市,徐汇区
B0FFHR5SJ7,苹果专卖(太平洋数码店),购物服务;家电电子卖场;手机销售|体育休闲服务;娱乐场所;游戏厅|购物服务;家电电子卖场;数码电子|生活服务;维修站点;维修站点,060305|080305|060306|071200,漕溪北路41号太平洋数码一期一楼111室,121.439358,31.192147,15000850816;15901712645,4.1,[],购物菜场|生活服务,上海市,上海市,徐汇区
B00156O2M4,电脑诊所(襄阳南路368号小区店),购物服务;家电电子卖场;手机销售|生活服务;维修站点;维修站点,060305|071200,襄阳南路364号,121.457862,31.207805,,4.1,[],购物菜场|生活服务,上海市,上海市,徐汇区
B0FFLF6S58,优学派专卖店(百脑汇店),购物服务;家电电子卖场;数码电子,060306,漕溪北路339号百脑汇二楼2A04C(徐家汇地铁站5号口旁),121.438362,31.190962,15216668667,3.3,[],购物菜场,上海市,上海市,徐汇区
B0FFK8LIGW,华为HUAWEI(打浦桥日月光店),购物服务;家电电子卖场;手机销售,060305,徐家汇路618号日月光中心商场2楼瑞金区1F-RJ1213,121.468420,31.206590,021-60938456;13917133431,3.7,[],购物菜场,上海市,上海市,黄浦区
B0G36AKZ9H,AOC显示器爱攻电竞显示器(太平洋数码1期店),购物服务;家电电子卖场;数码电子,060306,漕溪北路41号太平洋数码广场一期2楼288,121.439132,31.192160,13585778153,4.0,[],购物菜场,上海市,上海市,徐汇区
B0K0PSX0KE,海尔专卖店(徐汇原立方店),购物服务;家电电子卖场;家电电子卖场,060300,凯旋路2588号锦和越界原立方2楼223号,121.428794,31.185629,13636502767,3.9,[],购物菜场,上海市,上海市,徐汇区
B0FFI6OSRQ,飞利浦官方旗舰店(漕溪北路店),购物服务;家电电子卖场;家电电子卖场|购物服务;家居建材市场;家居建材市场,060300|060600,漕溪北路8号东方商厦(旗舰店)5F层,121.437919,31.193203,,3.7,[],购物菜场,上海市,上海市,徐汇区
B0HU9RAAL7,大华&海康,购物服务;家电电子卖场;数码电子,060306,漕溪北路339号4楼(徐家汇地铁站4号口旁),121.438375,31.190675,13916669686;13918153559,3.4,[],购物菜场,上海市,上海市,徐汇区
B0KAMZ4ZKN,数码宝贝卡牌对战,购物服务;家电电子卖场;数码电子|体育休闲服务;体育休闲服务场所;体育休闲服务场所,060306|080000,肇嘉浜路1117号B212-13,121.439262,31.192991,13167109167,4.0,[],购物菜场,上海市,上海市,徐汇区
B0FFH15U7T,三菱电机中央空调(广元路店),购物服务;家电电子卖场;家电电子卖场,060300,广元路193号4临(徐家汇地铁站16号口步行410米),121.438434,31.198556,15316666789,3.6,[],购物菜场,上海市,上海市,徐汇区
B0FFI0BDT0,兄弟打印机一体机(中金国际广场百脑汇店),购物服务;家电电子卖场;数码电子,060306,漕溪北路339号百脑汇3楼3A03室(徐家汇地铁站4号口旁),121.438375,31.190770,18939779497,3.7,[],购物菜场,上海市,上海市,徐汇区
B00155MNEU,上海唐朝数码科技有限公司,购物服务;家电电子卖场;数码电子|公司企业;公司;网络科技,060306|170206,中山南二路1007中煌大厦2层19室,121.445896,31.180775,18601660598,3.7,[],购物菜场,上海市,上海市,徐汇区
B0JRGAXDQZ,老板电器(徐汇区斜土社区店),购物服务;家居建材市场;厨卫市场|购物服务;家电电子卖场;家电电子卖场,060604|060300,斜土街道零陵路73号(大木桥路地铁站1号口步行150米),121.465759,31.194539,15267178821,4.1,[],购物菜场,上海市,上海市,徐汇区
B0FFJRBOL1,中国电信(天翼行业应用体验厅店),生活服务;电讯营业厅;中国电信营业厅|购物服务;家电电子卖场;手机销售,070601|060305,cn永嘉路415号天翼行业,121.455251,31.207352,021-64732181,4.2,[],购物菜场,上海市,上海市,徐汇区
B0K0K5CW4Q,海信专卖店(徐汇百脑汇店),购物服务;家电电子卖场;家电电子卖场,060300,漕溪北路339号百脑汇二层2D05,121.438420,31.190712,13564187613,3.7,[],购物菜场,上海市,上海市,徐汇区
B0FFKO2801,玩家地带(百脑汇店),购物服务;家电电子卖场;数码电子,060306,漕溪北路339号百脑汇3楼3A02(徐家汇地铁站5号口旁),121.438474,31.190975,021-33973910;15901782347,3.6,[],购物菜场,上海市,上海市,徐汇区
B0G2XLO82U,日月数码手机维修(凯旋路店),购物服务;家电电子卖场;数码电子|生活服务;维修站点;维修站点,060306|071200,凯旋路2302号,121.427513,31.186905,,4.1,[],购物菜场|生活服务,上海市,上海市,徐汇区
B0L0DSMHCA,雷神电脑(吴界写字楼店),购物服务;家电电子卖场;数码电子,060306,乌鲁木齐南路378-386号雷神电脑售后维修,121.450119,31.200239,4001800671,3.3,[],购物菜场,上海市,上海市,徐汇区
B0KD47UR1W,B&O Bang&Olufsen耳机音响(美罗城店),购物服务;家电电子卖场;家电电子卖场,060300,肇嘉浜路1111号3楼3-1E,121.439774,31.193016,13601755978,3.8,[],购物菜场,上海市,上海市,徐汇区
B0FFFPLGYE,上海PlayStation索尼优选店,购物服务;家电电子卖场;数码电子|购物服务;专卖店;摄影器材店,060306|061212,漕溪北路339号3B03A(徐家汇地铁站4号口旁),121.438311,31.190557,13901822115,3.9,[],购物菜场,上海市,上海市,徐汇区
B0KD5DQ161,微星GAMING体验店,购物服务;家电电子卖场;数码电子,060306,漕溪北路339号百脑汇三楼微星体验店(徐家汇地铁站5号口旁),121.438424,31.190758,13004182670,3.8,[],购物菜场,上海市,上海市,徐汇区
B0FFHDN6P6,Hasee神舟(汇嘉大厦店),购物服务;家电电子卖场;家电电子卖场,060300,漕溪北路41号汇嘉大厦23楼2388,121.439733,31.192161,021-34240016,3.6,[],购物菜场,上海市,上海市,徐汇区
B0FFF3KQXG,宏碁acer(百脑汇店),购物服务;家电电子卖场;数码电子,060306,漕溪北路339号百脑汇一楼1A05宏基专卖,121.438892,31.192076,021-64035162,3.7,[],购物菜场,上海市,上海市,徐汇区
B001573Z79,立升净水公司(光启城店)(装修中),购物服务;家电电子卖场;家电电子卖场|公司企业;公司;公司,060300|170200,宜山路425号910室(宜山路地铁站出入口步行240米),121.429070,31.183753,13311623219,3.6,[],购物菜场,上海市,上海市,徐汇区
B0L0CCZD6Z,机械革命电脑(飞洲国际广场店),购物服务;家电电子卖场;数码电子,060306,零陵路899号机械革命电脑售后维修,121.437600,31.183374,4001850038,3.7,[],购物菜场,上海市,上海市,徐汇区
B0FFJ2OC2E,戴森(港汇恒隆广场店),购物服务;家电电子卖场;家电电子卖场,060300,虹桥路1号港汇恒隆广场6楼,121.437693,31.194630,13671640481;13761205559;15000167980,3.8,[],购物菜场,上海市,上海市,徐汇区
B0HD2MBHGX,西门子(喜盈门品牌店),购物服务;家电电子卖场;家电电子卖场,060300,宜山路407号喜盈门国际建材中心3楼3059,121.428975,31.186325,13918804539,4.0,[],购物菜场,上海市,上海市,徐汇区
B0J6GSJD5L,华为手机(百脑汇店),购物服务;家电电子卖场;手机销售,060305,漕溪北路与蒲西路交叉口东南60米(徐家汇地铁站4号口旁),121.438300,31.190745,13585743596,3.5,[],购物菜场,上海市,上海市,徐汇区
B0L0BCVKCB,索尼相机(衡山路地铁站店),购物服务;家电电子卖场;数码电子,060306,衡山路8号6栋(衡山路地铁站3号口步行240米)索尼相机售后维修中心,121.447173,31.206793,4001786378,3.6,[],购物菜场,上海市,上海市,徐汇区
B0KGHD2LZO,徐汇电脑,购物服务;家电电子卖场;数码电子,060306,裕德路168徐汇商务大厦7楼721,121.432509,31.185365,15301607571,3.5,[],购物菜场,上海市,上海市,徐汇区
B0HDA5YQEK,荣础舒适家(鼎力创意园店),购物服务;家电电子卖场;家电电子卖场,060300,中山西路2240号c401室,121.430014,31.181166,18201958932,3.7,[],购物菜场,上海市,上海市,徐汇区
B0KRP4UEGX,VERTU(One ITC店铺),购物服务;家电电子卖场;手机销售,060305,华山路1901号One ITC L2层,121.437965,31.197697,,3.7,[],购物菜场,上海市,上海市,徐汇区
B0JR4D8ZAL,任天堂维修中心(太平洋数码1期店),购物服务;家电电子卖场;数码电子,060306,太平洋数码一期2楼297室,121.438925,31.192125,,4.0,[],购物菜场,上海市,上海市,徐汇区
B0LANL0VLB,卡萨帝旗舰店(之升宜山路店),购物服务;家电电子卖场;家电电子卖场,060300,田林街道宜山路488号(宜山路地铁站7号口步行80米),121.427625,31.183925,19280737556,3.6,[],购物菜场,上海市,上海市,徐汇区
B00157HFV9,傲胜(港汇恒隆广场店),购物服务;家电电子卖场;家电电子卖场,060300,虹桥路1号6楼601E,121.437502,31.194421,021-51962828;021-64470495,3.3,[],购物菜场,上海市,上海市,徐汇区
B0FFFX7WOI,Panasonic(宜山路店),购物服务;家电电子卖场;综合家电商场|公司企业;公司;公司,060301|170200,宜山路408弄之1-22号南宜花苑,121.428537,31.186718,021-54591665,3.9,[],购物菜场,上海市,上海市,徐汇区
B0FFHRT5EY,华为售后点(上海港汇恒隆广场店),购物服务;家电电子卖场;手机销售,060305,港汇恒隆广场(徐家汇地铁站出口步行80米),121.437150,31.194484,,3.6,[],购物菜场,上海市,上海市,徐汇区
B0FFFRZE52,联想官方旗舰店,购物服务;家电电子卖场;数码电子,060306,漕溪北路41号汇嘉大厦(徐家汇地铁站10号口旁),121.438995,31.192043,,3.9,[],购物菜场,上海市,上海市,徐汇区
B0FFFOUP00,联想科技有限公司(太原路店),购物服务;家电电子卖场;数码电子,060306,太原路283-1号,121.455866,31.203569,4001860382,3.9,[],购物菜场,上海市,上海市,徐汇区
B0FFKO1PJ0,雷蛇Razer(百脑汇店)专卖店,购物服务;家电电子卖场;数码电子,060306,漕溪北路339号百脑汇二期三楼3A01雷蛇专卖店,121.438179,31.190591,13162698037,3.0,[],购物菜场,上海市,上海市,徐汇区
B0FFGBNB2I,萍晟通讯,购物服务;家电电子卖场;手机销售,060305,小木桥路374号(大木桥路地铁站3号口步行420米),121.459592,31.195112,,4.0,[],购物菜场,上海市,上海市,徐汇区
B0FFLF6QBY,尚音1927(上音文创店),购物服务;家电电子卖场;数码电子|科教文化服务;培训机构;培训机构,060306|141400,汾阳路22号,121.454736,31.212549,13818497005,3.8,[],购物菜场,上海市,上海市,徐汇区
B0FFL9QFL5,康丽根净水(中城国际大厦店),购物服务;家电电子卖场;家电电子卖场,060300,虹桥路500号中城国际大厦F29层,121.429260,31.193026,021-64479092,3.7,[],购物菜场,上海市,上海市,徐汇区
B0LUR151JO,OPPO授权专营店(上海长宁区新华路店),购物服务;家电电子卖场;手机销售,060305,新华路街道新华路437号,121.424561,31.203707,17740833880,4.0,[],购物菜场,上海市,上海市,长宁区
B0FFFS422L,3M全屋净水(宜山路家饰佳店),购物服务;专卖店;专营店|购物服务;家电电子卖场;家电电子卖场,061200|060300,宜山路450号家饰佳B1088,121.425525,31.184225,021-64272973;17821260313,3.5,[],购物菜场,上海市,上海市,徐汇区
B0FFJ1LJ4X,博朗(东方商厦旗舰店),购物服务;家电电子卖场;家电电子卖场,060300,漕溪北路8号东方商厦(旗舰店)5F层,121.437741,31.193285,18916780831,3.3,[],购物菜场,上海市,上海市,徐汇区
B0L1FHX216,Apple苹果授权经销商(南洋1931店),购物服务;家电电子卖场;手机销售,060305,裕德路与中漕路交叉口西北100米,121.433547,31.185934,4008076213,3.7,[],购物菜场,上海市,上海市,徐汇区
B0FFHGYEYT,明基爱普生投影机智能家居演示厅(科汇小区店),购物服务;家电电子卖场;数码电子,060306,天钥桥路69弄5号楼102室,121.441644,31.193590,18019320187,3.8,[],购物菜场,上海市,上海市,徐汇区
B0LAN7Y04E,海尔空调(瑞金南路店),购物服务;家电电子卖场;家电电子卖场,060300,瑞金南路570号,121.468762,31.197275,15279543557,3.3,[],购物菜场,上海市,上海市,徐汇区
B0LANALUW4,海尔空调(航天通信商务楼店),购物服务;家电电子卖场;家电电子卖场,060300,航天通信商务楼东南门旁3层(打浦桥地铁站4号口步行350米),121.465161,31.204340,14782293827,3.2,[],购物菜场,上海市,上海市,黄浦区
B0I6A7E5GV,信飞科技,购物服务;家电电子卖场;数码电子,060306,凯旋路1398号IMSHANGHAI长宁国际T3栋11层,121.420847,31.199192,,4.4,[],购物菜场,上海市,上海市,长宁区
B0K6PLQWK7,奥佳华按摩椅(ONE ITC专卖店),购物服务;家电电子卖场;综合家电商场,060301,华山路1901号ONEITC-LG227-2奥佳华,121.437745,31.198192,15901741351,3.6,[],购物菜场,上海市,上海市,徐汇区
B0FFJ0DDIZ,盒马鲜生(南洋1931店),购物服务;超级市场;超市,060400,裕德路165号南洋1931B1层,121.433993,31.185640,9510217,4.6,[],购物菜场,上海市,上海市,徐汇区
B0FFLEEVDE,ALDI奥乐齐(徐汇沪港国际大厦店),购物服务;超级市场;超市,060400,斜土路2364号宛轻大厦一楼(沪港国际旁边),121.447940,31.191775,4008201973,4.6,[],购物菜场,上海市,上海市,徐汇区
B0FFJEQ2P9,Ole精品超市(港汇恒隆广场店),购物服务;超级市场;超市,060400,虹桥路1号港汇广场B1层(徐家汇地铁站出口旁),121.436911,31.195123,021-61270702,4.4,[],购物菜场,上海市,上海市,徐汇区
B0L6HHFU4E,ALDI奥乐齐超市(徐汇永新坊店),购物服务;超级市场;超市,060400,天钥桥路131号永新坊天钥桥路店B1层,121.443333,31.192170,,4.4,[],购物菜场,上海市,上海市,徐汇区
B0KBYA9GRA,奥乐齐超市(光启城店),购物服务;超级市场;超市,060400,"宜山路455号光启城B1层(宜山路7号口右拐走20m,光启城北门扶梯下负一楼)",121.428390,31.184219,4008201973,4.4,[],购物菜场,上海市,上海市,徐汇区
B0K6KS1IZ4,上海超盒算NB(徐汇田林店),购物服务;超级市场;超市,060400,钦州北路188号,121.420831,31.181012,,4.3,[],购物菜场,上海市,上海市,徐汇区
B00155FW5U,联华超市(枫林店),购物服务;超级市场;超市,060400,枫林路街道医学院路73号,121.455382,31.199406,021-34160211,4.3,[],购物菜场,上海市,上海市,徐汇区
B00155ILPA,联华超市(兴国店),购物服务;超级市场;超市,060400,兴国路277号(交通大学地铁站7号口步行440米),121.437792,31.204690,021-54560076,4.3,[],购物菜场,上海市,上海市,徐汇区
B0FFLM6818,多果和生鲜超市(斜土路店),购物服务;超级市场;超市,060400,斜土路1931号(东安路地铁站4号口步行410米),121.452688,31.194814,15137701079,4.4,[],购物菜场,上海市,上海市,徐汇区
B00155K8A6,屈臣氏(美罗城店),购物服务;超级市场;屈臣氏,060411,肇嘉浜路1111号美罗城A区2层(徐家汇地铁站出入口旁),121.440096,31.193029,021-64267269,4.2,[],购物菜场,上海市,上海市,徐汇区
B0FFHLGX0N,屈臣氏(日月光中心店),购物服务;超级市场;屈臣氏,060411,日月光中心徐家汇路618号日月光中心B1-TK05-11,121.468200,31.207346,021-64410265,4.2,[],购物菜场,上海市,上海市,黄浦区
B00155QKFB,联华超市(茶陵店),购物服务;超级市场;超市,060400,茶陵路216-1号,121.466378,31.197715,021-64166864,4.3,[],购物菜场,上海市,上海市,徐汇区
B0FFI72PPB,联华超市(瑞金二路店),购物服务;超级市场;超市,060400,瑞金二路207号联华超市(打浦桥地铁站1号口步行440米),121.466474,31.209752,,4.2,[],购物菜场,上海市,上海市,黄浦区
B0FFFA1T2P,联华超市(辛耕店),购物服务;超级市场;超市,060400,宛平南路240弄5-9号宛平南路240弄小区,121.446358,31.193072,021-54251391,4.2,[],购物菜场,上海市,上海市,徐汇区
B00155L22I,联华(建国西店),购物服务;超级市场;上海华联,060405,嘉善路453号(嘉善路地铁站2号口步行380米),121.460440,31.205560,021-64459766;13818871744,4.2,[],购物菜场,上海市,上海市,徐汇区
B0FFG2J8SB,联华(南丹小区333弄店),购物服务;超级市场;超市,060400,南丹路313号,121.430258,31.190185,021-54591828;15301691770,4.1,[],购物菜场,上海市,上海市,徐汇区
B0G0B6Y1EM,好特卖HotMaxx(正大乐城店),购物服务;服装鞋帽皮具店;品牌服装店|购物服务;超级市场;超市,061101|060400,中山南二路699号正大乐城B1层(龙华中路地铁站1号口旁),121.457560,31.185775,15601994278,4.4,[],购物菜场,上海市,上海市,徐汇区
B0FFF09Y7W,联华(丁香大楼店),购物服务;超级市场;超市,060400,华山路900号,121.438607,31.212684,021-62121232,4.1,[],购物菜场,上海市,上海市,长宁区
B0FFHHNEW5,联华超市(宛南一村店),购物服务;超级市场;超市,060400,宛平南路852号,121.451408,31.183979,021-54590443,4.1,[],购物菜场,上海市,上海市,徐汇区
B0IGZDZLHY,ALDI奥乐齐(徐汇大木桥店),购物服务;超级市场;超市,060400,大木桥路18号久岸大厦B2楼2008-9,121.460696,31.201504,4008201973,4.6,72.00,购物菜场,上海市,上海市,徐汇区
B0FFFDWV0I,联华超市(龙山店),购物服务;超级市场;超市,060400,中山南二路950弄23-1号,121.446993,31.184474,021-64865705,4.0,[],购物菜场,上海市,上海市,徐汇区
B00154DNVH,联华(安亭店),购物服务;超级市场;超市,060400,建国西路615号(衡山路地铁站1号口步行440米),121.448040,31.201292,021-34010135,4.1,[],购物菜场,上海市,上海市,徐汇区
B00155LZHT,联华超市(昭化路店),购物服务;超级市场;超市,060400,昭化路118号申亚臻悦商苑F1层,121.425642,31.211824,021-62129828;18917375672,4.2,[],购物菜场,上海市,上海市,长宁区
B0HR4AZDXA,联华超市,购物服务;超级市场;超市,060400,廷安西路1066号,121.431071,31.211919,13817033458;15800524535,4.2,[],购物菜场,上海市,上海市,长宁区
B0I6LC3V4H,联华超市(太原路店),购物服务;超级市场;超市,060400,太原路76号-1,121.454593,31.207574,021-64265202;13023238585,4.2,[],购物菜场,上海市,上海市,徐汇区
B0HGUPDMIQ,联华超市(宛平公寓店),购物服务;超级市场;超市,060400,吴兴路272号,121.445569,31.199223,021-64325601;15046678379,4.2,[],购物菜场,上海市,上海市,徐汇区
B0HGSU56JY,Hlife荟选集市,购物服务;超级市场;超市,060400,庆余公寓西北门旁(宜山路地铁站5号口步行280米),121.427653,31.190226,15000555118,3.9,[],购物菜场,上海市,上海市,徐汇区
B0FFLOQQBI,联华超市(海华商厦店),购物服务;超级市场;超市,060400,打浦路8号海华商厦F1层(打浦桥地铁站2号口步行160米),121.468672,31.205020,17316535857,4.2,[],购物菜场,上海市,上海市,黄浦区
B0I69Z6B0Q,联华超市(文定路店),购物服务;超级市场;超市,060400,文定路223号1层菜场-1室,121.430516,31.181131,021-54189799;13916510457,4.2,[],购物菜场,上海市,上海市,徐汇区
B00155QFVI,联华超市(天钥桥路店),购物服务;超级市场;超市,060400,天钥桥路380弄之58-60号通汇公寓,121.439720,31.187593,021-64693249;13681710978,4.1,[],购物菜场,上海市,上海市,徐汇区
B00155L9X9,华联超市(零陵路店),购物服务;超级市场;上海华联,060405,零陵路751弄7号(上海体育馆地铁站2号口步行290米),121.440349,31.184047,021-64271976;13501810608,4.1,[],购物菜场,上海市,上海市,徐汇区
B0G0U5MPCD,好特卖HotMaxx(腾飞广场店),购物服务;超级市场;超市,060400,天钥桥路333号腾飞广场F1层,121.442396,31.187739,15601994235;15821229406,4.3,[],购物菜场,上海市,上海市,徐汇区
B0FFG4JOC3,联华超市(盛大花园),购物服务;超级市场;超市,060400,龙华路2518号(龙华地铁站3号口步行490米),121.453548,31.178331,021-54073098;13651975079,4.0,[],购物菜场,上海市,上海市,徐汇区
B0FFMHTWCB,G-Super绿地优选(徐汇绿地缤纷城店),购物服务;超级市场;超市,060400,龙华中路759号绿地缤纷城B1层W-B121A,121.456606,31.183300,,4.1,[],购物菜场,上海市,上海市,徐汇区
B0J6SH59A8,联华超市(南丹店),购物服务;超级市场;超市,060400,南丹路169号(徐家汇地铁站1号口步行410米),121.432959,31.189475,021-64279770,4.1,[],购物菜场,上海市,上海市,徐汇区
B0G2MO1C73,好特卖HotMaxx(百丽国际广场店),购物服务;超级市场;超市,060400,柳州路928号百丽国际广场F1层,121.421129,31.186105,15601994238;18037163612,4.1,[],购物菜场,上海市,上海市,徐汇区
B0L22U12Q6,ALDI奥乐齐超市(徐汇光启城店),购物服务;超级市场;超市,060400,宜山路455号光启城B1层(宜山路地铁站8号口步行120米),121.427835,31.183239,,3.6,[],购物菜场,上海市,上海市,徐汇区
B0HD1S3ANU,星杨生鲜超市(南丹小区店),购物服务;综合市场;农副产品市场|购物服务;超级市场;超市,060703|060400,宜山路50弄之1-6号南丹小区,121.431227,31.191686,17621991675;18005397012,4.1,[],购物菜场,上海市,上海市,徐汇区
B0FFFFL8ZY,联华超市(乐益店),购物服务;超级市场;超市,060400,零陵路60-10号(大木桥路地铁站1号口步行190米),121.466158,31.194618,18016073117,4.1,[],购物菜场,上海市,上海市,徐汇区
B0FFK3UH2D,华联超市(裕德路店),购物服务;超级市场;上海华联,060405,中漕路3号(上海体育馆地铁站8号口步行280米),121.435638,31.184478,15801899008,4.1,[],购物菜场,上海市,上海市,徐汇区
B00156NZOZ,好再来特色牛肉面,购物服务;超级市场;超市,060400,零陵路266号(大木桥路地铁站3号口步行360米),121.459105,31.192201,021-64184306;18916737190,4.2,49.00,购物菜场,上海市,上海市,徐汇区
B0I1CG8FXW,农工商超市(零陵路店),购物服务;超级市场;超市,060400,零陵路238号(大木桥路地铁站3号口步行320米),121.459537,31.192352,021-64034792;4001883215,2.6,[],购物菜场,上海市,上海市,徐汇区
B00154A783,上海教育超市(生命科学院店),购物服务;超级市场;超市,060400,肇嘉浜路524号(肇嘉浜路地铁站2号口步行330米),121.453024,31.200716,021-54920719,3.7,[],购物菜场,上海市,上海市,徐汇区
B0I1CB2RC2,农工商超市(法华店),购物服务;超级市场;超市,060400,法华镇路681-687号,121.422614,31.206271,021-62830419,2.2,[],购物菜场,上海市,上海市,长宁区
B0H25CO10G,捷德鲜精选超市(淮海店),购物服务;超级市场;超市,060400,淮海中路1375号启华大厦F1层,121.448550,31.210582,18328325539;18815670184,3.9,[],购物菜场,上海市,上海市,徐汇区
B0FFHRDNTJ,Leme生活鲜超(东方商厦旗舰店),购物服务;超级市场;超市,060400,漕溪北路8号东方商厦B1楼(徐家汇地铁站11号口旁),121.437942,31.193271,,4.1,[],购物菜场,上海市,上海市,徐汇区
B0FFFVAJ5P,华联超市(海螺大厦店),购物服务;超级市场;上海华联,060405,中山西路1277号海螺大厦F1层,121.420266,31.191117,021-61363456;13764535603,3.9,[],购物菜场,上海市,上海市,长宁区
B0I2GY6X7G,捷德鲜超市永嘉店,购物服务;超级市场;超市,060400,永嘉路158号嘉嘉大楼,121.459244,31.209577,13482058427;17521026237,1.0,[],购物菜场,上海市,上海市,徐汇区
B00155LGED,华联超市(富良店),购物服务;超级市场;上海华联,060405,医学院路12号(嘉善路地铁站4号口步行250米),121.460154,31.200274,021-64034203,4.0,[],购物菜场,上海市,上海市,徐汇区
B00155L2A0,华联超市(勇志店),购物服务;超级市场;上海华联,060405,双峰路320-3号,121.448813,31.181472,021-64690924;021-64865705;15900559099,3.9,[],购物菜场,上海市,上海市,徐汇区
B00156ELIX,新鸣百货超市(东安路店),购物服务;超级市场;超市,060400,东安路279-2号(东安路地铁站6号口步行120米),121.454693,31.191348,021-64041607,4.2,[],购物菜场,上海市,上海市,徐汇区
B0IRCU3TVU,联华新春旺店,购物服务;超级市场;超市,060400,安顺路12号(胸科医院1号门步行150米),121.426257,31.199304,15021678998,4.2,[],购物菜场,上海市,上海市,长宁区
B0FFLI9PQA,家得利精选超市(平武小区店),购物服务;超级市场;超市,060400,幸福路298-4号附近,121.431400,31.208062,13917476915,3.9,[],购物菜场,上海市,上海市,长宁区
B0FFHC8Q2A,上海教育超市(交大店),购物服务;超级市场;超市,060400,华山路1859-1号(交通大学徐汇校区对面),121.434054,31.199826,,4.0,[],购物菜场,上海市,上海市,徐汇区
B0J6KZ735B,yi家生活超市(瑞嘉公寓店),购物服务;超级市场;超市,060400,肇嘉浜路91号(嘉善路地铁站2号口步行360米),121.465161,31.203432,13524531275,4.0,[],购物菜场,上海市,上海市,徐汇区
B0GDRXF2P7,选岭百货,购物服务;超级市场;超市,060400,古宜路178-1号(宜山路地铁站5号口步行310米),121.424992,31.186839,18302176190,3.8,[],购物菜场,上海市,上海市,徐汇区
B0FFLHG3BY,苏宁小店折扣店(龙山新村店),购物服务;超级市场;超市|购物服务;便民商店/便利店;便民商店/便利店,060400|060200,天钥桥路龙山新村86号一3,121.444914,31.184753,13321931207;18916747122;18916767122,3.5,[],购物菜场,上海市,上海市,徐汇区
B0L2SB50VX,比佳德超市,购物服务;超级市场;超市|购物服务;便民商店/便利店;便民商店/便利店,060400|060200,零陵路789弄之1-19号创世纪花园,121.438925,31.185325,,3.9,[],购物菜场,上海市,上海市,徐汇区
B0J2DHVU3L,世纪华联(徐汇店),购物服务;超级市场;超市,060400,吴东小区73号4-8,121.421764,31.191437,15721274120,4.0,[],购物菜场,上海市,上海市,徐汇区
B0FFKTD3UV,好客时代生鲜连锁法华镇路店,购物服务;超级市场;超市,060400,法华镇路751弄1-45号西镇小区,121.422915,31.206135,,3.4,[],购物菜场,上海市,上海市,长宁区
B0JUVG3R8D,清美鲜食(香花桥小区店),购物服务;超级市场;超市,060400,新华路370弄之2-36号香花桥小区,121.425305,31.204286,,3.8,[],购物菜场,上海市,上海市,长宁区
B0L3OSXJUF,汇购猫生活超市(肇嘉浜),购物服务;超级市场;超市,060400,医学院路17号负一楼汇购猫生活超市,121.459328,31.200348,13120658918,4.1,[],购物菜场,上海市,上海市,徐汇区
B0I14H7PAM,条达百货,购物服务;超级市场;超市,060400,上海天平宾馆西南1门旁(徐家汇地铁站15号口步行300米),121.439316,31.197097,,2.2,[],购物菜场,上海市,上海市,徐汇区
B0L1H5X5FZ,汇购猫生活超市(徐家汇中心店),购物服务;超级市场;超市,060400,虹桥路640号一楼商铺103室,121.426166,31.194184,13262856620,4.2,[],购物菜场,上海市,上海市,徐汇区
B0I6CZHZWP,清美鲜家(星辰公寓店),购物服务;超级市场;超市,060400,武夷路442号,121.421387,31.212693,,3.8,[],购物菜场,上海市,上海市,长宁区
B0LAA7OHMR,华联鲜生活(快捷华山店),购物服务;超级市场;超市,060400,华山路894弄之1-2号丁香大楼,121.438598,31.212736,,3.3,[],购物菜场,上海市,上海市,长宁区
B0FFM37A3F,三叶草专柜(上海港汇恒隆广场店),购物服务;超级市场;麦德龙,060406,徐家汇街道港汇恒隆广场虹桥路1号港汇广场4楼413A,121.436479,31.195002,,3.9,[],购物菜场,上海市,上海市,徐汇区
B0LRLKL53X,华联,购物服务;超级市场;超市,060400,瑞金二路与绍兴路交叉口南80米,121.466419,31.209728,,3.6,[],购物菜场,上海市,上海市,黄浦区
B0K3V5K1L2,上海市徐汇区优上佳超市,购物服务;超级市场;超市,060400,合宝路40号地下一层(嘉善路地铁站4号口步行450米),121.464625,31.200452,19079040743,3.9,[],购物菜场,上海市,上海市,徐汇区
B0K2UBS45O,宅可送生活超市,购物服务;超级市场;超市,060400,延安西路1235弄1-6号佳达新苑,121.427503,31.210690,,3.3,[],购物菜场,上海市,上海市,长宁区
B0G2M1ZJN3,何记生活超市(振新小区店),购物服务;超级市场;超市,060400,法华镇路124号(交通大学地铁站5号口步行230米),121.432628,31.202632,13512125976,3.7,[],购物菜场,上海市,上海市,长宁区
B0L3UHHT4N,鲜品汇生活超市(武定大厦店),购物服务;超级市场;超市,060400,武夷路与种德桥路交叉口东100米,121.421585,31.212803,,3.3,[],购物菜场,上海市,上海市,长宁区
B0KGF75EJY,优品超市(天钥桥路店),购物服务;超级市场;超市,060400,天钥桥路325号嘉汇国际广场106,121.442815,31.188680,13585979436,3.6,[],购物菜场,上海市,上海市,徐汇区
B0KUD99E1A,幸福家超级体验店,购物服务;超级市场;超市,060400,肇嘉浜路与乌鲁木齐南路交叉口西60米,121.449814,31.199702,,3.8,[],购物菜场,上海市,上海市,徐汇区
B0L1PL87PP,屈臣氏(景鸿大楼店-闪电仓),购物服务;超级市场;超市,060400,宜山路508号景鸿大楼15D栋,121.425774,31.181964,,3.9,[],购物菜场,上海市,上海市,徐汇区
B0L117LWRJ,乐购达,购物服务;超级市场;超市,060400,肇嘉浜路与襄阳南路交叉口西80米,121.457975,31.202625,,4.1,[],购物菜场,上海市,上海市,徐汇区
B0K6MZEPXE,世纪华联超市(黄埔店),购物服务;超级市场;超市,060400,嘉善路526号中福商务楼619室,121.460645,31.203612,17745571474,3.9,[],购物菜场,上海市,上海市,徐汇区
B0L2R5NDJR,乐购汪生活超市(徐家汇中心店),购物服务;超级市场;超市,060400,虹桥路与番禺路交叉口西180米,121.426125,31.194025,,3.9,[],购物菜场,上海市,上海市,徐汇区
B0JR6HQM2K,杭商华联超市(合宝路店),购物服务;超级市场;超市,060400,金巢铂瑞阁(嘉善路地铁站4号口步行450米),121.464624,31.200428,18121301341,3.4,[],购物菜场,上海市,上海市,徐汇区
B0LDCPMR35,世纪精品超市,购物服务;超级市场;超市,060400,徐虹北路与柿子湾路交叉口西南20米,121.426775,31.189225,,3.8,[],购物菜场,上海市,上海市,徐汇区
B0I2U91P1V,世纪精品超市,购物服务;超级市场;超市,060400,天钥桥路380弄之20-28号天钥花苑,121.439575,31.186975,,3.6,[],购物菜场,上海市,上海市,徐汇区
B0HKA7LTUR,兔喜超市(百联徐汇商业广场店),购物服务;超级市场;超市,060400,华山路1988号百联徐汇商业广场,121.437202,31.196664,,3.5,[],购物菜场,上海市,上海市,徐汇区
B0LKBRUOY6,超宜选精品超市,购物服务;超级市场;超市,060400,天钥桥路380弄之20-28号天钥花苑,121.439225,31.187225,,3.3,[],购物菜场,上海市,上海市,徐汇区
B0H6XSVLVJ,联华超市(华科路店)(暂停营业),购物服务;超级市场;超市,060400,零陵路615号,121.446818,31.188143,13901675307;18516673666,4.2,[],购物菜场,上海市,上海市,徐汇区
B001538D44,双峰菜市场,购物服务;综合市场;蔬菜市场|购物服务;综合市场;农副产品市场,060705|060703,双峰路300号(双峰市场内20号房),121.448297,31.181745,13122845787;15221119891,4.5,[],购物菜场,上海市,上海市,徐汇区
B0FFHGNS0C,虹珠市场(中山西路),购物服务;综合市场;综合市场,060700,中山西路1301号,121.421904,31.192320,021-62091472;17347121285,4.4,[],购物菜场,上海市,上海市,长宁区
B00155LHBA,龙山菜市场,购物服务;综合市场;蔬菜市场,060705,内环高架路天钥新村133号,121.447451,31.184496,021-64640291;15221557893,4.3,[],购物菜场,上海市,上海市,徐汇区
B0FFI0BC87,徐汇区宛平菜市场,购物服务;综合市场;蔬菜市场,060705,宛平南路240弄8号,121.445925,31.192925,17765194504;18325922617,4.4,[],购物菜场,上海市,上海市,徐汇区
B0FFLLAAW9,小隆台(南洋1931店),购物服务;综合市场;水产海鲜市场,060706,裕德路125号二层01部位F2-01A+01B号单元,121.432733,31.186094,021-52752777,4.4,157.00,购物菜场,上海市,上海市,徐汇区
B0FFH9VNPT,鲜丰水果(上海斜土路店),购物服务;综合市场;果品市场,060704,斜土路2393号,121.447328,31.191910,19121864336,4.3,[],购物菜场,上海市,上海市,徐汇区
B00155ICH5,尚上鲜.复中市集,购物服务;综合市场;蔬菜市场,060705,复兴中路1239号(陕西南路地铁站7号口步行260米),121.457963,31.212552,13661540253;13671616419,4.4,[],购物菜场,上海市,上海市,徐汇区
B0FFHCPGZM,百果园(淮海西路店),购物服务;综合市场;果品市场,060704,淮海西路78号(交通大学地铁站5号口步行70米),121.433246,31.201612,021-52990175,4.3,[],购物菜场,上海市,上海市,长宁区
B0FFHOF96G,百果园(斜土路店),购物服务;综合市场;果品市场,060704,斜土路1404号(嘉善路地铁站4号口步行410米),121.461928,31.198036,021-54652609,4.3,[],购物菜场,上海市,上海市,徐汇区
B0FFI70C16,鲜丰水果(上海医学院路店),购物服务;综合市场;果品市场,060704,医学院路108号,121.455257,31.199155,4008819090,4.3,[],购物菜场,上海市,上海市,徐汇区
B0G0BZ1KPD,百果园(南丹东路店),购物服务;综合市场;果品市场,060704,南丹东路75号,121.445130,31.191048,021-64470218,4.3,[],购物菜场,上海市,上海市,徐汇区
B0J67HPBUD,尚上鲜·众乐山市集,购物服务;综合市场;农副产品市场,060703,乐山路115号,121.431001,31.194722,021-64472278,4.3,[],购物菜场,上海市,上海市,徐汇区
B00155MV4V,广元市集,购物服务;综合市场;蔬菜市场,060705,广元路153号,121.439157,31.198814,021-64331866;13641813143,4.3,[],购物菜场,上海市,上海市,徐汇区
B0GURHQ5PQ,粒上皇(上海徐汇天钥桥店),购物服务;综合市场;果品市场,060704,天钥桥路205号,121.442341,31.190752,19983663721,4.5,29.00,购物菜场,上海市,上海市,徐汇区
B0FFJ1U2CM,百果园(定西路店),购物服务;综合市场;果品市场,060704,定西路1022号宁电投大厦一楼,121.423579,31.211246,021-62117588;4001811212,4.3,[],购物菜场,上海市,上海市,长宁区
B0FFIPD1NJ,鲜丰水果(上海番禺路一店),购物服务;综合市场;果品市场,060704,番禺路888号-3A,121.428266,31.196018,4008819090,4.2,[],购物菜场,上海市,上海市,徐汇区
B0015304BA,徐汇区茶陵菜市场,购物服务;综合市场;蔬菜市场,060705,零陵北路1号(大木桥路地铁站1号口步行420米),121.464758,31.197035,021-64184048;021-64224595,4.3,[],购物菜场,上海市,上海市,徐汇区
B0FFIKYN37,粒上皇(上海徐汇大木桥路店),购物服务;综合市场;果品市场,060704,大木桥路324号,121.461919,31.197487,17681180783,4.5,28.00,购物菜场,上海市,上海市,徐汇区
B0I0O77UQ5,鲜丰水果(上海黄浦瑞金医院店),购物服务;综合市场;果品市场,060704,黄浦区绍兴路18弄16号,121.465928,31.210853,4008819090,4.0,[],购物菜场,上海市,上海市,黄浦区
B0KUBCTIGF,蟹状元·海鲜年货礼包(上海徐汇店),购物服务;综合市场;水产海鲜市场|餐饮服务;餐饮相关场所;餐饮相关,060706|050000,瑞平路230号保利时光里B2-020蟹状元,121.455502,31.181571,021-60199129,4.2,[],购物菜场,上海市,上海市,徐汇区
B0FFKSMLHW,隆兴本味崇明散养三黄鸡(武夷路店),购物服务;综合市场;农副产品市场,060703,武夷路416弄1-3号天诚花苑,121.422304,31.212775,15921303836,4.0,41.00,购物菜场,上海市,上海市,长宁区
B0I2VU53TI,清美鲜家嘉善路店,购物服务;综合市场;蔬菜市场,060705,嘉善路278号,121.459816,31.207380,4006071717,4.2,[],购物菜场,上海市,上海市,徐汇区
B0LDA5F6A0,粒上皇(上海徐汇番禺路交大店),购物服务;综合市场;果品市场,060704,徐家汇街道番禺路789号,121.429125,31.198425,15798392670,4.3,20.00,购物菜场,上海市,上海市,徐汇区
B0FFJGF41O,清美鲜食(小木桥路店),购物服务;综合市场;农副产品市场,060703,小木桥路200号,121.456851,31.199244,13764481737,4.0,[],购物菜场,上海市,上海市,徐汇区
B00155HO76,巨鹿泰康市集,购物服务;综合市场;蔬菜市场,060705,泰康路220号(打浦桥地铁站1号口步行50米),121.469012,31.207741,021-54653037;13776046355,4.3,[],购物菜场,上海市,上海市,黄浦区
B0IRJCLMOK,广元水果店(广元店),购物服务;综合市场;果品市场,060704,广元路193号甲(徐家汇地铁站16号口步行430米),121.438441,31.198593,18717980803,4.2,[],购物菜场,上海市,上海市,徐汇区
B0FFLKAO1T,好客时代生鲜连锁超市(大木桥路店),购物服务;综合市场;农副产品市场,060703,大木桥路328号(大木桥路地铁站4号口步行370米),121.461960,31.197324,13120661011,4.2,[],购物菜场,上海市,上海市,徐汇区
B0015571HP,好好栗子(大木桥杨发发店),购物服务;综合市场;果品市场,060704,大木桥路239号甲(嘉善路地铁站4号口步行300米),121.461880,31.199138,021-64177037;15800500859;18217677583,4.0,[],购物菜场,上海市,上海市,徐汇区
B0KR9CKA8X,百果园(龙华路店),购物服务;综合市场;果品市场,060704,龙华路2317号(龙华中路地铁站7号口步行330米),121.453585,31.183003,18116462038,4.1,[],购物菜场,上海市,上海市,徐汇区
B00155BNC0,上海伍康食品销售有限公司,购物服务;综合市场;农副产品市场|公司企业;公司;公司,060703|170200,武康路435号(交通大学地铁站7号口步行470米),121.438441,31.204873,021-64454626,[],[],购物菜场,上海市,上海市,徐汇区
B00156E2WD,旺旺果业(淮海西路店),购物服务;综合市场;果品市场,060704,淮海西路246号(交通大学地铁站5号口步行380米),121.430310,31.200323,13816447466;15618251814,4.0,[],购物菜场,上海市,上海市,长宁区
B0FFJMF6Y4,果然优鲜(复兴中路店),购物服务;综合市场;果品市场,060704,复兴中路1437号(常熟路地铁站7号口步行280米),121.449629,31.210470,13817179770,4.1,[],购物菜场,上海市,上海市,徐汇区
B0I3X5757J,肥仔鲜生三文鱼(嘉善路店),购物服务;综合市场;水产海鲜市场,060706,嘉善路77号,121.459420,31.211674,13524242465,4.1,[],购物菜场,上海市,上海市,徐汇区
B0L6GZBF7N,有堂古·甘草水果(徐汇美罗城店),购物服务;综合市场;果品市场,060704,肇嘉浜路1111号美罗城4F层,121.439625,31.192925,18211783163,4.0,36.00,购物菜场,上海市,上海市,徐汇区
B0HRHU4KTR,钱大妈(大木桥路店),购物服务;综合市场;农副产品市场,060703,轻工大木桥小区东北门北70米,121.461855,31.197754,13381863630,4.1,[],购物菜场,上海市,上海市,徐汇区
B0L249O7W5,蟹王阳澄湖大闸蟹(天钥桥路旗舰店),购物服务;综合市场;水产海鲜市场,060706,天钥桥路900号-6号(上海游泳馆地铁站2号口步行490米),121.444775,31.179525,15802199347;15921283500,4.0,[],购物菜场,上海市,上海市,徐汇区
B0LRB7O2VI,妙果婆婆,购物服务;综合市场;果品市场,060704,法华镇路200号(交通大学地铁站5号口步行360米),121.431177,31.202994,15921918271,4.1,[],购物菜场,上海市,上海市,长宁区
B0FFF3M7W6,黑龙江瓜子(上海徐虹北路店),购物服务;综合市场;果品市场,060704,徐虹北路29号(宜山路地铁站5号口步行380米),121.428358,31.190897,15801703156,4.0,[],购物菜场,上海市,上海市,徐汇区
B0FFHCI4QM,美天华山菜市场(华山花苑店),购物服务;综合市场;蔬菜市场,060705,华山路1623号(交通大学地铁站6号口步行90米),121.434705,31.203317,,4.2,[],购物菜场,上海市,上海市,长宁区
B0I2VU4X1L,尚上鲜·高安市集,购物服务;综合市场;农副产品市场|购物服务;综合市场;蔬菜市场,060703|060705,肇嘉浜路730号(肇嘉浜路地铁站2号口步行350米),121.447565,31.198661,13818927184,4.0,[],购物菜场,上海市,上海市,徐汇区
B00155D2O5,光辉水果好又鲜,购物服务;综合市场;果品市场,060704,湖南路街道乌鲁木齐中路308号,121.446317,31.211559,13801792527,4.0,[],购物菜场,上海市,上海市,徐汇区
B0L105DYLY,GOODs果子,购物服务;综合市场;果品市场,060704,嘉善路220号,121.459591,31.208988,18939962770,3.9,[],购物菜场,上海市,上海市,徐汇区
B0JK77RPQ7,欢喜花生(光启城时尚购物中心店),购物服务;综合市场;果品市场,060704,宜山路455号光启城B1层B1-88,121.428113,31.183693,15317057327,3.7,[],购物菜场,上海市,上海市,徐汇区
B00156NZNH,天长果业(协昌小区店),购物服务;综合市场;果品市场,060704,天钥桥路892(近中山南二路),121.444712,31.179626,13681927305,3.9,[],购物菜场,上海市,上海市,徐汇区
B00155MWIW,甜得来水果大卖场(医学院店),购物服务;综合市场;果品市场,060704,医学院路11号(嘉善路地铁站4号口步行230米),121.460266,31.200425,,4.3,[],购物菜场,上海市,上海市,徐汇区
B0FFHOF18Q,良田集市(零陵路店),购物服务;综合市场;综合市场,060700,零陵路151号(大木桥路地铁站3号口步行50米),121.461994,31.193657,13681990096;18321798394,4.1,[],购物菜场,上海市,上海市,徐汇区
B00156O1TW,秦氏水果平价大卖场(嘉善路店),购物服务;综合市场;果品市场,060704,嘉善路77-79号,121.459419,31.211661,021-64730321;13761613135;17621626035,4.1,[],购物菜场,上海市,上海市,徐汇区
B0L0FD1WGI,多果和生鲜超市(零陵路店),购物服务;综合市场;农副产品市场,060703,零陵路627号(上海体育场地铁站2号口步行360米),121.446964,31.187866,,4.2,[],购物菜场,上海市,上海市,徐汇区
B0H0KOS6GC,老山东炒货,购物服务;综合市场;果品市场,060704,和玫坊西北门旁(打浦桥地铁站1号口步行390米),121.469609,31.209639,021-63855686;13916324172,3.8,[],购物菜场,上海市,上海市,黄浦区
B0K2JCS6L2,鲜果园(番禺路店),购物服务;综合市场;果品市场,060704,番禺路667号,121.429329,31.198940,17717095661,3.9,[],购物菜场,上海市,上海市,徐汇区
B0I3J78O53,国民炒货(瑞金二路店),购物服务;综合市场;果品市场,060704,打浦桥社区西门旁(打浦桥地铁站4号口步行190米),121.466752,31.207733,13774481550,3.8,[],购物菜场,上海市,上海市,黄浦区
B00155LHAM,陆记蟹行(乌鲁木齐中路店),购物服务;综合市场;水产海鲜市场,060706,乌鲁木齐中路276号(常熟路地铁站8号口步行410米),121.446085,31.212131,021-64336736;13917727198;13918817310,4.0,[],购物菜场,上海市,上海市,徐汇区
B0I1XHNH6Q,叮咚买菜(宛平南路店),购物服务;综合市场;蔬菜市场,060705,宛平南路99弄1号1楼区,121.446163,31.194578,021-10103365,4.2,[],购物菜场,上海市,上海市,徐汇区
B0FFI32PYQ,天天鲜果园(日晖二村店),购物服务;综合市场;果品市场,060704,零陵路24-5号(大木桥路地铁站1号口步行330米),121.466888,31.194628,13127985928;13816689727,3.9,[],购物菜场,上海市,上海市,徐汇区
B0FFG69ZOR,爱森优选(大木桥二店),购物服务;综合市场;农副产品市场,060703,大木桥路122-126号(嘉善路地铁站4号口步行200米),121.461373,31.199791,18964963045;18996579781,3.8,[],购物菜场,上海市,上海市,徐汇区
B00155I1W5,惠利平价水果大卖场,购物服务;综合市场;果品市场,060704,零陵路191号-2、3(大木桥路地铁站3号口步行80米),121.461730,31.193536,13681799270;13764477897,4.0,[],购物菜场,上海市,上海市,徐汇区
B00155LXGS,喜而乐精品水果大卖场(法华镇路店),购物服务;综合市场;果品市场,060704,法华镇路669号,121.422752,31.206210,021-52301817;19951150899,4.0,[],购物菜场,上海市,上海市,长宁区
B0G064LEJ5,清美鲜家(宛平南路店),购物服务;综合市场;农副产品市场,060703,宛平南路810号,121.450922,31.184693,4006071717,3.8,[],购物菜场,上海市,上海市,徐汇区
B0FFFYJZ8B,华诚果业(零陵小区店),购物服务;综合市场;果品市场,060704,零陵路663-1临号(上海体育场地铁站2号口步行120米),121.444840,31.186772,18375812348,3.9,[],购物菜场,上海市,上海市,徐汇区
B00155QHTI,天天鲜水果大卖场(番禹路店),购物服务;综合市场;果品市场,060704,番禺路785号,121.429102,31.198471,13916083298,4.0,[],购物菜场,上海市,上海市,徐汇区
B0I2M496DP,清美鲜家(文定路店),购物服务;综合市场;农副产品市场,060703,尚汇豪庭西北门旁,121.430033,31.180956,17318589540;4006071717,3.8,[],购物菜场,上海市,上海市,徐汇区
B0FFJS2XEJ,水果超市,购物服务;综合市场;果品市场,060704,瑞金二路408号乙室中间部位(打浦桥地铁站4号口步行70米),121.467030,31.206643,13816992998,4.0,[],购物菜场,上海市,上海市,黄浦区
B0FFK93W02,叮咚买菜(小木桥店),购物服务;综合市场;蔬菜市场,060705,小木桥路528号(大木桥路地铁站3号口步行330米),121.461140,31.191712,,4.2,[],购物菜场,上海市,上海市,徐汇区
B0H0UCLUOW,果畔·切果·SHOW(徐汇店),购物服务;综合市场;果品市场,060704,古宜路144号(宜山路地铁站11号口步行240米),121.425374,31.186523,18715009491,4.0,[],购物菜场,上海市,上海市,徐汇区
B0I2N5PYAH,日月光切果派(建新小区358弄店),购物服务;综合市场;果品市场,060704,建国西路360号,121.456532,31.204656,18221485577,4.0,[],购物菜场,上海市,上海市,徐汇区
B0FFJO5QTK,鲜果园(零陵路店),购物服务;综合市场;果品市场,060704,零陵路374号(东安路地铁站6号口步行80米),121.454670,31.190500,13788978307,4.1,[],购物菜场,上海市,上海市,徐汇区
B0FFG69QED,鲜果多(昭化路店),购物服务;综合市场;果品市场,060704,昭化路486号,121.422981,31.211324,021-62109591;13962631241;17317298609,4.0,[],购物菜场,上海市,上海市,长宁区
B0FFHE961P,苹果园水果大卖场(东安路店),购物服务;综合市场;果品市场,060704,斜土路街道东安路40号(肇嘉浜路地铁站4号口步行120米),121.450351,31.197958,,4.1,[],购物菜场,上海市,上海市,徐汇区
B0FFGKUHF6,昆山大闸蟹(嘉善路店),购物服务;综合市场;水产海鲜市场,060706,嘉善路140弄11-1号,121.459056,31.210372,13817730217,3.9,[],购物菜场,上海市,上海市,徐汇区
B0FFK6MTOI,鲜倍果品(延安西路店),购物服务;综合市场;果品市场,060704,延安西路1022号,121.430957,31.212445,13818613520,3.9,[],购物菜场,上海市,上海市,长宁区
B0FFGCYMTN,伍旺天然果园,购物服务;综合市场;果品市场,060704,新华路416号,121.424587,31.203989,13818307605,3.8,[],购物菜场,上海市,上海市,长宁区
B0FFIGFQ4X,鲜丰水果(中山医院店),购物服务;综合市场;果品市场,060704,枫林路182-1号中山西院西门旁,121.454923,31.197209,13776165761;4008819090,4.1,[],购物菜场,上海市,上海市,徐汇区
B0JU6RTZ3N,新味派水果零食超市(茶陵路店),购物服务;综合市场;果品市场,060704,零陵路29弄19号或茶陵路78号丝庐花语,121.465779,31.197564,18116136361,3.7,[],购物菜场,上海市,上海市,徐汇区
B0JGH6NTBZ,钱大妈(中镇小区店),购物服务;综合市场;农副产品市场,060703,法华镇路720弄1-29号中镇小区,121.422781,31.205937,,4.1,[],购物菜场,上海市,上海市,长宁区
B0FFFV28P4,爱森优选(南丹店),购物服务;综合市场;农副产品市场,060703,南丹路183-1号,121.432291,31.189657,13167278808,3.9,[],购物菜场,上海市,上海市,徐汇区
B0FFH8WZU7,绿园果业(广元路店),购物服务;综合市场;果品市场,060704,天平路街道广元路180号(徐家汇地铁站16号口步行500米),121.439193,31.199035,,4.0,[],购物菜场,上海市,上海市,徐汇区
B00155QLKI,福达精品蟹行,购物服务;综合市场;水产海鲜市场,060706,乌鲁木齐中路272号(近五原路),121.446018,31.212256,021-64743207;15901644385,3.7,[],购物菜场,上海市,上海市,徐汇区
B0HRCUNKT9,光明牛奶批发零售(谨斜小区店),购物服务;综合市场;农副产品市场,060703,上海市徐汇区斜土路2185号,121.447847,31.192097,15002179754,3.9,[],购物菜场,上海市,上海市,徐汇区
B00155M0IY,上海昕永食品,购物服务;综合市场;果品市场,060704,"永嘉路231弄1-12号,229弄1-10号永嘉路231弄小区",121.461420,31.210030,13046634526,3.6,[],购物菜场,上海市,上海市,徐汇区
B00156GWNS,爱森优选(幸福路店),购物服务;综合市场;农副产品市场,060703,新华路街道幸福路13号爱森优选,121.430896,31.203788,13641837122;15201700584,3.7,[],购物菜场,上海市,上海市,长宁区
B0L2RSMCKP,蟹干妈大闸蟹,购物服务;综合市场;水产海鲜市场,060706,南丹东路111-22号,121.443593,31.190072,13695593737,3.4,[],购物菜场,上海市,上海市,徐汇区
B0J2OUBWT7,唐家湾平价集市(轻工大木桥小区店),购物服务;综合市场;综合市场,060700,大木桥路438号,121.462058,31.197122,13601948798,3.5,[],购物菜场,上海市,上海市,徐汇区
B0FFG0Y30L,小王水果店(宛平南路店),购物服务;综合市场;果品市场,060704,东安四村西南门旁,121.450430,31.186545,13818231058;15900448886,3.8,[],购物菜场,上海市,上海市,徐汇区
B0GUPZWS5C,良田集市(零陵路店),购物服务;综合市场;农副产品市场,060703,零陵路228号(大木桥路地铁站3号口步行300米),121.459748,31.192443,13681990096;18616033498,3.8,[],购物菜场,上海市,上海市,徐汇区
B0KK2B21C6,168海洋生鲜超市(武夷路店),购物服务;综合市场;综合市场,060700,武夷路与种德桥路交叉口西北20米,121.420339,31.212861,16601896847,3.8,[],购物菜场,上海市,上海市,长宁区
B0FFLAUEKN,光明牛奶驿站(虹桥路店),购物服务;综合市场;农副产品市场,060703,中山西路1301号虹珠市场188号(凯旋路大门近),121.421959,31.193611,17315213305;18117151779,3.7,[],购物菜场,上海市,上海市,长宁区
B0IKF54KEY,姓栗名薯(钦州花苑店),购物服务;综合市场;果品市场,060704,钦州路840号钦州花苑,121.424869,31.178746,13984835245,3.6,[],购物菜场,上海市,上海市,徐汇区
B00156QAU3,宁多百货·生活超市(法华镇路101弄小区店),购物服务;综合市场;农副产品市场,060703,法华镇路150弄1-19号振新小区,121.432682,31.202586,,3.8,[],购物菜场,上海市,上海市,长宁区
B0HUNHB85Z,玲龙果业(长中小区店),购物服务;综合市场;果品市场,060704,虹桥路998号(虹桥路地铁站6号口步行260米),121.420561,31.195459,18601786742,4.0,[],购物菜场,上海市,上海市,长宁区
B0FFG69RMV,鲜果缘,购物服务;综合市场;果品市场|餐饮服务;餐饮相关场所;餐饮相关,060704|050000,平武路114号鲜果缘,121.431837,31.208594,13564851872,4.0,[],购物菜场,上海市,上海市,长宁区
B0JUZ7485S,兄弟便民生鲜超市(祥和公寓店),购物服务;综合市场;农副产品市场,060703,医学院路与大木桥路交叉口西80米,121.460553,31.200465,18255798222,3.9,[],购物菜场,上海市,上海市,徐汇区
B0FFK69YR8,伊赛牛肉(双峰市场店),购物服务;综合市场;农副产品市场,060703,双峰路300号双峰市场2楼106号伊赛牛肉店,121.448571,31.181607,15026680015,3.6,[],购物菜场,上海市,上海市,徐汇区
B0J2MST52N,老上海蟹壳黄(法华镇路635弄公房店),购物服务;综合市场;水产海鲜市场,060706,法华镇路635弄公房西南门旁,121.423178,31.206014,,4.0,19.00,购物菜场,上海市,上海市,长宁区
B0FFFA1T1Y,兴辉水果店(阿耐思特岩田商务楼店),购物服务;综合市场;果品市场,060704,宛平南路200号阿耐思特岩田商务楼F1层,121.446123,31.193814,13681672768;13761776706,3.7,[],购物菜场,上海市,上海市,徐汇区
B0FFJAAGVQ,鲜丰水果(上海小木桥路店)(暂停营业),购物服务;综合市场;果品市场,060704,小木桥路225号,121.457875,31.198225,4008819090,3.9,[],购物菜场,上海市,上海市,徐汇区
B0FFJLNCQP,宫品海参(徐汇店)(暂停营业),购物服务;综合市场;水产海鲜市场,060706,斜土路1628号,121.457922,31.196355,13817633969,3.7,[],购物菜场,上海市,上海市,徐汇区
B00153878A,鲜果小铺(江苏路店),购物服务;综合市场;果品市场,060704,江苏路771号,121.433974,31.212913,15000818582,3.8,[],购物菜场,上海市,上海市,长宁区
B0HASM7UL1,大木桥奶站(轻工大木桥小区店),购物服务;综合市场;农副产品市场,060703,上海市上海市徐汇区(大木桥路地铁站4号口步行340米),121.462108,31.197003,18121241990,3.7,[],购物菜场,上海市,上海市,徐汇区
B0FFLN8Z1M,牛奶批发,购物服务;综合市场;农副产品市场,060703,华容路91号,121.450908,31.180226,13661987991,3.6,[],购物菜场,上海市,上海市,徐汇区
B0FFLH5CTW,苏鲁生鲜超市(嘉嘉大楼店),购物服务;综合市场;农副产品市场,060703,天平路街道嘉善路170号苏鲁生鲜超市,121.459186,31.209865,,4.0,[],购物菜场,上海市,上海市,徐汇区
B0J0D7TL1O,悦栗优选(斜土路店),购物服务;综合市场;果品市场,060704,斜土路1472号悦栗优选,121.460496,31.197474,13731970540;17821741413,4.1,27.00,购物菜场,上海市,上海市,徐汇区
B00156YUF3,绿源蟹庄(永嘉路231弄小区店),购物服务;综合市场;水产海鲜市场,060706,上海市徐汇区永嘉路215号,121.461337,31.210022,13661849548,3.8,[],购物菜场,上海市,上海市,徐汇区
B0KB69AS27,琦王花生(徐汇虹桥路地铁站店),购物服务;综合市场;农副产品市场,060703,凯旋路与虹桥路交叉口北120米(虹桥路地铁站2号口旁),121.421025,31.196825,,3.4,[],购物菜场,上海市,上海市,长宁区
B00155QI08,伍旺果品(南丹路店),购物服务;综合市场;果品市场,060704,南丹路183号底层-6,121.432200,31.189717,,3.9,[],购物菜场,上海市,上海市,徐汇区
B0L2CUIVBT,嘉客来精品水果(曹溪北路店),购物服务;综合市场;果品市场,060704,曹溪北路640号,121.436428,31.185758,13003663321,4.0,[],购物菜场,上海市,上海市,徐汇区
B0J0AYB698,永旺炒货(原水小区店),购物服务;综合市场;果品市场,060704,泰康路190弄之1-6号原水小区,121.469767,31.207976,18201874206,3.8,[],购物菜场,上海市,上海市,黄浦区
B0FFIH4K0E,源栗王(永嘉路店),购物服务;综合市场;果品市场|餐饮服务;餐饮相关场所;餐饮相关,060704|050000,永嘉路296号2,121.457800,31.209181,13636382343;15900868311,2.9,[],购物菜场,上海市,上海市,徐汇区
B0FFFPUQIX,明宇粮店(祥和公寓店),购物服务;综合市场;农副产品市场,060703,医学院路5弄1-14号祥和公寓,121.460177,31.200416,021-64434854,3.4,[],购物菜场,上海市,上海市,徐汇区
B0FFJ3HOGY,荟选集市(乐山店),购物服务;综合市场;果品市场|购物服务;综合市场;农副产品市场,060704|060703,乐山六七村东南门旁,121.431124,31.195093,,4.1,[],购物菜场,上海市,上海市,徐汇区
B0FFGBZZSQ,麦青果园-时鲜桂珍水果店,购物服务;综合市场;果品市场,060704,枫林路235号,121.455975,31.195575,13636657847,3.8,[],购物菜场,上海市,上海市,徐汇区
B0FFK09YIL,沪坤生鲜超市(华山店),购物服务;综合市场;农副产品市场,060703,华山路1547号(交通大学地铁站6号口步行220米),121.434216,31.204564,021-62197512,3.8,[],购物菜场,上海市,上海市,长宁区
B0FFH2YWG2,铭言生鲜(岳阳社区店),购物服务;综合市场;农副产品市场,060703,岳阳路221号岳阳大楼F1层,121.452944,31.203556,,4.1,[],购物菜场,上海市,上海市,徐汇区
B0H0JZVL75,孟记炒货(法华镇路店),购物服务;综合市场;果品市场,060704,法华镇路751弄1-45号西镇小区,121.421144,31.206960,18321141337,3.8,[],购物菜场,上海市,上海市,长宁区
B0JBSYRZDE,舟山海鲜直销(法华镇路635弄公房店),购物服务;综合市场;水产海鲜市场,060706,法华镇路639号,121.422126,31.206502,15952279766,3.6,[],购物菜场,上海市,上海市,长宁区
B0GK1O24NG,五丰上食鲜肉店(万有全新鲜市菜场店),购物服务;综合市场;农副产品市场,060703,肇嘉浜路与襄阳南路交叉口南200米,121.459147,31.200376,15902119577,3.5,[],购物菜场,上海市,上海市,徐汇区
B0FFIXLD2I,云超鲜果(安甯邨店),购物服务;综合市场;果品市场,060704,绍兴路47弄1-3号安甯邨,121.462057,31.207910,,4.0,[],购物菜场,上海市,上海市,黄浦区
B0015707OQ,百姓家农产品有限公司(西木小区289弄店),购物服务;综合市场;农副产品市场,060703,零陵路291号(东安路地铁站1号口步行320米),121.458405,31.192227,13636318990;13818458998,3.6,[],购物菜场,上海市,上海市,徐汇区
B0JBNOZIB2,庭嘉果园,购物服务;综合市场;果品市场,060704,裕德路52号临1蔬果店(上海体育馆地铁站8号口步行320米),121.435615,31.184651,,4.1,[],购物菜场,上海市,上海市,徐汇区
B0FFIDGGB8,一品蟹庄阳澄湖大闸蟹(宛平南路431弄小区店),购物服务;综合市场;水产海鲜市场|餐饮服务;餐饮相关场所;餐饮相关,060706|050000,宛平南路435号,121.447949,31.190573,13818305888,3.7,[],购物菜场,上海市,上海市,徐汇区
B0FFGHEP8Q,德红炒货经营部(虹珠店),购物服务;综合市场;果品市场,060704,中山西路1301号201号(虹桥路地铁站6号口步行380米),121.422057,31.193731,18721727910,3.3,[],购物菜场,上海市,上海市,长宁区
B00156GMTE,清美鲜食(万宝国际商务中心店),购物服务;综合市场;农副产品市场|公司企业;公司;公司,060703|170200,新华路664号万宝国际商务中心F1层,121.420798,31.205141,,3.7,[],购物菜场,上海市,上海市,长宁区
B0FFIRZECZ,来吃果水果店(平武商务楼店),购物服务;综合市场;果品市场,060704,平武路125号,121.431736,31.208400,13023186875;18701945928,3.6,[],购物菜场,上海市,上海市,长宁区
B0G07B02GX,旺源驼奶(中祥金祥苑柳州路628弄店),购物服务;综合市场;农副产品市场,060703,中祥金祥苑东1门旁,121.420441,31.179741,13817233758;13916460040,3.3,[],购物菜场,上海市,上海市,徐汇区
B0J3HKHHG6,琦王花生(黄浦打浦桥日月光店),购物服务;综合市场;果品市场,060704,徐家汇路618号日月光负二楼(打浦桥地铁站4号口步行70米),121.467553,31.206721,4008817850,3.8,[],购物菜场,上海市,上海市,黄浦区
B0KB7CJFLW,乐果皇(鲜果切·果捞果汁·日月光店),购物服务;综合市场;果品市场,060704,建国中路109号(打浦桥地铁站1号口步行360米),121.469246,31.209575,16601701485;17717828190,4.0,[],购物菜场,上海市,上海市,黄浦区
B0FFFXSM9D,南汇宇高蔬菜店,购物服务;综合市场;蔬菜市场,060705,永嘉路614号(衡山路地铁站1号口步行310米),121.449224,31.204917,,3.8,[],购物菜场,上海市,上海市,徐汇区
B0JKC4GLJR,尚上鲜·茶陵市集(天合雅园店),购物服务;综合市场;综合市场|餐饮服务;餐饮相关场所;餐饮相关,060700|050000,天合雅园西北门西南70米(大木桥路地铁站1号口步行430米),121.464829,31.197164,,3.7,[],购物菜场,上海市,上海市,徐汇区
B0JDHUA3DX,清美鲜家(新华豪庭店),购物服务;综合市场;农副产品市场,060703,法华镇路129号新华豪庭(交通大学地铁站5号口步行380米),121.431246,31.203205,,3.9,[],购物菜场,上海市,上海市,长宁区
B0JRL19Q8K,红集牌高品质水果,购物服务;综合市场;果品市场,060704,思南路与建国中路交叉口西南180米,121.469383,31.208479,15618902285,3.7,[],购物菜场,上海市,上海市,黄浦区
B0J25UQ48V,嘻嘻果品(宛平南路240弄小区店),购物服务;综合市场;果品市场,060704,宛平南路240弄5-9号宛平南路240弄小区,121.446304,31.193150,,3.6,[],购物菜场,上海市,上海市,徐汇区
B0FFG0ZGCT,小山东蔬菜店,购物服务;综合市场;蔬菜市场,060705,襄阳南路444弄1-71号襄阳南路444弄小区,121.457954,31.206456,,3.9,[],购物菜场,上海市,上海市,徐汇区
B0GRSHBBJB,百斯特进口食品直营店,购物服务;综合市场;果品市场,060704,幸福路42号(交通大学地铁站5号口步行490米),121.431204,31.203900,18221128384,3.8,[],购物菜场,上海市,上海市,长宁区
B0015171F9,泰奥水果店(金谷邨店),购物服务;综合市场;果品市场,060704,瑞金二路街道瑞金二路街道瑞金二路街道绍兴路18弄1-83号金谷邨,121.465848,31.210335,,3.8,[],购物菜场,上海市,上海市,黄浦区
B0FFG69YDI,双汇冷鲜肉批零中心(广元西路420弄小区店),购物服务;综合市场;农副产品市场,060703,徐虹北路120号,121.430476,31.193711,,3.5,[],购物菜场,上海市,上海市,徐汇区
B0FFKM6QA5,诚信水果店(吴兴路256弄小区店),购物服务;综合市场;果品市场,060704,吴兴路256弄小区(衡山路地铁站1号口步行470米),121.445041,31.200328,13601643477,3.8,[],购物菜场,上海市,上海市,徐汇区
B0HAKYGNI6,光明鲜奶随心订(田林店),购物服务;综合市场;农副产品市场,060703,三汇路32号光明随心订(上海体育馆地铁站7号口步行460米),121.433368,31.179712,,3.6,[],购物菜场,上海市,上海市,徐汇区
B0JDDPLD92,鸿开果园,购物服务;综合市场;果品市场,060704,锦和巴黎时韵东南门旁,121.457943,31.204977,,3.9,[],购物菜场,上海市,上海市,徐汇区
B00155HZLU,光明奶站,购物服务;综合市场;农副产品市场,060703,小木桥路371-9号(大木桥路地铁站3号口步行370米),121.459971,31.194757,,3.7,[],购物菜场,上海市,上海市,徐汇区
B00155ICHW,鲜生活生鲜科技有限公司(宛平南路240弄小区店),购物服务;综合市场;蔬菜市场,060705,宛平南路260弄45号摊位,121.445849,31.192982,15050844954,3.4,[],购物菜场,上海市,上海市,徐汇区
B0J2RMI1ZH,星杨生鲜(平武路店),购物服务;综合市场;农副产品市场,060703,平武路150弄2-26号和平小区,121.431945,31.208606,,4.0,[],购物菜场,上海市,上海市,长宁区
B0I2FAEVZ3,鲜丰水果(日晖六村店),购物服务;综合市场;果品市场,060704,大木桥路452号(大木桥路地铁站4号口步行180米),121.462684,31.195545,4008819090,3.0,[],购物菜场,上海市,上海市,徐汇区
B0JAPZZEYL,杨鲜生(汇贤雅居店),购物服务;综合市场;农副产品市场,060703,南丹路368弄1-10号汇贤雅居,121.427913,31.190465,,3.9,[],购物菜场,上海市,上海市,徐汇区
B0FFFFUFO1,上海美丰商业有限公司(橡胶小区店),购物服务;综合市场;农副产品市场,060703,宛平南路19弄1-6号橡胶小区,121.445278,31.196988,,3.5,[],购物菜场,上海市,上海市,徐汇区
B0FFH88QJL,兴泰杂粮店&水果店,购物服务;综合市场;农副产品市场,060703,泰安路与武康路交叉口西80米,121.438256,31.206054,,3.5,[],购物菜场,上海市,上海市,徐汇区
B0G0SH0S1G,太湖大闸蟹(恒昌花园店),购物服务;综合市场;水产海鲜市场,060706,宛平南路519号,121.448754,31.189110,,3.3,[],购物菜场,上海市,上海市,徐汇区
B0GUXO9F13,蔬果源家(裕德路66弄店),购物服务;综合市场;蔬菜市场,060705,漕溪大楼南区西门旁(上海体育馆地铁站8号口步行240米),121.435616,31.184097,,3.9,[],购物菜场,上海市,上海市,徐汇区
B0JG59BUIE,果鲜园(乐山路店),购物服务;综合市场;果品市场,060704,四五村社区东门旁,121.433000,31.196268,15000765532,3.6,[],购物菜场,上海市,上海市,徐汇区
B0FFM8ZU61,申果果业(华山花苑店),购物服务;综合市场;果品市场,060704,华山花苑西门旁(交通大学地铁站7号口步行50米),121.435007,31.203027,,3.8,[],购物菜场,上海市,上海市,长宁区
B00155AJDM,利群炒货水果店(谨斜小区店),购物服务;综合市场;果品市场,060704,斜土路2365弄1-34号谨斜小区,121.448268,31.192344,15601899219,3.5,[],购物菜场,上海市,上海市,徐汇区
B0H1GZT9SZ,蟹王阳澄湖大闸蟹(徐汇汇联商厦店),购物服务;综合市场;水产海鲜市场|餐饮服务;餐饮相关场所;餐饮相关,060706|050000,天钥桥路86号,121.441279,31.192861,18501737973;18516322262,3.8,[],购物菜场,上海市,上海市,徐汇区
B0L27XKVJM,华诚果业(番禺路店),购物服务;综合市场;果品市场,060704,番禺小区东门南80米,121.428472,31.197390,,3.4,[],购物菜场,上海市,上海市,徐汇区
B0J1D96V5W,小辫子水产品(汇成桂苑店),购物服务;综合市场;水产海鲜市场,060706,汇成桂苑西北2门旁(嘉善路地铁站4号口步行340米),121.459185,31.200175,18679486689,3.6,[],购物菜场,上海市,上海市,徐汇区
B0JKXROQFY,小陈蔬果店,购物服务;综合市场;蔬菜市场,060705,法华镇路641号,121.423222,31.206012,,3.4,[],购物菜场,上海市,上海市,长宁区
B0J10U9DH7,熙琳果园水果店,购物服务;综合市场;果品市场,060704,中华门大厦东北门旁(宜山路地铁站9号口步行230米),121.425575,31.181283,13651920411,3.9,[],购物菜场,上海市,上海市,徐汇区
B0FFL0E0ZL,明佳鲜果店,购物服务;综合市场;果品市场,060704,永嘉大楼西北门旁(衡山路地铁站1号口步行310米),121.449297,31.204786,13818171935,3.7,[],购物菜场,上海市,上海市,徐汇区
B0KR3D09CY,优鲜果果园,购物服务;综合市场;果品市场,060704,双峰路340号,121.448917,31.181229,,3.6,[],购物菜场,上海市,上海市,徐汇区
B0I2R5RSBE,阳澄湖大闸蟹(湖鑫舫徐汇店),购物服务;综合市场;水产海鲜市场,060706,小木桥路368号(大木桥路地铁站3号口步行440米),121.459357,31.195364,13003248658;13681784776,3.7,[],购物菜场,上海市,上海市,徐汇区
B0FFIRQFTS,平价海鲜(西镇小区店),购物服务;综合市场;水产海鲜市场,060706,法华镇路751弄1-45号西镇小区,121.422878,31.206152,,3.3,[],购物菜场,上海市,上海市,长宁区
B0HGGCTY9M,小陈牛羊肉(虹珠市场店),购物服务;综合市场;农副产品市场,060703,中山西路1301号虹珠市场105号,121.422039,31.193748,15001981682;15021797418,3.5,[],购物菜场,上海市,上海市,长宁区
B0FFGL1BRZ,瑞金鲜花水果(金谷邨店),购物服务;综合市场;果品市场,060704,瑞金二路街道瑞金二路街道瑞金二路街道绍兴路18弄1-83号金谷邨,121.465920,31.210822,021-64315240;13651814010,3.5,[],购物菜场,上海市,上海市,黄浦区
B0KG970JVR,清美鲜家(电影华苑西区店),购物服务;综合市场;农副产品市场,060703,零陵路与三角东街交叉口东北120米,121.440066,31.183898,,3.7,[],购物菜场,上海市,上海市,徐汇区
B0K0P4SKWJ,果姐水果店,购物服务;综合市场;果品市场,060704,兴顺东里东北1门东北50米,121.459305,31.211153,,3.5,[],购物菜场,上海市,上海市,徐汇区
B0IUHPLQMO,甜甜水果鲜花,购物服务;综合市场;果品市场,060704,淮海西路229弄新里,121.427229,31.198848,13519554314,3.5,[],购物菜场,上海市,上海市,徐汇区
B0J2YMNKVW,优品水果店,购物服务;综合市场;果品市场,060704,永嘉路1弄小区,121.465297,31.211545,,3.7,[],购物菜场,上海市,上海市,黄浦区
B0K6P7YMA6,博文旧货调剂,购物服务;综合市场;旧货市场,060702,永嘉路7号-1,121.465177,31.211500,18217005788,3.6,[],购物菜场,上海市,上海市,黄浦区
B0L3HLBME8,德泉缘旧货调剂商店,购物服务;综合市场;综合市场,060700,建国中路125号临3号(打浦桥地铁站1号口步行300米),121.468802,31.209324,13917165393,3.5,[],购物菜场,上海市,上海市,黄浦区
B0G27UFP0J,浔龙冷饮批发(茶陵路店),购物服务;综合市场;水产海鲜市场,060706,零陵路82号-1(大木桥路地铁站1号口步行210米),121.466344,31.194653,021-64046112;13601682492;17749796113,3.7,[],购物菜场,上海市,上海市,徐汇区
B0LGS4WWXR,清美日日鲜(汇成桂苑店),购物服务;综合市场;农副产品市场,060703,清真路58弄之1-34号汇成桂苑,121.459296,31.200188,,3.8,[],购物菜场,上海市,上海市,徐汇区
B0GKK6VAYQ,阳光鲜果汇(西木小区289弄店),购物服务;综合市场;果品市场,060704,西木小区289弄(东安路地铁站1号口步行320米),121.458372,31.192247,13524978302,3.8,[],购物菜场,上海市,上海市,徐汇区
B0FFK6G01K,小钟水产行(永盛里店),购物服务;综合市场;水产海鲜市场,060706,嘉善路107号,121.459261,31.211116,,3.8,[],购物菜场,上海市,上海市,徐汇区
B0FFJISKG3,巴城舫阳澄湖大闸蟹(徐汇店),购物服务;综合市场;水产海鲜市场,060706,斜土路2371号巴城大闸蟹,121.447878,31.192132,13472572431,3.7,[],购物菜场,上海市,上海市,徐汇区
B0L017GS3C,棘棘果王新疆手工冰淇淋(上海首店),购物服务;综合市场;果品市场,060704,肇嘉浜路403卫星大楼F1层,121.458434,31.201809,18695122077,3.9,26.00,购物菜场,上海市,上海市,徐汇区
B0H1U926DD,安吉竹山土鸡,购物服务;综合市场;农副产品市场,060703,医学院路17一楼A023摊位(龙群集市),121.459264,31.200358,13671771989,3.6,[],购物菜场,上海市,上海市,徐汇区
B0L14B06KT,壹号土猪(徐汇区龙山菜市场店),购物服务;综合市场;农副产品市场,060703,天钥新村133号龙山菜市场2楼41号摊位,121.447451,31.184491,18022636604,3.2,[],购物菜场,上海市,上海市,徐汇区
B0FFH15YCI,牧欢清真牛羊肉(法华店),购物服务;综合市场;农副产品市场,060703,杨宅路20号西法华农贸市场,121.420134,31.206334,18221726182,3.8,[],购物菜场,上海市,上海市,长宁区
B0KDTHACCR,崇明生鲜店,购物服务;综合市场;农副产品市场,060703,建国西路212乙科普弄,121.461778,31.207350,,3.6,[],购物菜场,上海市,上海市,徐汇区
B0H17S5W5V,切果NOW(徐汇二店),购物服务;综合市场;果品市场,060704,零陵路29弄19号或茶陵路78号丝庐花语,121.467305,31.195091,13905764585;15055387110;15316061728,4.1,[],购物菜场,上海市,上海市,徐汇区
B0LAHRE9HC,李北车水果生鲜,购物服务;综合市场;果品市场,060704,乐山路11号,121.433341,31.196262,17621193888,4.1,[],购物菜场,上海市,上海市,徐汇区
B0FFLARAP3,平价水果蔬菜店(和玫坊店),购物服务;综合市场;果品市场,060704,建国中路61弄5号(打浦桥地铁站1号口步行400米),121.469694,31.209678,,3.7,[],购物菜场,上海市,上海市,黄浦区
B0FFF3AIHS,小山东水果店(嘉善路),购物服务;综合市场;果品市场,060704,永盛里西北1门旁,121.459280,31.211117,,2.9,[],购物菜场,上海市,上海市,徐汇区
B0FFH10QGN,源之鲜蔬果生鲜连锁超市(汇成桂苑店),购物服务;综合市场;蔬菜市场,060705,医学院路20号(嘉善路地铁站4号口步行290米),121.459719,31.200219,18601759831;19157013579,3.9,[],购物菜场,上海市,上海市,徐汇区
B0L2O7W93E,壹号土猪(上海宛平市场店),购物服务;综合市场;农副产品市场,060703,宛平南路260-13号,121.445890,31.192970,18321295819,3.7,[],购物菜场,上海市,上海市,徐汇区
B0H6SNUKY7,壹号土猪(虹珠市场店),购物服务;综合市场;农副产品市场,060703,凯旋路1601号虹珠市场(虹桥路地铁站6号口步行460米),121.422015,31.193758,18317033155,3.6,[],购物菜场,上海市,上海市,长宁区
B0L2BZIMMA,壹号土猪上海广元市场店(天平小区店),购物服务;综合市场;农副产品市场,060703,天平路179弄1-32号天平小区,121.439141,31.198794,15021024332,2.9,[],购物菜场,上海市,上海市,徐汇区
B0FFKW7TRJ,闽榕干货调料店,购物服务;综合市场;农副产品市场,060703,乐山路115号,121.431080,31.194607,13918990584,3.6,[],购物菜场,上海市,上海市,徐汇区
B0FFLGUKOR,申记黑芝麻糊(西镇小区店),购物服务;综合市场;农副产品市场,060703,法华镇路751弄1-45号西镇小区,121.422507,31.206322,,3.4,[],购物菜场,上海市,上海市,长宁区
B0FFGZOHI6,崇明蔬菜园(谨斜小区店),购物服务;综合市场;蔬菜市场,060705,斜土路2365弄1-34号谨斜小区,121.449422,31.192979,13817715578,3.9,[],购物菜场,上海市,上海市,徐汇区
B0FFFGMYWF,牛奶商城(乌鲁木齐中路店),购物服务;综合市场;农副产品市场,060703,乌鲁木齐中路306号(常熟路地铁站8号口步行470米),121.446305,31.211588,15921846418,3.7,[],购物菜场,上海市,上海市,徐汇区
B0H3HH01OW,南北干货粮油干货店,购物服务;综合市场;农副产品市场,060703,零陵路366号1-2室(枫林市场19号摊位),121.461584,31.193480,15021944823,3.6,[],购物菜场,上海市,上海市,徐汇区
B0L0L59MXW,鲜丰水果(番禺大楼店),购物服务;综合市场;果品市场,060704,番禺路900弄1-2号番禺大楼,121.428186,31.196025,19145520404,3.4,[],购物菜场,上海市,上海市,徐汇区
B0FFICG2EW,光明直销(医学院路店),购物服务;综合市场;农副产品市场,060703,汇成桂苑西北3门旁,121.459892,31.200245,13918252565,3.6,[],购物菜场,上海市,上海市,徐汇区
B0HG37FVR6,海良鲜牛肉,购物服务;综合市场;农副产品市场,060703,医学院路17号(市场内一楼LQ-A008号摊位),121.459201,31.200421,17717399546,3.0,[],购物菜场,上海市,上海市,徐汇区
B0LAOKCI13,万里源生鲜,购物服务;综合市场;农副产品市场,060703,零陵路与天钥桥路交叉口东160米,121.444363,31.186363,,3.8,[],购物菜场,上海市,上海市,徐汇区
B0H1KR3ZN5,切果派(和玫坊店),购物服务;综合市场;果品市场,060704,建国中路95号(打浦桥地铁站1号口步行390米),121.469568,31.209620,18930045044,3.5,[],购物菜场,上海市,上海市,黄浦区
B0HDVYY3TI,壹号土猪(双峰菜市场店),购物服务;综合市场;农副产品市场,060703,双峰路300号(双峰市场内20号房),121.448297,31.181745,18820680455,3.5,[],购物菜场,上海市,上海市,徐汇区
B0FFFG0248,壹号土猪专卖店,购物服务;综合市场;农副产品市场,060703,复兴中路1239号复中菜市场二楼,121.458115,31.212539,13166231105,3.1,[],购物菜场,上海市,上海市,徐汇区
B00155GD3Z,建何食品水果店,购物服务;综合市场;农副产品市场,060703,建国西路与襄阳南路交叉口西60米,121.457545,31.204977,,3.5,[],购物菜场,上海市,上海市,徐汇区
B0I3JK0573,糖炒板栗,购物服务;综合市场;果品市场,060704,瑞金二路与建国西路交叉口南60米,121.466872,31.207914,13611782825,1.6,[],购物菜场,上海市,上海市,黄浦区
B0JGH6Q86O,笠颖优果坊(永嘉路300弄小区店),购物服务;综合市场;果品市场,060704,襄阳南路328号,121.457765,31.209395,17550291788,3.9,[],购物菜场,上海市,上海市,徐汇区
B0L2PAQ956,果果的家(徐汇滨江店),购物服务;综合市场;果品市场,060704,海珀旭晖南区北门旁(龙华中路地铁站5号口步行80米),121.457466,31.182698,,4.1,[],购物菜场,上海市,上海市,徐汇区
B0FFHU7SFX,南汇农场蔬菜专卖(虹珠市场店),购物服务;综合市场;蔬菜市场,060705,中山西路1301号虹珠市场(虹桥路地铁站6号口步行460米),121.422027,31.193225,15026648619,2.7,[],购物菜场,上海市,上海市,长宁区
B0FFG9M3DF,艺杏豆制品专卖,购物服务;综合市场;蔬菜市场|购物服务;综合市场;农副产品市场,060705|060703,零陵路56号(大木桥路地铁站1号口步行230米),121.466570,31.194704,,3.8,[],购物菜场,上海市,上海市,徐汇区
B0LGY9642Y,金锣冷鲜肉专卖店,购物服务;综合市场;农副产品市场,060703,龙华路2508号龙华雅居(龙华地铁站出入口步行490米),121.452275,31.179125,,3.1,[],购物菜场,上海市,上海市,徐汇区
B0J3DG342Q,百谷菜市,购物服务;综合市场;蔬菜市场,060705,乐山路与秀山路交叉口东南20米,121.431040,31.194710,,3.7,[],购物菜场,上海市,上海市,徐汇区
B0H1NXI2K7,崇明散养三黄鸡(天迈商务楼店),购物服务;综合市场;农副产品市场|餐饮服务;餐饮相关场所;餐饮相关,060703|050000,零陵路231号4幢102(大木桥路地铁站3号口步行290米),121.459679,31.192758,15978379012,3.5,[],购物菜场,上海市,上海市,徐汇区
B0KU3KELP6,红集牌高品质水果(徐汇店),购物服务;综合市场;果品市场,060704,斜士路2588号101室,121.444040,31.187544,,3.9,[],购物菜场,上海市,上海市,徐汇区
B0FFJRCMBX,时令蔬果(慎成里店),购物服务;综合市场;蔬菜市场,060705,嘉善路212号,121.459513,31.209181,,3.9,[],购物菜场,上海市,上海市,徐汇区
B00155FUX4,兴泰水果店(白俄罗斯公寓店),购物服务;综合市场;果品市场,060704,泰安路20号白俄罗斯公寓F1层,121.438354,31.206063,,3.7,[],购物菜场,上海市,上海市,徐汇区
B0FFGOFLQV,生产交易市场(上海生产资料交易市场店),购物服务;综合市场;综合市场,060700,肇嘉浜路201号上海生产资料交易市场F1层,121.463788,31.203048,,3.7,[],购物菜场,上海市,上海市,徐汇区
B0L2SC6AL7,榴财猫榴莲甄选店(徐汇店),购物服务;综合市场;果品市场,060704,裕德路168号徐汇商务大厦5楼516室,121.432808,31.185519,,3.7,[],购物菜场,上海市,上海市,徐汇区
B0FFH5GRPX,蔬菜水果店(医学院路),购物服务;综合市场;农副产品市场,060703,医学院路5弄1-14号祥和公寓,121.458725,31.200275,,3.8,[],购物菜场,上海市,上海市,徐汇区
B0I0YR00MH,安心菜场(广元市场店),购物服务;综合市场;蔬菜市场,060705,天平路179弄1-32号天平小区,121.439196,31.198804,13761590528,3.7,[],购物菜场,上海市,上海市,徐汇区
B0G064MCD3,水果蔬菜生鲜店(曲圆小区店),购物服务;综合市场;果品市场,060704,建国西路56弄1号-36号曲圆小区,121.465206,31.207850,,3.6,[],购物菜场,上海市,上海市,黄浦区
B0J6P6YJNQ,阳澄湖大闸蟹直销店,购物服务;综合市场;水产海鲜市场,060706,太原路与建国西路交叉口东南60米,121.455802,31.203863,021-38820817,3.7,[],购物菜场,上海市,上海市,徐汇区
B0GUKUEHH1,鲜果园,购物服务;综合市场;果品市场,060704,斜土路2365弄1-34号谨斜小区,121.449297,31.192938,,3.1,[],购物菜场,上海市,上海市,徐汇区
B0K6S56OIX,清水大闸蟹专卖(法华镇路店),购物服务;综合市场;水产海鲜市场,060706,法华镇路751弄1-45号西镇小区,121.421034,31.206989,17683332833,3.4,[],购物菜场,上海市,上海市,长宁区
B00155GJIT,三夫户外(旗舰店),购物服务;体育用品店;户外用品,060907,天钥桥路859号北海大厦1-3层,121.443966,31.183445,021-54890385,4.4,[],购物菜场,上海市,上海市,徐汇区
B0FFJ2OC22,ARC'TERYX始祖鸟(港汇恒隆广场店),购物服务;体育用品店;户外用品|购物服务;服装鞋帽皮具店;品牌服装店,060907|061101,虹桥路1号港汇恒隆广场南座1楼140/141/142/150A店铺,121.437645,31.195421,021-64485339,4.4,[],购物菜场,上海市,上海市,徐汇区
B0KAMS1NJK,YONEX尤尼克斯日月光羽束旗舰店,购物服务;体育用品店;体育用品店,060900,徐家汇路618号B1-TK14-15(优衣库和耐克旁边的通道内),121.467959,31.206712,13671887553;18019350082,4.3,[],购物菜场,上海市,上海市,黄浦区
B0JBH7ZIQX,YONEX(零陵路店),购物服务;体育用品店;体育用品店,060900,零陵路747号(街边店),121.439244,31.183553,13795490280,4.2,[],购物菜场,上海市,上海市,徐汇区
B0IKUH0MM1,Wilson欣林田体育(漕溪北路店),购物服务;体育用品店;体育用品店,060900,漕溪北路739-2号(上海体育馆地铁站1号口步行260米),121.437020,31.184614,18121255305;18121255306,4.1,[],购物菜场,上海市,上海市,徐汇区
B0FFHPUHBL,阿迪达斯(百联徐汇商业广场),购物服务;体育用品店;阿迪达斯专卖店,060903,华山路2038号徐汇百联商场一楼,121.437066,31.197258,,4.2,[],购物菜场,上海市,上海市,徐汇区
B0L1K5U5DX,FUGA凯乐石(上海港汇恒隆店),购物服务;体育用品店;户外用品,060907,虹桥路1号恒隆港汇广场五楼510,121.436643,31.194406,18717859121,4.3,[],购物菜场,上海市,上海市,徐汇区
B0HBBU5KOE,YONEX(万体店),购物服务;体育用品店;体育用品店,060900,天钥桥路567号森本大楼1楼102,121.443000,31.185856,021-54666533,4.1,[],购物菜场,上海市,上海市,徐汇区
B0FFMC62RW,四环体育wilson专卖店,购物服务;体育用品店;体育用品店,060900,沪宜路1号A-885,121.464351,31.204297,13391429773,4.1,[],购物菜场,上海市,上海市,黄浦区
B0HBX5Q9MD,HONOR23念叁(衡山坊店),购物服务;体育用品店;体育用品店,060900,衡山路890弄4号(徐家汇地铁站13号口步行240米),121.439895,31.196083,021-63581698,4.2,[],购物菜场,上海市,上海市,徐汇区
B0H6N7F1H9,煜煜体育青少年羽毛球培训基地,购物服务;体育用品店;体育用品店|科教文化服务;培训机构;培训机构,060900|141400,小木桥路528号2楼(大木桥路地铁站3号口步行360米),121.461216,31.191517,13587383929,4.4,[],购物菜场,上海市,上海市,徐汇区
B0JBX5W93K,TBS sports(球拍店),购物服务;体育用品店;体育用品店,060900,襄阳南路328号乙,121.457992,31.209552,13262611623,4.2,[],购物菜场,上海市,上海市,徐汇区
B0FFHOSK69,MLB(飞洲国际广场),购物服务;体育用品店;体育用品店,060900,零陵路899号飞洲际大厦4楼,121.437985,31.183292,4006129686,4.0,[],购物菜场,上海市,上海市,徐汇区
B0L0HMPUNB,李宁(日月光中心伯爵居店),购物服务;体育用品店;李宁专卖店,060901,瑞金二路与泰康路交叉口东南120米(打浦桥地铁站出入口旁),121.467783,31.206479,4006100011,3.9,[],购物菜场,上海市,上海市,黄浦区
B0LASA1NAY,Wilson万体店,购物服务;体育用品店;体育用品店,060900,零陵路749号,121.439214,31.183583,18916928984,4.1,[],购物菜场,上海市,上海市,徐汇区
B0FFL736VD,猛犸象(上海港汇恒隆广场店),购物服务;体育用品店;户外用品,060907,虹桥路1号上海港汇恒隆广场F5层,121.437289,31.194662,15921358168,4.1,[],购物菜场,上海市,上海市,徐汇区
B00155DD6M,探路者(上海店),购物服务;体育用品店;户外用品,060907,天钥桥路869号(上海体育场地铁站3号口步行260米),121.444309,31.182537,021-54892441;021-64277381;4007008178,4.1,[],购物菜场,上海市,上海市,徐汇区
B0LGFRO469,GREGORY格里高利(港汇店),购物服务;体育用品店;户外用品|购物服务;服装鞋帽皮具店;品牌箱包店,060907|061104,港汇恒隆广场南座5层507d,121.437605,31.194501,,4.3,[],购物菜场,上海市,上海市,徐汇区
B0HATO1F3P,阿迪达斯(上海港汇恒隆广场店),购物服务;体育用品店;阿迪达斯专卖店,060903,虹桥路1号港汇广场4层三叶草,121.436813,31.194005,021-80411753,4.2,[],购物菜场,上海市,上海市,徐汇区
B0FFH06RSJ,FILA(港汇恒隆广场店),购物服务;体育用品店;体育用品店,060900,徐家汇虹桥路1号港汇恒隆广场L4层408-409FILA,121.437152,31.193933,4008867699,3.9,[],购物菜场,上海市,上海市,徐汇区
B0FFJ0NG63,ASICS 亚瑟士(飞洲国际广场店),购物服务;体育用品店;体育用品店,060900,零陵路899号飞洲国际广场(零陵路)F4层,121.437812,31.183316,15618991721,4.1,[],购物菜场,上海市,上海市,徐汇区
